[
  {
    "zip_code": 28431,
    "latitude": 34.316747,
    "longitude": -78.891483,
    "city": "Chadbourn",
    "state": "NC",
    "full_state": "North Carolina",
    "county": "Columbus"
  },
  {
    "zip_code": 28432,
    "latitude": 34.165516,
    "longitude": -78.789061,
    "city": "Clarendon",
    "state": "NC",
    "full_state": "North Carolina",
    "county": "Columbus"
  },
  {
    "zip_code": 28433,
    "latitude": 34.529167,
    "longitude": -78.592149,
    "city": "Clarkton",
    "state": "NC",
    "full_state": "North Carolina",
    "county": "Bladen"
  },
  {
    "zip_code": 28434,
    "latitude": 34.471042,
    "longitude": -78.477201,
    "city": "Council",
    "state": "NC",
    "full_state": "North Carolina",
    "county": "Bladen"
  },
  {
    "zip_code": 28435,
    "latitude": 34.441229,
    "longitude": -78.115064,
    "city": "Currie",
    "state": "NC",
    "full_state": "North Carolina",
    "county": "Pender"
  },
  {
    "zip_code": 28436,
    "latitude": 34.283839,
    "longitude": -78.260664,
    "city": "Delco",
    "state": "NC",
    "full_state": "North Carolina",
    "county": "Columbus"
  },
  {
    "zip_code": 28438,
    "latitude": 34.420379,
    "longitude": -78.894652,
    "city": "Evergreen",
    "state": "NC",
    "full_state": "North Carolina",
    "county": "Columbus"
  },
  {
    "zip_code": 28439,
    "latitude": 34.278093,
    "longitude": -78.987194,
    "city": "Fair Bluff",
    "state": "NC",
    "full_state": "North Carolina",
    "county": "Columbus"
  },
  {
    "zip_code": 28441,
    "latitude": 34.822898,
    "longitude": -78.323226,
    "city": "Garland",
    "state": "NC",
    "full_state": "North Carolina",
    "county": "Sampson"
  },
  {
    "zip_code": 28442,
    "latitude": 34.337401,
    "longitude": -78.652989,
    "city": "Hallsboro",
    "state": "NC",
    "full_state": "North Carolina",
    "county": "Columbus"
  },
  {
    "zip_code": 28443,
    "latitude": 34.391419,
    "longitude": -77.658725,
    "city": "Hampstead",
    "state": "NC",
    "full_state": "North Carolina",
    "county": "Pender"
  },
  {
    "zip_code": 28444,
    "latitude": 34.711792,
    "longitude": -78.26273,
    "city": "Harrells",
    "state": "NC",
    "full_state": "North Carolina",
    "county": "Sampson"
  },
  {
    "zip_code": 28445,
    "latitude": 34.527983,
    "longitude": -77.514707,
    "city": "Holly Ridge",
    "state": "NC",
    "full_state": "North Carolina",
    "county": "Onslow"
  },
  {
    "zip_code": 28446,
    "latitude": 34.83661,
    "longitude": -78.348111,
    "city": "Ingold",
    "state": "NC",
    "full_state": "North Carolina",
    "county": "Sampson"
  },
  {
    "zip_code": 28447,
    "latitude": 34.623287,
    "longitude": -78.234209,
    "city": "Ivanhoe",
    "state": "NC",
    "full_state": "North Carolina",
    "county": "Sampson"
  },
  {
    "zip_code": 28448,
    "latitude": 34.497157,
    "longitude": -78.322339,
    "city": "Kelly",
    "state": "NC",
    "full_state": "North Carolina",
    "county": "Bladen"
  },
  {
    "zip_code": 28449,
    "latitude": 33.986817,
    "longitude": -77.920117,
    "city": "Kure Beach",
    "state": "NC",
    "full_state": "North Carolina",
    "county": "New Hanover"
  },
  {
    "zip_code": 28450,
    "latitude": 34.345825,
    "longitude": -78.751361,
    "city": "Lake Waccamaw",
    "state": "NC",
    "full_state": "North Carolina",
    "county": "Columbus"
  },
  {
    "zip_code": 28451,
    "latitude": 34.245499,
    "longitude": -78.083622,
    "city": "Leland",
    "state": "NC",
    "full_state": "North Carolina",
    "county": "Brunswick"
  },
  {
    "zip_code": 28452,
    "latitude": 33.997292,
    "longitude": -78.554121,
    "city": "Longwood",
    "state": "NC",
    "full_state": "North Carolina",
    "county": "Brunswick"
  },
  {
    "zip_code": 28453,
    "latitude": 34.885139,
    "longitude": -78.034098,
    "city": "Magnolia",
    "state": "NC",
    "full_state": "North Carolina",
    "county": "Duplin"
  },
  {
    "zip_code": 28454,
    "latitude": 34.659359,
    "longitude": -77.711665,
    "city": "Maple Hill",
    "state": "NC",
    "full_state": "North Carolina",
    "county": "Pender"
  },
  {
    "zip_code": 28455,
    "latitude": 34.117032,
    "longitude": -78.690122,
    "city": "Nakina",
    "state": "NC",
    "full_state": "North Carolina",
    "county": "Columbus"
  },
  {
    "zip_code": 28456,
    "latitude": 34.353063,
    "longitude": -78.24873,
    "city": "Riegelwood",
    "state": "NC",
    "full_state": "North Carolina",
    "county": "Columbus"
  },
  {
    "zip_code": 28457,
    "latitude": 34.477635,
    "longitude": -77.816971,
    "city": "Rocky Point",
    "state": "NC",
    "full_state": "North Carolina",
    "county": "Pender"
  },
  {
    "zip_code": 28458,
    "latitude": 34.829225,
    "longitude": -78.022982,
    "city": "Rose Hill",
    "state": "NC",
    "full_state": "North Carolina",
    "county": "Duplin"
  },
  {
    "zip_code": 28459,
    "latitude": 33.933388,
    "longitude": -78.412864,
    "city": "Shallotte",
    "state": "NC",
    "full_state": "North Carolina",
    "county": "Brunswick"
  },
  {
    "zip_code": 28460,
    "latitude": 34.60694,
    "longitude": -77.426164,
    "city": "Sneads Ferry",
    "state": "NC",
    "full_state": "North Carolina",
    "county": "Onslow"
  },
  {
    "zip_code": 28461,
    "latitude": 33.966293,
    "longitude": -78.238126,
    "city": "Southport",
    "state": "NC",
    "full_state": "North Carolina",
    "county": "Brunswick"
  },
  {
    "zip_code": 28462,
    "latitude": 34.002551,
    "longitude": -78.223678,
    "city": "Supply",
    "state": "NC",
    "full_state": "North Carolina",
    "county": "Brunswick"
  },
  {
    "zip_code": 28463,
    "latitude": 34.153412,
    "longitude": -78.635372,
    "city": "Tabor City",
    "state": "NC",
    "full_state": "North Carolina",
    "county": "Columbus"
  },
  {
    "zip_code": 28464,
    "latitude": 34.778119,
    "longitude": -77.967075,
    "city": "Teachey",
    "state": "NC",
    "full_state": "North Carolina",
    "county": "Duplin"
  },
  {
    "zip_code": 28465,
    "latitude": 34.090202,
    "longitude": -78.127035,
    "city": "Oak Island",
    "state": "NC",
    "full_state": "North Carolina",
    "county": "Brunswick"
  },
  {
    "zip_code": 28466,
    "latitude": 34.76743,
    "longitude": -77.940027,
    "city": "Wallace",
    "state": "NC",
    "full_state": "North Carolina",
    "county": "Duplin"
  },
  {
    "zip_code": 28467,
    "latitude": 33.911953,
    "longitude": -78.395641,
    "city": "Calabash",
    "state": "NC",
    "full_state": "North Carolina",
    "county": "Brunswick"
  },
  {
    "zip_code": 28468,
    "latitude": 33.945533,
    "longitude": -78.327029,
    "city": "Sunset Beach",
    "state": "NC",
    "full_state": "North Carolina",
    "county": "Brunswick"
  },
  {
    "zip_code": 28469,
    "latitude": 33.936658,
    "longitude": -78.271319,
    "city": "Ocean Isle Beach",
    "state": "NC",
    "full_state": "North Carolina",
    "county": "Brunswick"
  },
  {
    "zip_code": 28470,
    "latitude": 33.992923,
    "longitude": -78.311346,
    "city": "Shallotte",
    "state": "NC",
    "full_state": "North Carolina",
    "county": "Brunswick"
  },
  {
    "zip_code": 28471,
    "latitude": 34.613953,
    "longitude": -78.03154,
    "city": "Watha",
    "state": "NC",
    "full_state": "North Carolina",
    "county": "Pender"
  },
  {
    "zip_code": 28472,
    "latitude": 34.262252,
    "longitude": -78.625479,
    "city": "Whiteville",
    "state": "NC",
    "full_state": "North Carolina",
    "county": "Columbus"
  },
  {
    "zip_code": 28478,
    "latitude": 34.67509,
    "longitude": -78.044929,
    "city": "Willard",
    "state": "NC",
    "full_state": "North Carolina",
    "county": "Pender"
  },
  {
    "zip_code": 28479,
    "latitude": 34.155253,
    "longitude": -78.055776,
    "city": "Winnabow",
    "state": "NC",
    "full_state": "North Carolina",
    "county": "Brunswick"
  },
  {
    "zip_code": 28480,
    "latitude": 34.214489,
    "longitude": -77.859467,
    "city": "Wrightsville Beach",
    "state": "NC",
    "full_state": "North Carolina",
    "county": "New Hanover"
  },
  {
    "zip_code": 28501,
    "latitude": 35.220079,
    "longitude": -77.615508,
    "city": "Kinston",
    "state": "NC",
    "full_state": "North Carolina",
    "county": "Lenoir"
  },
  {
    "zip_code": 28502,
    "latitude": 35.288558,
    "longitude": -77.662614,
    "city": "Kinston",
    "state": "NC",
    "full_state": "North Carolina",
    "county": "Lenoir"
  },
  {
    "zip_code": 28503,
    "latitude": 35.319066,
    "longitude": -77.595034,
    "city": "Kinston",
    "state": "NC",
    "full_state": "North Carolina",
    "county": "Lenoir"
  },
  {
    "zip_code": 28504,
    "latitude": 35.205977,
    "longitude": -77.657605,
    "city": "Kinston",
    "state": "NC",
    "full_state": "North Carolina",
    "county": "Lenoir"
  },
  {
    "zip_code": 28508,
    "latitude": 35.103676,
    "longitude": -77.824959,
    "city": "Albertson",
    "state": "NC",
    "full_state": "North Carolina",
    "county": "Duplin"
  },
  {
    "zip_code": 28509,
    "latitude": 35.156145,
    "longitude": -76.632264,
    "city": "Alliance",
    "state": "NC",
    "full_state": "North Carolina",
    "county": "Pamlico"
  },
  {
    "zip_code": 28510,
    "latitude": 35.034156,
    "longitude": -76.798574,
    "city": "Arapahoe",
    "state": "NC",
    "full_state": "North Carolina",
    "county": "Pamlico"
  },
  {
    "zip_code": 28511,
    "latitude": 34.873922,
    "longitude": -76.587097,
    "city": "Atlantic",
    "state": "NC",
    "full_state": "North Carolina",
    "county": "Carteret"
  },
  {
    "zip_code": 28512,
    "latitude": 34.741717,
    "longitude": -76.755456,
    "city": "Atlantic Beach",
    "state": "NC",
    "full_state": "North Carolina",
    "county": "Carteret"
  },
  {
    "zip_code": 28513,
    "latitude": 35.463405,
    "longitude": -77.359224,
    "city": "Ayden",
    "state": "NC",
    "full_state": "North Carolina",
    "county": "Pitt"
  },
  {
    "zip_code": 28515,
    "latitude": 35.13584,
    "longitude": -76.70564,
    "city": "Bayboro",
    "state": "NC",
    "full_state": "North Carolina",
    "county": "Pamlico"
  },
  {
    "zip_code": 28516,
    "latitude": 34.753777,
    "longitude": -76.610744,
    "city": "Beaufort",
    "state": "NC",
    "full_state": "North Carolina",
    "county": "Carteret"
  },
  {
    "zip_code": 28518,
    "latitude": 34.895292,
    "longitude": -77.785362,
    "city": "Beulaville",
    "state": "NC",
    "full_state": "North Carolina",
    "county": "Duplin"
  },
  {
    "zip_code": 28519,
    "latitude": 35.129461,
    "longitude": -77.01996,
    "city": "Bridgeton",
    "state": "NC",
    "full_state": "North Carolina",
    "county": "Craven"
  },
  {
    "zip_code": 28520,
    "latitude": 34.873922,
    "longitude": -76.587097,
    "city": "Cedar Island",
    "state": "NC",
    "full_state": "North Carolina",
    "county": "Carteret"
  },
  {
    "zip_code": 28521,
    "latitude": 34.897753,
    "longitude": -77.77497,
    "city": "Chinquapin",
    "state": "NC",
    "full_state": "North Carolina",
    "county": "Duplin"
  },
  {
    "zip_code": 28522,
    "latitude": 35.005079,
    "longitude": -77.523102,
    "city": "Comfort",
    "state": "NC",
    "full_state": "North Carolina",
    "county": "Jones"
  },
  {
    "zip_code": 28523,
    "latitude": 35.229878,
    "longitude": -77.304943,
    "city": "Cove City",
    "state": "NC",
    "full_state": "North Carolina",
    "county": "Craven"
  },
  {
    "zip_code": 28524,
    "latitude": 34.873922,
    "longitude": -76.587097,
    "city": "Davis",
    "state": "NC",
    "full_state": "North Carolina",
    "county": "Carteret"
  },
  {
    "zip_code": 28525,
    "latitude": 35.134409,
    "longitude": -77.688191,
    "city": "Deep Run",
    "state": "NC",
    "full_state": "North Carolina",
    "county": "Lenoir"
  },
  {
    "zip_code": 28526,
    "latitude": 35.255441,
    "longitude": -77.364631,
    "city": "Dover",
    "state": "NC",
    "full_state": "North Carolina",
    "county": "Craven"
  },
  {
    "zip_code": 28527,
    "latitude": 35.226396,
    "longitude": -77.020149,
    "city": "Ernul",
    "state": "NC",
    "full_state": "North Carolina",
    "county": "Craven"
  },
  {
    "zip_code": 28528,
    "latitude": 34.873922,
    "longitude": -76.587097,
    "city": "Gloucester",
    "state": "NC",
    "full_state": "North Carolina",
    "county": "Carteret"
  },
  {
    "zip_code": 28529,
    "latitude": 35.090185,
    "longitude": -76.828552,
    "city": "Grantsboro",
    "state": "NC",
    "full_state": "North Carolina",
    "county": "Pamlico"
  },
  {
    "zip_code": 28530,
    "latitude": 35.440556,
    "longitude": -77.399501,
    "city": "Grifton",
    "state": "NC",
    "full_state": "North Carolina",
    "county": "Pitt"
  },
  {
    "zip_code": 28531,
    "latitude": 34.873922,
    "longitude": -76.587097,
    "city": "Harkers Island",
    "state": "NC",
    "full_state": "North Carolina",
    "county": "Carteret"
  },
  {
    "zip_code": 28532,
    "latitude": 35.028677,
    "longitude": -77.053443,
    "city": "Havelock",
    "state": "NC",
    "full_state": "North Carolina",
    "county": "Craven"
  },
  {
    "zip_code": 28533,
    "latitude": 34.903793,
    "longitude": -76.899976,
    "city": "Cherry Point",
    "state": "NC",
    "full_state": "North Carolina",
    "county": "Craven"
  },
  {
    "zip_code": 28537,
    "latitude": 35.266039,
    "longitude": -76.577201,
    "city": "Hobucken",
    "state": "NC",
    "full_state": "North Carolina",
    "county": "Pamlico"
  },
  {
    "zip_code": 28538,
    "latitude": 35.421956,
    "longitude": -77.591228,
    "city": "Hookerton",
    "state": "NC",
    "full_state": "North Carolina",
    "county": "Greene"
  },
  {
    "zip_code": 28539,
    "latitude": 34.709544,
    "longitude": -77.222926,
    "city": "Hubert",
    "state": "NC",
    "full_state": "North Carolina",
    "county": "Onslow"
  },
  {
    "zip_code": 28540,
    "latitude": 34.726587,
    "longitude": -77.414673,
    "city": "Jacksonville",
    "state": "NC",
    "full_state": "North Carolina",
    "county": "Onslow"
  },
  {
    "zip_code": 28541,
    "latitude": 34.692056,
    "longitude": -77.391199,
    "city": "Jacksonville",
    "state": "NC",
    "full_state": "North Carolina",
    "county": "Onslow"
  },
  {
    "zip_code": 28542,
    "latitude": 34.664035,
    "longitude": -77.463687,
    "city": "Camp Lejeune",
    "state": "NC",
    "full_state": "North Carolina",
    "county": "Onslow"
  },
  {
    "zip_code": 28543,
    "latitude": 34.736045,
    "longitude": -77.382049,
    "city": "Tarawa Terrace",
    "state": "NC",
    "full_state": "North Carolina",
    "county": "Onslow"
  },
  {
    "zip_code": 28544,
    "latitude": 34.622795,
    "longitude": -77.417426,
    "city": "Midway Park",
    "state": "NC",
    "full_state": "North Carolina",
    "county": "Onslow"
  },
  {
    "zip_code": 28545,
    "latitude": 34.692056,
    "longitude": -77.391199,
    "city": "Mccutcheon Field",
    "state": "NC",
    "full_state": "North Carolina",
    "county": "Onslow"
  },
  {
    "zip_code": 28546,
    "latitude": 34.720825,
    "longitude": -77.444847,
    "city": "Jacksonville",
    "state": "NC",
    "full_state": "North Carolina",
    "county": "Onslow"
  },
  {
    "zip_code": 28547,
    "latitude": 34.690934,
    "longitude": -77.361429,
    "city": "Camp Lejeune",
    "state": "NC",
    "full_state": "North Carolina",
    "county": "Onslow"
  },
  {
    "zip_code": 28551,
    "latitude": 35.215944,
    "longitude": -77.631048,
    "city": "La Grange",
    "state": "NC",
    "full_state": "North Carolina",
    "county": "Lenoir"
  },
  {
    "zip_code": 28552,
    "latitude": 35.282911,
    "longitude": -76.583839,
    "city": "Lowland",
    "state": "NC",
    "full_state": "North Carolina",
    "county": "Pamlico"
  },
  {
    "zip_code": 28553,
    "latitude": 34.873922,
    "longitude": -76.587097,
    "city": "Marshallberg",
    "state": "NC",
    "full_state": "North Carolina",
    "county": "Carteret"
  },
  {
    "zip_code": 28554,
    "latitude": 35.49993,
    "longitude": -77.651024,
    "city": "Maury",
    "state": "NC",
    "full_state": "North Carolina",
    "county": "Greene"
  },
  {
    "zip_code": 28555,
    "latitude": 34.934067,
    "longitude": -77.280066,
    "city": "Maysville",
    "state": "NC",
    "full_state": "North Carolina",
    "county": "Jones"
  },
  {
    "zip_code": 28556,
    "latitude": 35.122377,
    "longitude": -76.671887,
    "city": "Merritt",
    "state": "NC",
    "full_state": "North Carolina",
    "county": "Pamlico"
  },
  {
    "zip_code": 28557,
    "latitude": 34.727798,
    "longitude": -76.770987,
    "city": "Morehead City",
    "state": "NC",
    "full_state": "North Carolina",
    "county": "Carteret"
  },
  {
    "zip_code": 28560,
    "latitude": 35.098109,
    "longitude": -77.178429,
    "city": "New Bern",
    "state": "NC",
    "full_state": "North Carolina",
    "county": "Craven"
  },
  {
    "zip_code": 28561,
    "latitude": 35.103736,
    "longitude": -77.07585,
    "city": "New Bern",
    "state": "NC",
    "full_state": "North Carolina",
    "county": "Craven"
  },
  {
    "zip_code": 28562,
    "latitude": 35.116959,
    "longitude": -77.190548,
    "city": "New Bern",
    "state": "NC",
    "full_state": "North Carolina",
    "county": "Craven"
  },
  {
    "zip_code": 28563,
    "latitude": 35.110855,
    "longitude": -77.06336,
    "city": "New Bern",
    "state": "NC",
    "full_state": "North Carolina",
    "county": "Craven"
  },
  {
    "zip_code": 28564,
    "latitude": 35.110855,
    "longitude": -77.06336,
    "city": "New Bern",
    "state": "NC",
    "full_state": "North Carolina",
    "county": "Craven"
  },
  {
    "zip_code": 28570,
    "latitude": 34.766818,
    "longitude": -76.878174,
    "city": "Newport",
    "state": "NC",
    "full_state": "North Carolina",
    "county": "Carteret"
  },
  {
    "zip_code": 28571,
    "latitude": 35.053819,
    "longitude": -76.723675,
    "city": "Oriental",
    "state": "NC",
    "full_state": "North Carolina",
    "county": "Pamlico"
  },
  {
    "zip_code": 28572,
    "latitude": 35.057332,
    "longitude": -77.694287,
    "city": "Pink Hill",
    "state": "NC",
    "full_state": "North Carolina",
    "county": "Lenoir"
  },
  {
    "zip_code": 28573,
    "latitude": 35.009751,
    "longitude": -77.240202,
    "city": "Pollocksville",
    "state": "NC",
    "full_state": "North Carolina",
    "county": "Jones"
  },
  {
    "zip_code": 28574,
    "latitude": 34.860048,
    "longitude": -77.581206,
    "city": "Richlands",
    "state": "NC",
    "full_state": "North Carolina",
    "county": "Onslow"
  },
  {
    "zip_code": 28575,
    "latitude": 34.873922,
    "longitude": -76.587097,
    "city": "Salter Path",
    "state": "NC",
    "full_state": "North Carolina",
    "county": "Carteret"
  },
  {
    "zip_code": 28577,
    "latitude": 34.873922,
    "longitude": -76.587097,
    "city": "Sealevel",
    "state": "NC",
    "full_state": "North Carolina",
    "county": "Carteret"
  },
  {
    "zip_code": 28578,
    "latitude": 35.217099,
    "longitude": -77.897418,
    "city": "Seven Springs",
    "state": "NC",
    "full_state": "North Carolina",
    "county": "Wayne"
  },
  {
    "zip_code": 28579,
    "latitude": 34.873922,
    "longitude": -76.587097,
    "city": "Smyrna",
    "state": "NC",
    "full_state": "North Carolina",
    "county": "Carteret"
  },
  {
    "zip_code": 28580,
    "latitude": 35.428349,
    "longitude": -77.701329,
    "city": "Snow Hill",
    "state": "NC",
    "full_state": "North Carolina",
    "county": "Greene"
  },
  {
    "zip_code": 28581,
    "latitude": 34.873922,
    "longitude": -76.587097,
    "city": "Stacy",
    "state": "NC",
    "full_state": "North Carolina",
    "county": "Carteret"
  },
  {
    "zip_code": 28582,
    "latitude": 34.873922,
    "longitude": -76.587097,
    "city": "Stella",
    "state": "NC",
    "full_state": "North Carolina",
    "county": "Carteret"
  },
  {
    "zip_code": 28583,
    "latitude": 35.156145,
    "longitude": -76.632264,
    "city": "Stonewall",
    "state": "NC",
    "full_state": "North Carolina",
    "county": "Pamlico"
  },
  {
    "zip_code": 28584,
    "latitude": 34.776677,
    "longitude": -77.173963,
    "city": "Swansboro",
    "state": "NC",
    "full_state": "North Carolina",
    "county": "Onslow"
  },
  {
    "zip_code": 28585,
    "latitude": 35.057695,
    "longitude": -77.431386,
    "city": "Trenton",
    "state": "NC",
    "full_state": "North Carolina",
    "county": "Jones"
  },
  {
    "zip_code": 28586,
    "latitude": 35.31313,
    "longitude": -77.177912,
    "city": "Vanceboro",
    "state": "NC",
    "full_state": "North Carolina",
    "county": "Craven"
  },
  {
    "zip_code": 28587,
    "latitude": 35.191279,
    "longitude": -76.660435,
    "city": "Vandemere",
    "state": "NC",
    "full_state": "North Carolina",
    "county": "Pamlico"
  },
  {
    "zip_code": 28589,
    "latitude": 34.873922,
    "longitude": -76.587097,
    "city": "Williston",
    "state": "NC",
    "full_state": "North Carolina",
    "county": "Carteret"
  },
  {
    "zip_code": 28590,
    "latitude": 35.47461,
    "longitude": -77.327423,
    "city": "Winterville",
    "state": "NC",
    "full_state": "North Carolina",
    "county": "Pitt"
  },
  {
    "zip_code": 28594,
    "latitude": 34.695016,
    "longitude": -76.862415,
    "city": "Emerald Isle",
    "state": "NC",
    "full_state": "North Carolina",
    "county": "Carteret"
  },
  {
    "zip_code": 28601,
    "latitude": 35.758221,
    "longitude": -81.308224,
    "city": "Hickory",
    "state": "NC",
    "full_state": "North Carolina",
    "county": "Catawba"
  },
  {
    "zip_code": 28602,
    "latitude": 35.661511,
    "longitude": -81.269348,
    "city": "Hickory",
    "state": "NC",
    "full_state": "North Carolina",
    "county": "Catawba"
  },
  {
    "zip_code": 28603,
    "latitude": 35.679876,
    "longitude": -81.287181,
    "city": "Hickory",
    "state": "NC",
    "full_state": "North Carolina",
    "county": "Catawba"
  },
  {
    "zip_code": 28604,
    "latitude": 36.072025,
    "longitude": -81.910144,
    "city": "Banner Elk",
    "state": "NC",
    "full_state": "North Carolina",
    "county": "Avery"
  },
  {
    "zip_code": 28605,
    "latitude": 36.163862,
    "longitude": -81.714505,
    "city": "Blowing Rock",
    "state": "NC",
    "full_state": "North Carolina",
    "county": "Watauga"
  },
  {
    "zip_code": 28606,
    "latitude": 36.122485,
    "longitude": -81.23358,
    "city": "Boomer",
    "state": "NC",
    "full_state": "North Carolina",
    "county": "Wilkes"
  },
  {
    "zip_code": 28607,
    "latitude": 36.222156,
    "longitude": -81.699784,
    "city": "Boone",
    "state": "NC",
    "full_state": "North Carolina",
    "county": "Watauga"
  },
  {
    "zip_code": 28608,
    "latitude": 36.221334,
    "longitude": -81.713416,
    "city": "Boone",
    "state": "NC",
    "full_state": "North Carolina",
    "county": "Watauga"
  },
  {
    "zip_code": 28609,
    "latitude": 35.684978,
    "longitude": -81.044672,
    "city": "Catawba",
    "state": "NC",
    "full_state": "North Carolina",
    "county": "Catawba"
  },
  {
    "zip_code": 28610,
    "latitude": 35.730213,
    "longitude": -81.12693,
    "city": "Claremont",
    "state": "NC",
    "full_state": "North Carolina",
    "county": "Catawba"
  },
  {
    "zip_code": 28611,
    "latitude": 35.994554,
    "longitude": -81.726617,
    "city": "Collettsville",
    "state": "NC",
    "full_state": "North Carolina",
    "county": "Caldwell"
  },
  {
    "zip_code": 28612,
    "latitude": 35.689483,
    "longitude": -81.538697,
    "city": "Connellys Springs",
    "state": "NC",
    "full_state": "North Carolina",
    "county": "Burke"
  },
  {
    "zip_code": 28613,
    "latitude": 35.740848,
    "longitude": -81.209458,
    "city": "Conover",
    "state": "NC",
    "full_state": "North Carolina",
    "county": "Catawba"
  },
  {
    "zip_code": 28615,
    "latitude": 36.464673,
    "longitude": -81.596886,
    "city": "Creston",
    "state": "NC",
    "full_state": "North Carolina",
    "county": "Ashe"
  },
  {
    "zip_code": 28616,
    "latitude": 36.059123,
    "longitude": -81.889238,
    "city": "Crossnore",
    "state": "NC",
    "full_state": "North Carolina",
    "county": "Avery"
  },
  {
    "zip_code": 28617,
    "latitude": 36.494803,
    "longitude": -81.385406,
    "city": "Crumpler",
    "state": "NC",
    "full_state": "North Carolina",
    "county": "Ashe"
  },
  {
    "zip_code": 28618,
    "latitude": 36.207343,
    "longitude": -81.541072,
    "city": "Deep Gap",
    "state": "NC",
    "full_state": "North Carolina",
    "county": "Watauga"
  },
  {
    "zip_code": 28619,
    "latitude": 35.717868,
    "longitude": -81.640557,
    "city": "Drexel",
    "state": "NC",
    "full_state": "North Carolina",
    "county": "Burke"
  },
  {
    "zip_code": 28621,
    "latitude": 36.318035,
    "longitude": -80.799944,
    "city": "Elkin",
    "state": "NC",
    "full_state": "North Carolina",
    "county": "Surry"
  },
  {
    "zip_code": 28622,
    "latitude": 36.185475,
    "longitude": -81.919892,
    "city": "Elk Park",
    "state": "NC",
    "full_state": "North Carolina",
    "county": "Avery"
  },
  {
    "zip_code": 28623,
    "latitude": 36.520689,
    "longitude": -80.983323,
    "city": "Ennice",
    "state": "NC",
    "full_state": "North Carolina",
    "county": "Alleghany"
  },
  {
    "zip_code": 28624,
    "latitude": 36.114413,
    "longitude": -81.412744,
    "city": "Ferguson",
    "state": "NC",
    "full_state": "North Carolina",
    "county": "Wilkes"
  },
  {
    "zip_code": 28625,
    "latitude": 35.790866,
    "longitude": -80.89757,
    "city": "Statesville",
    "state": "NC",
    "full_state": "North Carolina",
    "county": "Iredell"
  },
  {
    "zip_code": 28626,
    "latitude": 36.330187,
    "longitude": -81.508408,
    "city": "Fleetwood",
    "state": "NC",
    "full_state": "North Carolina",
    "county": "Ashe"
  },
  {
    "zip_code": 28627,
    "latitude": 36.470469,
    "longitude": -81.006386,
    "city": "Glade Valley",
    "state": "NC",
    "full_state": "North Carolina",
    "county": "Alleghany"
  },
  {
    "zip_code": 28628,
    "latitude": 35.721174,
    "longitude": -81.817998,
    "city": "Glen Alpine",
    "state": "NC",
    "full_state": "North Carolina",
    "county": "Burke"
  },
  {
    "zip_code": 28629,
    "latitude": 36.348613,
    "longitude": -81.374732,
    "city": "Glendale Springs",
    "state": "NC",
    "full_state": "North Carolina",
    "county": "Ashe"
  },
  {
    "zip_code": 28630,
    "latitude": 35.834865,
    "longitude": -81.454664,
    "city": "Granite Falls",
    "state": "NC",
    "full_state": "North Carolina",
    "county": "Caldwell"
  },
  {
    "zip_code": 28631,
    "latitude": 36.545329,
    "longitude": -81.41463,
    "city": "Grassy Creek",
    "state": "NC",
    "full_state": "North Carolina",
    "county": "Ashe"
  },
  {
    "zip_code": 28633,
    "latitude": 35.937564,
    "longitude": -81.539847,
    "city": "Lenoir",
    "state": "NC",
    "full_state": "North Carolina",
    "county": "Caldwell"
  },
  {
    "zip_code": 28634,
    "latitude": 35.964392,
    "longitude": -80.777838,
    "city": "Harmony",
    "state": "NC",
    "full_state": "North Carolina",
    "county": "Iredell"
  },
  {
    "zip_code": 28635,
    "latitude": 36.308091,
    "longitude": -81.116941,
    "city": "Hays",
    "state": "NC",
    "full_state": "North Carolina",
    "county": "Wilkes"
  },
  {
    "zip_code": 28636,
    "latitude": 35.938931,
    "longitude": -81.149233,
    "city": "Hiddenite",
    "state": "NC",
    "full_state": "North Carolina",
    "county": "Alexander"
  },
  {
    "zip_code": 28637,
    "latitude": 35.727107,
    "longitude": -81.497816,
    "city": "Hildebran",
    "state": "NC",
    "full_state": "North Carolina",
    "county": "Burke"
  },
  {
    "zip_code": 28638,
    "latitude": 35.839777,
    "longitude": -81.479726,
    "city": "Hudson",
    "state": "NC",
    "full_state": "North Carolina",
    "county": "Caldwell"
  },
  {
    "zip_code": 28640,
    "latitude": 36.403558,
    "longitude": -81.414753,
    "city": "Jefferson",
    "state": "NC",
    "full_state": "North Carolina",
    "county": "Ashe"
  },
  {
    "zip_code": 28641,
    "latitude": 35.938422,
    "longitude": -81.884521,
    "city": "Jonas Ridge",
    "state": "NC",
    "full_state": "North Carolina",
    "county": "Burke"
  },
  {
    "zip_code": 28642,
    "latitude": 36.210523,
    "longitude": -80.801365,
    "city": "Jonesville",
    "state": "NC",
    "full_state": "North Carolina",
    "county": "Yadkin"
  },
  {
    "zip_code": 28643,
    "latitude": 36.502581,
    "longitude": -81.553069,
    "city": "Lansing",
    "state": "NC",
    "full_state": "North Carolina",
    "county": "Ashe"
  },
  {
    "zip_code": 28644,
    "latitude": 36.422183,
    "longitude": -81.300052,
    "city": "Laurel Springs",
    "state": "NC",
    "full_state": "North Carolina",
    "county": "Ashe"
  },
  {
    "zip_code": 28645,
    "latitude": 35.947401,
    "longitude": -81.560742,
    "city": "Lenoir",
    "state": "NC",
    "full_state": "North Carolina",
    "county": "Caldwell"
  },
  {
    "zip_code": 28646,
    "latitude": 36.040964,
    "longitude": -81.917716,
    "city": "Linville",
    "state": "NC",
    "full_state": "North Carolina",
    "county": "Avery"
  },
  {
    "zip_code": 28647,
    "latitude": 35.779182,
    "longitude": -81.675545,
    "city": "Linville Falls",
    "state": "NC",
    "full_state": "North Carolina",
    "county": "Burke"
  },
  {
    "zip_code": 28649,
    "latitude": 36.307698,
    "longitude": -81.200766,
    "city": "Mc Grady",
    "state": "NC",
    "full_state": "North Carolina",
    "county": "Wilkes"
  },
  {
    "zip_code": 28650,
    "latitude": 35.588869,
    "longitude": -81.162793,
    "city": "Maiden",
    "state": "NC",
    "full_state": "North Carolina",
    "county": "Catawba"
  },
  {
    "zip_code": 28651,
    "latitude": 36.241997,
    "longitude": -81.224811,
    "city": "Millers Creek",
    "state": "NC",
    "full_state": "North Carolina",
    "county": "Wilkes"
  },
  {
    "zip_code": 28652,
    "latitude": 36.086466,
    "longitude": -81.934265,
    "city": "Minneapolis",
    "state": "NC",
    "full_state": "North Carolina",
    "county": "Avery"
  },
  {
    "zip_code": 28653,
    "latitude": 36.065053,
    "longitude": -81.901715,
    "city": "Montezuma",
    "state": "NC",
    "full_state": "North Carolina",
    "county": "Avery"
  },
  {
    "zip_code": 28654,
    "latitude": 36.100492,
    "longitude": -81.165221,
    "city": "Moravian Falls",
    "state": "NC",
    "full_state": "North Carolina",
    "county": "Wilkes"
  },
  {
    "zip_code": 28655,
    "latitude": 35.772992,
    "longitude": -81.676229,
    "city": "Morganton",
    "state": "NC",
    "full_state": "North Carolina",
    "county": "Burke"
  },
  {
    "zip_code": 28656,
    "latitude": 36.238438,
    "longitude": -81.045963,
    "city": "North Wilkesboro",
    "state": "NC",
    "full_state": "North Carolina",
    "county": "Wilkes"
  },
  {
    "zip_code": 28657,
    "latitude": 36.059029,
    "longitude": -81.930337,
    "city": "Newland",
    "state": "NC",
    "full_state": "North Carolina",
    "county": "Avery"
  },
  {
    "zip_code": 28658,
    "latitude": 35.631914,
    "longitude": -81.17193,
    "city": "Newton",
    "state": "NC",
    "full_state": "North Carolina",
    "county": "Catawba"
  },
  {
    "zip_code": 28659,
    "latitude": 36.208773,
    "longitude": -81.067495,
    "city": "North Wilkesboro",
    "state": "NC",
    "full_state": "North Carolina",
    "county": "Wilkes"
  },
  {
    "zip_code": 28660,
    "latitude": 35.974905,
    "longitude": -80.864673,
    "city": "Olin",
    "state": "NC",
    "full_state": "North Carolina",
    "county": "Iredell"
  },
  {
    "zip_code": 28661,
    "latitude": 35.99726,
    "longitude": -81.562609,
    "city": "Patterson",
    "state": "NC",
    "full_state": "North Carolina",
    "county": "Caldwell"
  },
  {
    "zip_code": 28662,
    "latitude": 36.085582,
    "longitude": -81.876049,
    "city": "Pineola",
    "state": "NC",
    "full_state": "North Carolina",
    "county": "Avery"
  },
  {
    "zip_code": 28663,
    "latitude": 36.527637,
    "longitude": -81.301935,
    "city": "Piney Creek",
    "state": "NC",
    "full_state": "North Carolina",
    "county": "Alleghany"
  },
  {
    "zip_code": 28664,
    "latitude": 36.044098,
    "longitude": -82.003691,
    "city": "Plumtree",
    "state": "NC",
    "full_state": "North Carolina",
    "county": "Avery"
  },
  {
    "zip_code": 28665,
    "latitude": 36.223349,
    "longitude": -81.179412,
    "city": "Purlear",
    "state": "NC",
    "full_state": "North Carolina",
    "county": "Wilkes"
  },
  {
    "zip_code": 28666,
    "latitude": 35.73005,
    "longitude": -81.495395,
    "city": "Icard",
    "state": "NC",
    "full_state": "North Carolina",
    "county": "Burke"
  },
  {
    "zip_code": 28667,
    "latitude": 35.777241,
    "longitude": -81.43023,
    "city": "Rhodhiss",
    "state": "NC",
    "full_state": "North Carolina",
    "county": "Caldwell"
  },
  {
    "zip_code": 28668,
    "latitude": 36.398983,
    "longitude": -80.987489,
    "city": "Roaring Gap",
    "state": "NC",
    "full_state": "North Carolina",
    "county": "Alleghany"
  },
  {
    "zip_code": 28669,
    "latitude": 36.227255,
    "longitude": -80.998644,
    "city": "Roaring River",
    "state": "NC",
    "full_state": "North Carolina",
    "county": "Wilkes"
  },
  {
    "zip_code": 28670,
    "latitude": 36.20083,
    "longitude": -80.929782,
    "city": "Ronda",
    "state": "NC",
    "full_state": "North Carolina",
    "county": "Wilkes"
  },
  {
    "zip_code": 28671,
    "latitude": 35.74858,
    "longitude": -81.563674,
    "city": "Rutherford College",
    "state": "NC",
    "full_state": "North Carolina",
    "county": "Burke"
  },
  {
    "zip_code": 28672,
    "latitude": 36.414156,
    "longitude": -81.492983,
    "city": "Scottville",
    "state": "NC",
    "full_state": "North Carolina",
    "county": "Ashe"
  },
  {
    "zip_code": 28673,
    "latitude": 35.603076,
    "longitude": -80.997147,
    "city": "Sherrills Ford",
    "state": "NC",
    "full_state": "North Carolina",
    "county": "Catawba"
  },
  {
    "zip_code": 28674,
    "latitude": 36.216247,
    "longitude": -81.207166,
    "city": "North Wilkesboro",
    "state": "NC",
    "full_state": "North Carolina",
    "county": "Wilkes"
  },
  {
    "zip_code": 28675,
    "latitude": 36.495157,
    "longitude": -81.140955,
    "city": "Sparta",
    "state": "NC",
    "full_state": "North Carolina",
    "county": "Alleghany"
  },
  {
    "zip_code": 28676,
    "latitude": 36.336635,
    "longitude": -80.852275,
    "city": "State Road",
    "state": "NC",
    "full_state": "North Carolina",
    "county": "Surry"
  },
  {
    "zip_code": 28677,
    "latitude": 35.773406,
    "longitude": -80.901036,
    "city": "Statesville",
    "state": "NC",
    "full_state": "North Carolina",
    "county": "Iredell"
  },
  {
    "zip_code": 28678,
    "latitude": 35.88313,
    "longitude": -81.162749,
    "city": "Stony Point",
    "state": "NC",
    "full_state": "North Carolina",
    "county": "Alexander"
  },
  {
    "zip_code": 28679,
    "latitude": 36.254958,
    "longitude": -81.835794,
    "city": "Sugar Grove",
    "state": "NC",
    "full_state": "North Carolina",
    "county": "Watauga"
  },
  {
    "zip_code": 28680,
    "latitude": 35.750657,
    "longitude": -81.695292,
    "city": "Morganton",
    "state": "NC",
    "full_state": "North Carolina",
    "county": "Burke"
  },
  {
    "zip_code": 28681,
    "latitude": 35.916914,
    "longitude": -81.209656,
    "city": "Taylorsville",
    "state": "NC",
    "full_state": "North Carolina",
    "county": "Alexander"
  },
  {
    "zip_code": 28682,
    "latitude": 35.579418,
    "longitude": -80.968153,
    "city": "Terrell",
    "state": "NC",
    "full_state": "North Carolina",
    "county": "Catawba"
  },
  {
    "zip_code": 28683,
    "latitude": 36.346341,
    "longitude": -80.989986,
    "city": "Thurmond",
    "state": "NC",
    "full_state": "North Carolina",
    "county": "Wilkes"
  },
  {
    "zip_code": 28684,
    "latitude": 36.340991,
    "longitude": -81.579496,
    "city": "Todd",
    "state": "NC",
    "full_state": "North Carolina",
    "county": "Ashe"
  },
  {
    "zip_code": 28685,
    "latitude": 36.331988,
    "longitude": -81.031598,
    "city": "Traphill",
    "state": "NC",
    "full_state": "North Carolina",
    "county": "Wilkes"
  },
  {
    "zip_code": 28687,
    "latitude": 35.529792,
    "longitude": -80.947028,
    "city": "Statesville",
    "state": "NC",
    "full_state": "North Carolina",
    "county": "Iredell"
  },
  {
    "zip_code": 28688,
    "latitude": 35.529792,
    "longitude": -80.947028,
    "city": "Turnersburg",
    "state": "NC",
    "full_state": "North Carolina",
    "county": "Iredell"
  },
  {
    "zip_code": 28689,
    "latitude": 36.029749,
    "longitude": -80.887909,
    "city": "Union Grove",
    "state": "NC",
    "full_state": "North Carolina",
    "county": "Iredell"
  },
  {
    "zip_code": 28690,
    "latitude": 35.737757,
    "longitude": -81.6166,
    "city": "Valdese",
    "state": "NC",
    "full_state": "North Carolina",
    "county": "Burke"
  },
  {
    "zip_code": 28691,
    "latitude": 36.209158,
    "longitude": -81.778871,
    "city": "Valle Crucis",
    "state": "NC",
    "full_state": "North Carolina",
    "county": "Watauga"
  },
  {
    "zip_code": 28692,
    "latitude": 36.266185,
    "longitude": -81.802644,
    "city": "Vilas",
    "state": "NC",
    "full_state": "North Carolina",
    "county": "Watauga"
  },
  {
    "zip_code": 28693,
    "latitude": 36.455704,
    "longitude": -81.572935,
    "city": "Warrensville",
    "state": "NC",
    "full_state": "North Carolina",
    "county": "Ashe"
  },
  {
    "zip_code": 28694,
    "latitude": 36.359734,
    "longitude": -81.484857,
    "city": "West Jefferson",
    "state": "NC",
    "full_state": "North Carolina",
    "county": "Ashe"
  },
  {
    "zip_code": 28697,
    "latitude": 36.211148,
    "longitude": -81.129235,
    "city": "Wilkesboro",
    "state": "NC",
    "full_state": "North Carolina",
    "county": "Wilkes"
  },
  {
    "zip_code": 28698,
    "latitude": 36.324526,
    "longitude": -81.739308,
    "city": "Zionville",
    "state": "NC",
    "full_state": "North Carolina",
    "county": "Watauga"
  },
  {
    "zip_code": 28699,
    "latitude": 35.831037,
    "longitude": -81.00762,
    "city": "Scotts",
    "state": "NC",
    "full_state": "North Carolina",
    "county": "Iredell"
  },
  {
    "zip_code": 28701,
    "latitude": 35.628016,
    "longitude": -82.556751,
    "city": "Alexander",
    "state": "NC",
    "full_state": "North Carolina",
    "county": "Buncombe"
  },
  {
    "zip_code": 28702,
    "latitude": 35.409905,
    "longitude": -83.479397,
    "city": "Almond",
    "state": "NC",
    "full_state": "North Carolina",
    "county": "Swain"
  },
  {
    "zip_code": 28704,
    "latitude": 35.589686,
    "longitude": -82.541808,
    "city": "Arden",
    "state": "NC",
    "full_state": "North Carolina",
    "county": "Buncombe"
  },
  {
    "zip_code": 28705,
    "latitude": 36.038317,
    "longitude": -82.205783,
    "city": "Bakersville",
    "state": "NC",
    "full_state": "North Carolina",
    "county": "Mitchell"
  },
  {
    "zip_code": 28707,
    "latitude": 35.430091,
    "longitude": -83.092783,
    "city": "Balsam",
    "state": "NC",
    "full_state": "North Carolina",
    "county": "Jackson"
  },
  {
    "zip_code": 28708,
    "latitude": 35.205962,
    "longitude": -82.898272,
    "city": "Balsam Grove",
    "state": "NC",
    "full_state": "North Carolina",
    "county": "Transylvania"
  },
  {
    "zip_code": 28709,
    "latitude": 35.71628,
    "longitude": -82.529787,
    "city": "Barnardsville",
    "state": "NC",
    "full_state": "North Carolina",
    "county": "Buncombe"
  },
  {
    "zip_code": 28710,
    "latitude": 35.4319,
    "longitude": -82.544826,
    "city": "Bat Cave",
    "state": "NC",
    "full_state": "North Carolina",
    "county": "Henderson"
  },
  {
    "zip_code": 28711,
    "latitude": 35.564616,
    "longitude": -82.461196,
    "city": "Black Mountain",
    "state": "NC",
    "full_state": "North Carolina",
    "county": "Buncombe"
  },
  {
    "zip_code": 28712,
    "latitude": 35.174351,
    "longitude": -82.753971,
    "city": "Brevard",
    "state": "NC",
    "full_state": "North Carolina",
    "county": "Transylvania"
  },
  {
    "zip_code": 28713,
    "latitude": 35.38563,
    "longitude": -83.508554,
    "city": "Bryson City",
    "state": "NC",
    "full_state": "North Carolina",
    "county": "Swain"
  },
  {
    "zip_code": 28714,
    "latitude": 35.835649,
    "longitude": -82.268193,
    "city": "Burnsville",
    "state": "NC",
    "full_state": "North Carolina",
    "county": "Yancey"
  },
  {
    "zip_code": 28715,
    "latitude": 35.535096,
    "longitude": -82.529962,
    "city": "Candler",
    "state": "NC",
    "full_state": "North Carolina",
    "county": "Buncombe"
  },
  {
    "zip_code": 28716,
    "latitude": 35.492743,
    "longitude": -82.959555,
    "city": "Canton",
    "state": "NC",
    "full_state": "North Carolina",
    "county": "Haywood"
  },
  {
    "zip_code": 28717,
    "latitude": 35.101156,
    "longitude": -83.093769,
    "city": "Cashiers",
    "state": "NC",
    "full_state": "North Carolina",
    "county": "Jackson"
  },
  {
    "zip_code": 28718,
    "latitude": 35.15081,
    "longitude": -82.637352,
    "city": "Cedar Mountain",
    "state": "NC",
    "full_state": "North Carolina",
    "county": "Transylvania"
  },
  {
    "zip_code": 28719,
    "latitude": 35.494881,
    "longitude": -83.34906,
    "city": "Cherokee",
    "state": "NC",
    "full_state": "North Carolina",
    "county": "Swain"
  },
  {
    "zip_code": 28720,
    "latitude": 35.436893,
    "longitude": -82.241744,
    "city": "Chimney Rock",
    "state": "NC",
    "full_state": "North Carolina",
    "county": "Rutherford"
  },
  {
    "zip_code": 28721,
    "latitude": 35.637588,
    "longitude": -82.978588,
    "city": "Clyde",
    "state": "NC",
    "full_state": "North Carolina",
    "county": "Haywood"
  },
  {
    "zip_code": 28722,
    "latitude": 35.261201,
    "longitude": -82.123534,
    "city": "Columbus",
    "state": "NC",
    "full_state": "North Carolina",
    "county": "Polk"
  },
  {
    "zip_code": 28723,
    "latitude": 35.249256,
    "longitude": -83.132409,
    "city": "Cullowhee",
    "state": "NC",
    "full_state": "North Carolina",
    "county": "Jackson"
  },
  {
    "zip_code": 28724,
    "latitude": 35.295403,
    "longitude": -82.388325,
    "city": "Dana",
    "state": "NC",
    "full_state": "North Carolina",
    "county": "Henderson"
  },
  {
    "zip_code": 28725,
    "latitude": 35.373461,
    "longitude": -83.259211,
    "city": "Dillsboro",
    "state": "NC",
    "full_state": "North Carolina",
    "county": "Jackson"
  },
  {
    "zip_code": 28726,
    "latitude": 35.313136,
    "longitude": -82.442057,
    "city": "East Flat Rock",
    "state": "NC",
    "full_state": "North Carolina",
    "county": "Henderson"
  },
  {
    "zip_code": 28727,
    "latitude": 35.322276,
    "longitude": -82.503226,
    "city": "Edneyville",
    "state": "NC",
    "full_state": "North Carolina",
    "county": "Henderson"
  },
  {
    "zip_code": 28728,
    "latitude": 35.498797,
    "longitude": -82.708024,
    "city": "Enka",
    "state": "NC",
    "full_state": "North Carolina",
    "county": "Buncombe"
  },
  {
    "zip_code": 28729,
    "latitude": 35.31252,
    "longitude": -82.587192,
    "city": "Etowah",
    "state": "NC",
    "full_state": "North Carolina",
    "county": "Henderson"
  },
  {
    "zip_code": 28730,
    "latitude": 35.529188,
    "longitude": -82.404704,
    "city": "Fairview",
    "state": "NC",
    "full_state": "North Carolina",
    "county": "Buncombe"
  },
  {
    "zip_code": 28731,
    "latitude": 35.297055,
    "longitude": -82.403731,
    "city": "Flat Rock",
    "state": "NC",
    "full_state": "North Carolina",
    "county": "Henderson"
  },
  {
    "zip_code": 28732,
    "latitude": 35.370666,
    "longitude": -82.494647,
    "city": "Fletcher",
    "state": "NC",
    "full_state": "North Carolina",
    "county": "Henderson"
  },
  {
    "zip_code": 28733,
    "latitude": 35.423135,
    "longitude": -83.779522,
    "city": "Fontana Dam",
    "state": "NC",
    "full_state": "North Carolina",
    "county": "Graham"
  },
  {
    "zip_code": 28734,
    "latitude": 35.155829,
    "longitude": -83.422421,
    "city": "Franklin",
    "state": "NC",
    "full_state": "North Carolina",
    "county": "Macon"
  },
  {
    "zip_code": 28735,
    "latitude": 35.322276,
    "longitude": -82.503226,
    "city": "Gerton",
    "state": "NC",
    "full_state": "North Carolina",
    "county": "Henderson"
  },
  {
    "zip_code": 28736,
    "latitude": 35.230342,
    "longitude": -83.107379,
    "city": "Glenville",
    "state": "NC",
    "full_state": "North Carolina",
    "county": "Jackson"
  },
  {
    "zip_code": 28737,
    "latitude": 35.738725,
    "longitude": -82.059494,
    "city": "Glenwood",
    "state": "NC",
    "full_state": "North Carolina",
    "county": "Mcdowell"
  },
  {
    "zip_code": 28738,
    "latitude": 35.468264,
    "longitude": -83.002841,
    "city": "Hazelwood",
    "state": "NC",
    "full_state": "North Carolina",
    "county": "Haywood"
  },
  {
    "zip_code": 28739,
    "latitude": 35.318016,
    "longitude": -82.45034,
    "city": "Hendersonville",
    "state": "NC",
    "full_state": "North Carolina",
    "county": "Henderson"
  },
  {
    "zip_code": 28740,
    "latitude": 35.89163,
    "longitude": -82.319283,
    "city": "Green Mountain",
    "state": "NC",
    "full_state": "North Carolina",
    "county": "Yancey"
  },
  {
    "zip_code": 28741,
    "latitude": 35.123767,
    "longitude": -83.419534,
    "city": "Highlands",
    "state": "NC",
    "full_state": "North Carolina",
    "county": "Macon"
  },
  {
    "zip_code": 28742,
    "latitude": 35.333332,
    "longitude": -82.524772,
    "city": "Horse Shoe",
    "state": "NC",
    "full_state": "North Carolina",
    "county": "Henderson"
  },
  {
    "zip_code": 28743,
    "latitude": 35.808232,
    "longitude": -82.752619,
    "city": "Hot Springs",
    "state": "NC",
    "full_state": "North Carolina",
    "county": "Madison"
  },
  {
    "zip_code": 28744,
    "latitude": 35.117299,
    "longitude": -83.295244,
    "city": "Franklin",
    "state": "NC",
    "full_state": "North Carolina",
    "county": "Macon"
  },
  {
    "zip_code": 28745,
    "latitude": 35.56115,
    "longitude": -83.013022,
    "city": "Lake Junaluska",
    "state": "NC",
    "full_state": "North Carolina",
    "county": "Haywood"
  },
  {
    "zip_code": 28746,
    "latitude": 35.463527,
    "longitude": -82.183853,
    "city": "Lake Lure",
    "state": "NC",
    "full_state": "North Carolina",
    "county": "Rutherford"
  },
  {
    "zip_code": 28747,
    "latitude": 35.157059,
    "longitude": -82.826781,
    "city": "Lake Toxaway",
    "state": "NC",
    "full_state": "North Carolina",
    "county": "Transylvania"
  },
  {
    "zip_code": 28748,
    "latitude": 35.579969,
    "longitude": -82.683175,
    "city": "Leicester",
    "state": "NC",
    "full_state": "North Carolina",
    "county": "Buncombe"
  },
  {
    "zip_code": 28749,
    "latitude": 35.738725,
    "longitude": -82.059494,
    "city": "Little Switzerland",
    "state": "NC",
    "full_state": "North Carolina",
    "county": "Mcdowell"
  },
  {
    "zip_code": 28750,
    "latitude": 35.236179,
    "longitude": -82.236198,
    "city": "Lynn",
    "state": "NC",
    "full_state": "North Carolina",
    "county": "Polk"
  },
  {
    "zip_code": 28751,
    "latitude": 35.527318,
    "longitude": -83.036558,
    "city": "Maggie Valley",
    "state": "NC",
    "full_state": "North Carolina",
    "county": "Haywood"
  },
  {
    "zip_code": 28752,
    "latitude": 35.684187,
    "longitude": -82.034672,
    "city": "Marion",
    "state": "NC",
    "full_state": "North Carolina",
    "county": "Mcdowell"
  },
  {
    "zip_code": 28753,
    "latitude": 35.859719,
    "longitude": -82.710523,
    "city": "Marshall",
    "state": "NC",
    "full_state": "North Carolina",
    "county": "Madison"
  },
  {
    "zip_code": 28754,
    "latitude": 35.879456,
    "longitude": -82.516228,
    "city": "Mars Hill",
    "state": "NC",
    "full_state": "North Carolina",
    "county": "Madison"
  },
  {
    "zip_code": 28755,
    "latitude": 35.83924,
    "longitude": -82.196202,
    "city": "Micaville",
    "state": "NC",
    "full_state": "North Carolina",
    "county": "Yancey"
  },
  {
    "zip_code": 28756,
    "latitude": 35.336371,
    "longitude": -82.158975,
    "city": "Mill Spring",
    "state": "NC",
    "full_state": "North Carolina",
    "county": "Polk"
  },
  {
    "zip_code": 28757,
    "latitude": 35.641473,
    "longitude": -82.315637,
    "city": "Montreat",
    "state": "NC",
    "full_state": "North Carolina",
    "county": "Buncombe"
  },
  {
    "zip_code": 28758,
    "latitude": 35.371065,
    "longitude": -82.49375,
    "city": "Mountain Home",
    "state": "NC",
    "full_state": "North Carolina",
    "county": "Henderson"
  },
  {
    "zip_code": 28760,
    "latitude": 35.381677,
    "longitude": -82.481257,
    "city": "Naples",
    "state": "NC",
    "full_state": "North Carolina",
    "county": "Henderson"
  },
  {
    "zip_code": 28761,
    "latitude": 35.669058,
    "longitude": -81.906612,
    "city": "Nebo",
    "state": "NC",
    "full_state": "North Carolina",
    "county": "Mcdowell"
  },
  {
    "zip_code": 28762,
    "latitude": 35.616257,
    "longitude": -82.148319,
    "city": "Old Fort",
    "state": "NC",
    "full_state": "North Carolina",
    "county": "Mcdowell"
  },
  {
    "zip_code": 28763,
    "latitude": 35.051539,
    "longitude": -83.38539,
    "city": "Otto",
    "state": "NC",
    "full_state": "North Carolina",
    "county": "Macon"
  },
  {
    "zip_code": 28765,
    "latitude": 35.921862,
    "longitude": -82.110672,
    "city": "Penland",
    "state": "NC",
    "full_state": "North Carolina",
    "county": "Mitchell"
  },
  {
    "zip_code": 28766,
    "latitude": 35.260991,
    "longitude": -82.644584,
    "city": "Penrose",
    "state": "NC",
    "full_state": "North Carolina",
    "county": "Transylvania"
  },
  {
    "zip_code": 28768,
    "latitude": 35.231828,
    "longitude": -82.748346,
    "city": "Pisgah Forest",
    "state": "NC",
    "full_state": "North Carolina",
    "county": "Transylvania"
  },
  {
    "zip_code": 28770,
    "latitude": 35.618596,
    "longitude": -82.30048,
    "city": "Ridgecrest",
    "state": "NC",
    "full_state": "North Carolina",
    "county": "Buncombe"
  },
  {
    "zip_code": 28771,
    "latitude": 35.343758,
    "longitude": -83.773869,
    "city": "Robbinsville",
    "state": "NC",
    "full_state": "North Carolina",
    "county": "Graham"
  },
  {
    "zip_code": 28772,
    "latitude": 35.159152,
    "longitude": -82.83832,
    "city": "Rosman",
    "state": "NC",
    "full_state": "North Carolina",
    "county": "Transylvania"
  },
  {
    "zip_code": 28773,
    "latitude": 35.257579,
    "longitude": -82.288029,
    "city": "Saluda",
    "state": "NC",
    "full_state": "North Carolina",
    "county": "Polk"
  },
  {
    "zip_code": 28774,
    "latitude": 35.097862,
    "longitude": -82.988872,
    "city": "Sapphire",
    "state": "NC",
    "full_state": "North Carolina",
    "county": "Transylvania"
  },
  {
    "zip_code": 28775,
    "latitude": 35.03107,
    "longitude": -83.327411,
    "city": "Scaly Mountain",
    "state": "NC",
    "full_state": "North Carolina",
    "county": "Macon"
  },
  {
    "zip_code": 28776,
    "latitude": 35.483482,
    "longitude": -82.520707,
    "city": "Skyland",
    "state": "NC",
    "full_state": "North Carolina",
    "county": "Buncombe"
  },
  {
    "zip_code": 28777,
    "latitude": 35.91464,
    "longitude": -82.07647,
    "city": "Spruce Pine",
    "state": "NC",
    "full_state": "North Carolina",
    "county": "Mitchell"
  },
  {
    "zip_code": 28778,
    "latitude": 35.608576,
    "longitude": -82.453107,
    "city": "Swannanoa",
    "state": "NC",
    "full_state": "North Carolina",
    "county": "Buncombe"
  },
  {
    "zip_code": 28779,
    "latitude": 35.275674,
    "longitude": -83.187963,
    "city": "Sylva",
    "state": "NC",
    "full_state": "North Carolina",
    "county": "Jackson"
  },
  {
    "zip_code": 28781,
    "latitude": 35.219991,
    "longitude": -83.785397,
    "city": "Topton",
    "state": "NC",
    "full_state": "North Carolina",
    "county": "Cherokee"
  },
  {
    "zip_code": 28782,
    "latitude": 35.279322,
    "longitude": -82.179654,
    "city": "Tryon",
    "state": "NC",
    "full_state": "North Carolina",
    "county": "Polk"
  },
  {
    "zip_code": 28783,
    "latitude": 35.246573,
    "longitude": -83.044292,
    "city": "Tuckasegee",
    "state": "NC",
    "full_state": "North Carolina",
    "county": "Jackson"
  },
  {
    "zip_code": 28784,
    "latitude": 35.217377,
    "longitude": -82.417819,
    "city": "Tuxedo",
    "state": "NC",
    "full_state": "North Carolina",
    "county": "Henderson"
  },
  {
    "zip_code": 28785,
    "latitude": 35.65327,
    "longitude": -83.139633,
    "city": "Waynesville",
    "state": "NC",
    "full_state": "North Carolina",
    "county": "Haywood"
  },
  {
    "zip_code": 28786,
    "latitude": 35.585619,
    "longitude": -82.959617,
    "city": "Waynesville",
    "state": "NC",
    "full_state": "North Carolina",
    "county": "Haywood"
  },
  {
    "zip_code": 28787,
    "latitude": 35.702704,
    "longitude": -82.588915,
    "city": "Weaverville",
    "state": "NC",
    "full_state": "North Carolina",
    "county": "Buncombe"
  },
  {
    "zip_code": 28788,
    "latitude": 35.328533,
    "longitude": -83.233302,
    "city": "Webster",
    "state": "NC",
    "full_state": "North Carolina",
    "county": "Jackson"
  },
  {
    "zip_code": 28789,
    "latitude": 35.423045,
    "longitude": -83.263368,
    "city": "Whittier",
    "state": "NC",
    "full_state": "North Carolina",
    "county": "Jackson"
  },
  {
    "zip_code": 28790,
    "latitude": 35.208041,
    "longitude": -82.488614,
    "city": "Zirconia",
    "state": "NC",
    "full_state": "North Carolina",
    "county": "Henderson"
  },
  {
    "zip_code": 28791,
    "latitude": 35.346415,
    "longitude": -82.525027,
    "city": "Hendersonville",
    "state": "NC",
    "full_state": "North Carolina",
    "county": "Henderson"
  },
  {
    "zip_code": 28792,
    "latitude": 35.317413,
    "longitude": -82.450455,
    "city": "Hendersonville",
    "state": "NC",
    "full_state": "North Carolina",
    "county": "Henderson"
  },
  {
    "zip_code": 28793,
    "latitude": 35.292714,
    "longitude": -82.503611,
    "city": "Hendersonville",
    "state": "NC",
    "full_state": "North Carolina",
    "county": "Henderson"
  },
  {
    "zip_code": 28801,
    "latitude": 35.602711,
    "longitude": -82.567281,
    "city": "Asheville",
    "state": "NC",
    "full_state": "North Carolina",
    "county": "Buncombe"
  },
  {
    "zip_code": 28802,
    "latitude": 35.623732,
    "longitude": -82.667132,
    "city": "Asheville",
    "state": "NC",
    "full_state": "North Carolina",
    "county": "Buncombe"
  },
  {
    "zip_code": 28803,
    "latitude": 35.573619,
    "longitude": -82.580635,
    "city": "Asheville",
    "state": "NC",
    "full_state": "North Carolina",
    "county": "Buncombe"
  },
  {
    "zip_code": 28804,
    "latitude": 35.624512,
    "longitude": -82.589146,
    "city": "Asheville",
    "state": "NC",
    "full_state": "North Carolina",
    "county": "Buncombe"
  },
  {
    "zip_code": 28805,
    "latitude": 35.615785,
    "longitude": -82.517148,
    "city": "Asheville",
    "state": "NC",
    "full_state": "North Carolina",
    "county": "Buncombe"
  },
  {
    "zip_code": 28806,
    "latitude": 35.570357,
    "longitude": -82.605913,
    "city": "Asheville",
    "state": "NC",
    "full_state": "North Carolina",
    "county": "Buncombe"
  },
  {
    "zip_code": 28810,
    "latitude": 35.620335,
    "longitude": -82.528558,
    "city": "Asheville",
    "state": "NC",
    "full_state": "North Carolina",
    "county": "Buncombe"
  },
  {
    "zip_code": 28813,
    "latitude": 35.50042,
    "longitude": -82.502644,
    "city": "Asheville",
    "state": "NC",
    "full_state": "North Carolina",
    "county": "Buncombe"
  },
  {
    "zip_code": 28814,
    "latitude": 35.664752,
    "longitude": -82.492664,
    "city": "Asheville",
    "state": "NC",
    "full_state": "North Carolina",
    "county": "Buncombe"
  },
  {
    "zip_code": 28815,
    "latitude": 35.620335,
    "longitude": -82.528558,
    "city": "Asheville",
    "state": "NC",
    "full_state": "North Carolina",
    "county": "Buncombe"
  },
  {
    "zip_code": 28816,
    "latitude": 35.620335,
    "longitude": -82.528558,
    "city": "Asheville",
    "state": "NC",
    "full_state": "North Carolina",
    "county": "Buncombe"
  },
  {
    "zip_code": 28901,
    "latitude": 35.170731,
    "longitude": -83.87111,
    "city": "Andrews",
    "state": "NC",
    "full_state": "North Carolina",
    "county": "Cherokee"
  },
  {
    "zip_code": 28902,
    "latitude": 35.025885,
    "longitude": -83.878025,
    "city": "Brasstown",
    "state": "NC",
    "full_state": "North Carolina",
    "county": "Clay"
  },
  {
    "zip_code": 28903,
    "latitude": 35.094379,
    "longitude": -84.035916,
    "city": "Culberson",
    "state": "NC",
    "full_state": "North Carolina",
    "county": "Cherokee"
  },
  {
    "zip_code": 28904,
    "latitude": 35.071416,
    "longitude": -83.778309,
    "city": "Hayesville",
    "state": "NC",
    "full_state": "North Carolina",
    "county": "Clay"
  },
  {
    "zip_code": 28905,
    "latitude": 35.14641,
    "longitude": -83.902545,
    "city": "Marble",
    "state": "NC",
    "full_state": "North Carolina",
    "county": "Cherokee"
  },
  {
    "zip_code": 28906,
    "latitude": 35.131159,
    "longitude": -84.038776,
    "city": "Murphy",
    "state": "NC",
    "full_state": "North Carolina",
    "county": "Cherokee"
  },
  {
    "zip_code": 28909,
    "latitude": 35.015083,
    "longitude": -83.905055,
    "city": "Warne",
    "state": "NC",
    "full_state": "North Carolina",
    "county": "Clay"
  },
  {
    "zip_code": 29001,
    "latitude": 33.685155,
    "longitude": -80.190733,
    "city": "Alcolu",
    "state": "SC",
    "full_state": "South Carolina",
    "county": "Clarendon"
  },
  {
    "zip_code": 29002,
    "latitude": 34.126535,
    "longitude": -81.234811,
    "city": "Ballentine",
    "state": "SC",
    "full_state": "South Carolina",
    "county": "Richland"
  },
  {
    "zip_code": 29003,
    "latitude": 33.206294,
    "longitude": -80.973559,
    "city": "Bamberg",
    "state": "SC",
    "full_state": "South Carolina",
    "county": "Bamberg"
  },
  {
    "zip_code": 29006,
    "latitude": 33.871866,
    "longitude": -81.414643,
    "city": "Batesburg",
    "state": "SC",
    "full_state": "South Carolina",
    "county": "Lexington"
  },
  {
    "zip_code": 29009,
    "latitude": 34.436891,
    "longitude": -80.532238,
    "city": "Bethune",
    "state": "SC",
    "full_state": "South Carolina",
    "county": "Kershaw"
  },
  {
    "zip_code": 29010,
    "latitude": 34.207324,
    "longitude": -80.306569,
    "city": "Bishopville",
    "state": "SC",
    "full_state": "South Carolina",
    "county": "Lee"
  },
  {
    "zip_code": 29014,
    "latitude": 34.596281,
    "longitude": -81.083171,
    "city": "Blackstock",
    "state": "SC",
    "full_state": "South Carolina",
    "county": "Chester"
  },
  {
    "zip_code": 29015,
    "latitude": 34.41478,
    "longitude": -81.270211,
    "city": "Blair",
    "state": "SC",
    "full_state": "South Carolina",
    "county": "Fairfield"
  },
  {
    "zip_code": 29016,
    "latitude": 34.104758,
    "longitude": -80.918919,
    "city": "Blythewood",
    "state": "SC",
    "full_state": "South Carolina",
    "county": "Richland"
  },
  {
    "zip_code": 29018,
    "latitude": 33.341855,
    "longitude": -80.565482,
    "city": "Bowman",
    "state": "SC",
    "full_state": "South Carolina",
    "county": "Orangeburg"
  },
  {
    "zip_code": 29020,
    "latitude": 34.313477,
    "longitude": -80.612489,
    "city": "Camden",
    "state": "SC",
    "full_state": "South Carolina",
    "county": "Kershaw"
  },
  {
    "zip_code": 29030,
    "latitude": 33.570316,
    "longitude": -80.708141,
    "city": "Cameron",
    "state": "SC",
    "full_state": "South Carolina",
    "county": "Calhoun"
  },
  {
    "zip_code": 29031,
    "latitude": 34.567049,
    "longitude": -81.481439,
    "city": "Carlisle",
    "state": "SC",
    "full_state": "South Carolina",
    "county": "Union"
  },
  {
    "zip_code": 29032,
    "latitude": 34.35723,
    "longitude": -80.54149,
    "city": "Cassatt",
    "state": "SC",
    "full_state": "South Carolina",
    "county": "Kershaw"
  },
  {
    "zip_code": 29033,
    "latitude": 33.868493,
    "longitude": -81.294081,
    "city": "Cayce",
    "state": "SC",
    "full_state": "South Carolina",
    "county": "Lexington"
  },
  {
    "zip_code": 29036,
    "latitude": 34.135909,
    "longitude": -81.334355,
    "city": "Chapin",
    "state": "SC",
    "full_state": "South Carolina",
    "county": "Lexington"
  },
  {
    "zip_code": 29037,
    "latitude": 34.221772,
    "longitude": -81.872428,
    "city": "Chappells",
    "state": "SC",
    "full_state": "South Carolina",
    "county": "Newberry"
  },
  {
    "zip_code": 29038,
    "latitude": 33.381696,
    "longitude": -80.956389,
    "city": "Cope",
    "state": "SC",
    "full_state": "South Carolina",
    "county": "Orangeburg"
  },
  {
    "zip_code": 29039,
    "latitude": 33.417322,
    "longitude": -80.91752,
    "city": "Cordova",
    "state": "SC",
    "full_state": "South Carolina",
    "county": "Orangeburg"
  },
  {
    "zip_code": 29040,
    "latitude": 34.025111,
    "longitude": -80.478151,
    "city": "Dalzell",
    "state": "SC",
    "full_state": "South Carolina",
    "county": "Sumter"
  },
  {
    "zip_code": 29041,
    "latitude": 33.688373,
    "longitude": -80.208109,
    "city": "Davis Station",
    "state": "SC",
    "full_state": "South Carolina",
    "county": "Clarendon"
  },
  {
    "zip_code": 29042,
    "latitude": 33.237543,
    "longitude": -81.104895,
    "city": "Denmark",
    "state": "SC",
    "full_state": "South Carolina",
    "county": "Bamberg"
  },
  {
    "zip_code": 29044,
    "latitude": 33.992252,
    "longitude": -80.94791,
    "city": "Eastover",
    "state": "SC",
    "full_state": "South Carolina",
    "county": "Richland"
  },
  {
    "zip_code": 29045,
    "latitude": 34.19522,
    "longitude": -80.79861,
    "city": "Elgin",
    "state": "SC",
    "full_state": "South Carolina",
    "county": "Kershaw"
  },
  {
    "zip_code": 29046,
    "latitude": 34.15998,
    "longitude": -80.240955,
    "city": "Elliott",
    "state": "SC",
    "full_state": "South Carolina",
    "county": "Lee"
  },
  {
    "zip_code": 29047,
    "latitude": 33.496664,
    "longitude": -80.582264,
    "city": "Elloree",
    "state": "SC",
    "full_state": "South Carolina",
    "county": "Orangeburg"
  },
  {
    "zip_code": 29048,
    "latitude": 33.416449,
    "longitude": -80.402308,
    "city": "Eutawville",
    "state": "SC",
    "full_state": "South Carolina",
    "county": "Orangeburg"
  },
  {
    "zip_code": 29051,
    "latitude": 33.688373,
    "longitude": -80.208109,
    "city": "Gable",
    "state": "SC",
    "full_state": "South Carolina",
    "county": "Clarendon"
  },
  {
    "zip_code": 29052,
    "latitude": 33.84642,
    "longitude": -80.733782,
    "city": "Gadsden",
    "state": "SC",
    "full_state": "South Carolina",
    "county": "Richland"
  },
  {
    "zip_code": 29053,
    "latitude": 33.815305,
    "longitude": -81.104235,
    "city": "Gaston",
    "state": "SC",
    "full_state": "South Carolina",
    "county": "Lexington"
  },
  {
    "zip_code": 29054,
    "latitude": 33.925422,
    "longitude": -81.410107,
    "city": "Gilbert",
    "state": "SC",
    "full_state": "South Carolina",
    "county": "Lexington"
  },
  {
    "zip_code": 29055,
    "latitude": 34.612456,
    "longitude": -80.940759,
    "city": "Great Falls",
    "state": "SC",
    "full_state": "South Carolina",
    "county": "Chester"
  },
  {
    "zip_code": 29056,
    "latitude": 33.785465,
    "longitude": -79.832218,
    "city": "Greeleyville",
    "state": "SC",
    "full_state": "South Carolina",
    "county": "Williamsburg"
  },
  {
    "zip_code": 29058,
    "latitude": 34.588803,
    "longitude": -80.718482,
    "city": "Heath Springs",
    "state": "SC",
    "full_state": "South Carolina",
    "county": "Lancaster"
  },
  {
    "zip_code": 29059,
    "latitude": 33.349458,
    "longitude": -80.438902,
    "city": "Holly Hill",
    "state": "SC",
    "full_state": "South Carolina",
    "county": "Orangeburg"
  },
  {
    "zip_code": 29061,
    "latitude": 33.920355,
    "longitude": -80.823,
    "city": "Hopkins",
    "state": "SC",
    "full_state": "South Carolina",
    "county": "Richland"
  },
  {
    "zip_code": 29062,
    "latitude": 34.012593,
    "longitude": -80.567589,
    "city": "Horatio",
    "state": "SC",
    "full_state": "South Carolina",
    "county": "Sumter"
  },
  {
    "zip_code": 29063,
    "latitude": 34.085949,
    "longitude": -81.131151,
    "city": "Irmo",
    "state": "SC",
    "full_state": "South Carolina",
    "county": "Richland"
  },
  {
    "zip_code": 29065,
    "latitude": 34.301089,
    "longitude": -81.285308,
    "city": "Jenkinsville",
    "state": "SC",
    "full_state": "South Carolina",
    "county": "Fairfield"
  },
  {
    "zip_code": 29067,
    "latitude": 34.600417,
    "longitude": -80.542015,
    "city": "Kershaw",
    "state": "SC",
    "full_state": "South Carolina",
    "county": "Lancaster"
  },
  {
    "zip_code": 29069,
    "latitude": 34.269558,
    "longitude": -80.005897,
    "city": "Lamar",
    "state": "SC",
    "full_state": "South Carolina",
    "county": "Darlington"
  },
  {
    "zip_code": 29070,
    "latitude": 33.895434,
    "longitude": -81.423918,
    "city": "Leesville",
    "state": "SC",
    "full_state": "South Carolina",
    "county": "Lexington"
  },
  {
    "zip_code": 29071,
    "latitude": 33.925183,
    "longitude": -81.248345,
    "city": "Lexington",
    "state": "SC",
    "full_state": "South Carolina",
    "county": "Lexington"
  },
  {
    "zip_code": 29072,
    "latitude": 33.976907,
    "longitude": -81.253034,
    "city": "Lexington",
    "state": "SC",
    "full_state": "South Carolina",
    "county": "Lexington"
  },
  {
    "zip_code": 29073,
    "latitude": 33.905323,
    "longitude": -81.335083,
    "city": "Lexington",
    "state": "SC",
    "full_state": "South Carolina",
    "county": "Lexington"
  },
  {
    "zip_code": 29074,
    "latitude": 34.456984,
    "longitude": -80.789236,
    "city": "Liberty Hill",
    "state": "SC",
    "full_state": "South Carolina",
    "county": "Kershaw"
  },
  {
    "zip_code": 29075,
    "latitude": 34.193507,
    "longitude": -81.396654,
    "city": "Little Mountain",
    "state": "SC",
    "full_state": "South Carolina",
    "county": "Newberry"
  },
  {
    "zip_code": 29078,
    "latitude": 34.260265,
    "longitude": -80.731308,
    "city": "Lugoff",
    "state": "SC",
    "full_state": "South Carolina",
    "county": "Kershaw"
  },
  {
    "zip_code": 29079,
    "latitude": 34.278255,
    "longitude": -80.100896,
    "city": "Lydia",
    "state": "SC",
    "full_state": "South Carolina",
    "county": "Darlington"
  },
  {
    "zip_code": 29080,
    "latitude": 34.049335,
    "longitude": -80.043417,
    "city": "Lynchburg",
    "state": "SC",
    "full_state": "South Carolina",
    "county": "Lee"
  },
  {
    "zip_code": 29081,
    "latitude": 33.08885,
    "longitude": -81.014013,
    "city": "Ehrhardt",
    "state": "SC",
    "full_state": "South Carolina",
    "county": "Bamberg"
  },
  {
    "zip_code": 29082,
    "latitude": 33.029619,
    "longitude": -80.762449,
    "city": "Lodge",
    "state": "SC",
    "full_state": "South Carolina",
    "county": "Colleton"
  },
  {
    "zip_code": 29101,
    "latitude": 34.470238,
    "longitude": -80.256814,
    "city": "Mc Bee",
    "state": "SC",
    "full_state": "South Carolina",
    "county": "Chesterfield"
  },
  {
    "zip_code": 29102,
    "latitude": 33.618408,
    "longitude": -80.21155,
    "city": "Manning",
    "state": "SC",
    "full_state": "South Carolina",
    "county": "Clarendon"
  },
  {
    "zip_code": 29104,
    "latitude": 33.950173,
    "longitude": -80.217283,
    "city": "Mayesville",
    "state": "SC",
    "full_state": "South Carolina",
    "county": "Sumter"
  },
  {
    "zip_code": 29105,
    "latitude": 33.88797,
    "longitude": -81.679404,
    "city": "Monetta",
    "state": "SC",
    "full_state": "South Carolina",
    "county": "Saluda"
  },
  {
    "zip_code": 29106,
    "latitude": 34.373596,
    "longitude": -81.098735,
    "city": "Monticello",
    "state": "SC",
    "full_state": "South Carolina",
    "county": "Fairfield"
  },
  {
    "zip_code": 29107,
    "latitude": 33.525625,
    "longitude": -81.121253,
    "city": "Neeses",
    "state": "SC",
    "full_state": "South Carolina",
    "county": "Orangeburg"
  },
  {
    "zip_code": 29108,
    "latitude": 34.310027,
    "longitude": -81.608611,
    "city": "Newberry",
    "state": "SC",
    "full_state": "South Carolina",
    "county": "Newberry"
  },
  {
    "zip_code": 29111,
    "latitude": 33.688373,
    "longitude": -80.208109,
    "city": "New Zion",
    "state": "SC",
    "full_state": "South Carolina",
    "county": "Clarendon"
  },
  {
    "zip_code": 29112,
    "latitude": 33.554183,
    "longitude": -81.07622,
    "city": "North",
    "state": "SC",
    "full_state": "South Carolina",
    "county": "Orangeburg"
  },
  {
    "zip_code": 29113,
    "latitude": 33.409377,
    "longitude": -80.977637,
    "city": "Norway",
    "state": "SC",
    "full_state": "South Carolina",
    "county": "Orangeburg"
  },
  {
    "zip_code": 29114,
    "latitude": 33.937811,
    "longitude": -79.903726,
    "city": "Olanta",
    "state": "SC",
    "full_state": "South Carolina",
    "county": "Florence"
  },
  {
    "zip_code": 29115,
    "latitude": 33.490935,
    "longitude": -80.821825,
    "city": "Orangeburg",
    "state": "SC",
    "full_state": "South Carolina",
    "county": "Orangeburg"
  },
  {
    "zip_code": 29116,
    "latitude": 33.49593,
    "longitude": -80.824603,
    "city": "Orangeburg",
    "state": "SC",
    "full_state": "South Carolina",
    "county": "Orangeburg"
  },
  {
    "zip_code": 29117,
    "latitude": 33.442019,
    "longitude": -80.797486,
    "city": "Orangeburg",
    "state": "SC",
    "full_state": "South Carolina",
    "county": "Orangeburg"
  },
  {
    "zip_code": 29118,
    "latitude": 33.567493,
    "longitude": -80.924805,
    "city": "Orangeburg",
    "state": "SC",
    "full_state": "South Carolina",
    "county": "Orangeburg"
  },
  {
    "zip_code": 29122,
    "latitude": 34.23862,
    "longitude": -81.327116,
    "city": "Peak",
    "state": "SC",
    "full_state": "South Carolina",
    "county": "Newberry"
  },
  {
    "zip_code": 29123,
    "latitude": 33.766538,
    "longitude": -81.247547,
    "city": "Pelion",
    "state": "SC",
    "full_state": "South Carolina",
    "county": "Lexington"
  },
  {
    "zip_code": 29125,
    "latitude": 33.756082,
    "longitude": -80.457854,
    "city": "Pinewood",
    "state": "SC",
    "full_state": "South Carolina",
    "county": "Sumter"
  },
  {
    "zip_code": 29126,
    "latitude": 34.323019,
    "longitude": -81.412148,
    "city": "Pomaria",
    "state": "SC",
    "full_state": "South Carolina",
    "county": "Newberry"
  },
  {
    "zip_code": 29127,
    "latitude": 34.188062,
    "longitude": -81.552888,
    "city": "Prosperity",
    "state": "SC",
    "full_state": "South Carolina",
    "county": "Newberry"
  },
  {
    "zip_code": 29128,
    "latitude": 34.059796,
    "longitude": -80.513051,
    "city": "Rembert",
    "state": "SC",
    "full_state": "South Carolina",
    "county": "Sumter"
  },
  {
    "zip_code": 29129,
    "latitude": 33.844203,
    "longitude": -81.65509,
    "city": "Ridge Spring",
    "state": "SC",
    "full_state": "South Carolina",
    "county": "Saluda"
  },
  {
    "zip_code": 29130,
    "latitude": 34.306879,
    "longitude": -80.926792,
    "city": "Ridgeway",
    "state": "SC",
    "full_state": "South Carolina",
    "county": "Fairfield"
  },
  {
    "zip_code": 29132,
    "latitude": 34.307413,
    "longitude": -81.12523,
    "city": "Rion",
    "state": "SC",
    "full_state": "South Carolina",
    "county": "Fairfield"
  },
  {
    "zip_code": 29133,
    "latitude": 33.4008,
    "longitude": -80.701135,
    "city": "Rowesville",
    "state": "SC",
    "full_state": "South Carolina",
    "county": "Orangeburg"
  },
  {
    "zip_code": 29135,
    "latitude": 33.696732,
    "longitude": -80.867833,
    "city": "Saint Matthews",
    "state": "SC",
    "full_state": "South Carolina",
    "county": "Calhoun"
  },
  {
    "zip_code": 29137,
    "latitude": 33.605723,
    "longitude": -81.365813,
    "city": "Salley",
    "state": "SC",
    "full_state": "South Carolina",
    "county": "Aiken"
  },
  {
    "zip_code": 29138,
    "latitude": 34.031353,
    "longitude": -81.77374,
    "city": "Saluda",
    "state": "SC",
    "full_state": "South Carolina",
    "county": "Saluda"
  },
  {
    "zip_code": 29142,
    "latitude": 33.466571,
    "longitude": -80.782531,
    "city": "Santee",
    "state": "SC",
    "full_state": "South Carolina",
    "county": "Orangeburg"
  },
  {
    "zip_code": 29143,
    "latitude": 33.688373,
    "longitude": -80.208109,
    "city": "Sardinia",
    "state": "SC",
    "full_state": "South Carolina",
    "county": "Clarendon"
  },
  {
    "zip_code": 29145,
    "latitude": 34.28357,
    "longitude": -81.624583,
    "city": "Silverstreet",
    "state": "SC",
    "full_state": "South Carolina",
    "county": "Newberry"
  },
  {
    "zip_code": 29146,
    "latitude": 33.517097,
    "longitude": -81.269821,
    "city": "Springfield",
    "state": "SC",
    "full_state": "South Carolina",
    "county": "Orangeburg"
  },
  {
    "zip_code": 29147,
    "latitude": 34.005992,
    "longitude": -80.970766,
    "city": "State Park",
    "state": "SC",
    "full_state": "South Carolina",
    "county": "Richland"
  },
  {
    "zip_code": 29148,
    "latitude": 33.55156,
    "longitude": -80.322756,
    "city": "Summerton",
    "state": "SC",
    "full_state": "South Carolina",
    "county": "Clarendon"
  },
  {
    "zip_code": 29150,
    "latitude": 33.913678,
    "longitude": -80.354238,
    "city": "Sumter",
    "state": "SC",
    "full_state": "South Carolina",
    "county": "Sumter"
  },
  {
    "zip_code": 29151,
    "latitude": 33.899856,
    "longitude": -80.37434,
    "city": "Sumter",
    "state": "SC",
    "full_state": "South Carolina",
    "county": "Sumter"
  },
  {
    "zip_code": 29152,
    "latitude": 33.918824,
    "longitude": -80.370098,
    "city": "Shaw A F B",
    "state": "SC",
    "full_state": "South Carolina",
    "county": "Sumter"
  },
  {
    "zip_code": 29153,
    "latitude": 33.94462,
    "longitude": -80.320637,
    "city": "Sumter",
    "state": "SC",
    "full_state": "South Carolina",
    "county": "Sumter"
  },
  {
    "zip_code": 29154,
    "latitude": 33.866953,
    "longitude": -80.426703,
    "city": "Sumter",
    "state": "SC",
    "full_state": "South Carolina",
    "county": "Sumter"
  },
  {
    "zip_code": 29160,
    "latitude": 33.729014,
    "longitude": -81.102992,
    "city": "Swansea",
    "state": "SC",
    "full_state": "South Carolina",
    "county": "Lexington"
  },
  {
    "zip_code": 29161,
    "latitude": 34.062595,
    "longitude": -79.933777,
    "city": "Timmonsville",
    "state": "SC",
    "full_state": "South Carolina",
    "county": "Florence"
  },
  {
    "zip_code": 29162,
    "latitude": 33.884239,
    "longitude": -80.022566,
    "city": "Turbeville",
    "state": "SC",
    "full_state": "South Carolina",
    "county": "Clarendon"
  },
  {
    "zip_code": 29163,
    "latitude": 33.417884,
    "longitude": -80.434809,
    "city": "Vance",
    "state": "SC",
    "full_state": "South Carolina",
    "county": "Orangeburg"
  },
  {
    "zip_code": 29164,
    "latitude": 33.655015,
    "longitude": -81.416321,
    "city": "Wagener",
    "state": "SC",
    "full_state": "South Carolina",
    "county": "Aiken"
  },
  {
    "zip_code": 29166,
    "latitude": 34.000971,
    "longitude": -81.741069,
    "city": "Ward",
    "state": "SC",
    "full_state": "South Carolina",
    "county": "Saluda"
  },
  {
    "zip_code": 29168,
    "latitude": 33.895272,
    "longitude": -80.498019,
    "city": "Wedgefield",
    "state": "SC",
    "full_state": "South Carolina",
    "county": "Sumter"
  },
  {
    "zip_code": 29169,
    "latitude": 33.953664,
    "longitude": -81.187338,
    "city": "West Columbia",
    "state": "SC",
    "full_state": "South Carolina",
    "county": "Lexington"
  },
  {
    "zip_code": 29170,
    "latitude": 33.932043,
    "longitude": -81.15429,
    "city": "West Columbia",
    "state": "SC",
    "full_state": "South Carolina",
    "county": "Lexington"
  },
  {
    "zip_code": 29171,
    "latitude": 33.925183,
    "longitude": -81.248345,
    "city": "West Columbia",
    "state": "SC",
    "full_state": "South Carolina",
    "county": "Lexington"
  },
  {
    "zip_code": 29172,
    "latitude": 33.901578,
    "longitude": -81.090419,
    "city": "West Columbia",
    "state": "SC",
    "full_state": "South Carolina",
    "county": "Lexington"
  },
  {
    "zip_code": 29175,
    "latitude": 34.441802,
    "longitude": -80.603298,
    "city": "Westville",
    "state": "SC",
    "full_state": "South Carolina",
    "county": "Kershaw"
  },
  {
    "zip_code": 29176,
    "latitude": 34.373596,
    "longitude": -81.098735,
    "city": "White Oak",
    "state": "SC",
    "full_state": "South Carolina",
    "county": "Fairfield"
  },
  {
    "zip_code": 29177,
    "latitude": 34.150446,
    "longitude": -81.260051,
    "city": "White Rock",
    "state": "SC",
    "full_state": "South Carolina",
    "county": "Richland"
  },
  {
    "zip_code": 29178,
    "latitude": 34.454376,
    "longitude": -81.563222,
    "city": "Whitmire",
    "state": "SC",
    "full_state": "South Carolina",
    "county": "Newberry"
  },
  {
    "zip_code": 29180,
    "latitude": 34.387337,
    "longitude": -81.082923,
    "city": "Winnsboro",
    "state": "SC",
    "full_state": "South Carolina",
    "county": "Fairfield"
  },
  {
    "zip_code": 29201,
    "latitude": 33.987454,
    "longitude": -81.024864,
    "city": "Columbia",
    "state": "SC",
    "full_state": "South Carolina",
    "county": "Richland"
  },
  {
    "zip_code": 29202,
    "latitude": 33.962455,
    "longitude": -80.979652,
    "city": "Columbia",
    "state": "SC",
    "full_state": "South Carolina",
    "county": "Richland"
  },
  {
    "zip_code": 29203,
    "latitude": 34.075613,
    "longitude": -81.039585,
    "city": "Columbia",
    "state": "SC",
    "full_state": "South Carolina",
    "county": "Richland"
  },
  {
    "zip_code": 29204,
    "latitude": 34.051603,
    "longitude": -80.978511,
    "city": "Columbia",
    "state": "SC",
    "full_state": "South Carolina",
    "county": "Richland"
  },
  {
    "zip_code": 29205,
    "latitude": 33.987555,
    "longitude": -81.000013,
    "city": "Columbia",
    "state": "SC",
    "full_state": "South Carolina",
    "county": "Richland"
  },
  {
    "zip_code": 29206,
    "latitude": 34.030004,
    "longitude": -80.951029,
    "city": "Columbia",
    "state": "SC",
    "full_state": "South Carolina",
    "county": "Richland"
  },
  {
    "zip_code": 29207,
    "latitude": 34.01974,
    "longitude": -80.939131,
    "city": "Columbia",
    "state": "SC",
    "full_state": "South Carolina",
    "county": "Richland"
  },
  {
    "zip_code": 29208,
    "latitude": 33.993705,
    "longitude": -81.019913,
    "city": "Columbia",
    "state": "SC",
    "full_state": "South Carolina",
    "county": "Richland"
  },
  {
    "zip_code": 29209,
    "latitude": 33.944163,
    "longitude": -80.942597,
    "city": "Columbia",
    "state": "SC",
    "full_state": "South Carolina",
    "county": "Richland"
  },
  {
    "zip_code": 29210,
    "latitude": 33.981468,
    "longitude": -80.993483,
    "city": "Columbia",
    "state": "SC",
    "full_state": "South Carolina",
    "county": "Richland"
  },
  {
    "zip_code": 29211,
    "latitude": 34.096716,
    "longitude": -80.922338,
    "city": "Columbia",
    "state": "SC",
    "full_state": "South Carolina",
    "county": "Richland"
  },
  {
    "zip_code": 29212,
    "latitude": 34.020988,
    "longitude": -81.197778,
    "city": "Columbia",
    "state": "SC",
    "full_state": "South Carolina",
    "county": "Lexington"
  },
  {
    "zip_code": 29214,
    "latitude": 34.005992,
    "longitude": -80.970766,
    "city": "Columbia",
    "state": "SC",
    "full_state": "South Carolina",
    "county": "Richland"
  },
  {
    "zip_code": 29215,
    "latitude": 34.005992,
    "longitude": -80.970766,
    "city": "Columbia",
    "state": "SC",
    "full_state": "South Carolina",
    "county": "Richland"
  },
  {
    "zip_code": 29216,
    "latitude": 34.005992,
    "longitude": -80.970766,
    "city": "Columbia",
    "state": "SC",
    "full_state": "South Carolina",
    "county": "Richland"
  },
  {
    "zip_code": 29217,
    "latitude": 34.005992,
    "longitude": -80.970766,
    "city": "Columbia",
    "state": "SC",
    "full_state": "South Carolina",
    "county": "Richland"
  },
  {
    "zip_code": 29218,
    "latitude": 34.005992,
    "longitude": -80.970766,
    "city": "Columbia",
    "state": "SC",
    "full_state": "South Carolina",
    "county": "Richland"
  },
  {
    "zip_code": 29219,
    "latitude": 34.005992,
    "longitude": -80.970766,
    "city": "Columbia",
    "state": "SC",
    "full_state": "South Carolina",
    "county": "Richland"
  },
  {
    "zip_code": 29220,
    "latitude": 34.005992,
    "longitude": -80.970766,
    "city": "Columbia",
    "state": "SC",
    "full_state": "South Carolina",
    "county": "Richland"
  },
  {
    "zip_code": 29221,
    "latitude": 34.005992,
    "longitude": -80.970766,
    "city": "Columbia",
    "state": "SC",
    "full_state": "South Carolina",
    "county": "Richland"
  },
  {
    "zip_code": 29222,
    "latitude": 34.005992,
    "longitude": -80.970766,
    "city": "Columbia",
    "state": "SC",
    "full_state": "South Carolina",
    "county": "Richland"
  },
  {
    "zip_code": 29223,
    "latitude": 34.099488,
    "longitude": -80.924638,
    "city": "Columbia",
    "state": "SC",
    "full_state": "South Carolina",
    "county": "Richland"
  },
  {
    "zip_code": 29224,
    "latitude": 34.005992,
    "longitude": -80.970766,
    "city": "Columbia",
    "state": "SC",
    "full_state": "South Carolina",
    "county": "Richland"
  },
  {
    "zip_code": 29225,
    "latitude": 34.005992,
    "longitude": -80.970766,
    "city": "Columbia",
    "state": "SC",
    "full_state": "South Carolina",
    "county": "Richland"
  },
  {
    "zip_code": 29226,
    "latitude": 34.005992,
    "longitude": -80.970766,
    "city": "Columbia",
    "state": "SC",
    "full_state": "South Carolina",
    "county": "Richland"
  },
  {
    "zip_code": 29227,
    "latitude": 34.005992,
    "longitude": -80.970766,
    "city": "Columbia",
    "state": "SC",
    "full_state": "South Carolina",
    "county": "Richland"
  },
  {
    "zip_code": 29228,
    "latitude": 33.925183,
    "longitude": -81.248345,
    "city": "Columbia",
    "state": "SC",
    "full_state": "South Carolina",
    "county": "Lexington"
  },
  {
    "zip_code": 29229,
    "latitude": 34.12266,
    "longitude": -80.884194,
    "city": "Columbia",
    "state": "SC",
    "full_state": "South Carolina",
    "county": "Richland"
  },
  {
    "zip_code": 29230,
    "latitude": 34.107483,
    "longitude": -81.062623,
    "city": "Columbia",
    "state": "SC",
    "full_state": "South Carolina",
    "county": "Richland"
  },
  {
    "zip_code": 29240,
    "latitude": 34.005992,
    "longitude": -80.970766,
    "city": "Columbia",
    "state": "SC",
    "full_state": "South Carolina",
    "county": "Richland"
  },
  {
    "zip_code": 29250,
    "latitude": 34.005992,
    "longitude": -80.970766,
    "city": "Columbia",
    "state": "SC",
    "full_state": "South Carolina",
    "county": "Richland"
  },
  {
    "zip_code": 29260,
    "latitude": 34.005992,
    "longitude": -80.970766,
    "city": "Columbia",
    "state": "SC",
    "full_state": "South Carolina",
    "county": "Richland"
  },
  {
    "zip_code": 29290,
    "latitude": 34.005992,
    "longitude": -80.970766,
    "city": "Columbia",
    "state": "SC",
    "full_state": "South Carolina",
    "county": "Richland"
  },
  {
    "zip_code": 29292,
    "latitude": 34.005992,
    "longitude": -80.970766,
    "city": "Columbia",
    "state": "SC",
    "full_state": "South Carolina",
    "county": "Richland"
  },
  {
    "zip_code": 29301,
    "latitude": 35.011309,
    "longitude": -81.993403,
    "city": "Spartanburg",
    "state": "SC",
    "full_state": "South Carolina",
    "county": "Spartanburg"
  },
  {
    "zip_code": 29302,
    "latitude": 34.893907,
    "longitude": -81.83404,
    "city": "Spartanburg",
    "state": "SC",
    "full_state": "South Carolina",
    "county": "Spartanburg"
  },
  {
    "zip_code": 29303,
    "latitude": 34.980316,
    "longitude": -81.916778,
    "city": "Spartanburg",
    "state": "SC",
    "full_state": "South Carolina",
    "county": "Spartanburg"
  },
  {
    "zip_code": 29304,
    "latitude": 34.916625,
    "longitude": -81.863874,
    "city": "Spartanburg",
    "state": "SC",
    "full_state": "South Carolina",
    "county": "Spartanburg"
  },
  {
    "zip_code": 29305,
    "latitude": 35.111404,
    "longitude": -82.105503,
    "city": "Spartanburg",
    "state": "SC",
    "full_state": "South Carolina",
    "county": "Spartanburg"
  },
  {
    "zip_code": 29306,
    "latitude": 34.899493,
    "longitude": -81.86309,
    "city": "Spartanburg",
    "state": "SC",
    "full_state": "South Carolina",
    "county": "Spartanburg"
  },
  {
    "zip_code": 29307,
    "latitude": 35.058097,
    "longitude": -81.98003,
    "city": "Spartanburg",
    "state": "SC",
    "full_state": "South Carolina",
    "county": "Spartanburg"
  },
  {
    "zip_code": 29316,
    "latitude": 35.030481,
    "longitude": -81.979347,
    "city": "Spartanburg",
    "state": "SC",
    "full_state": "South Carolina",
    "county": "Spartanburg"
  },
  {
    "zip_code": 29318,
    "latitude": 34.888237,
    "longitude": -81.96902,
    "city": "Spartanburg",
    "state": "SC",
    "full_state": "South Carolina",
    "county": "Spartanburg"
  },
  {
    "zip_code": 29319,
    "latitude": 34.888237,
    "longitude": -81.96902,
    "city": "Spartanburg",
    "state": "SC",
    "full_state": "South Carolina",
    "county": "Spartanburg"
  },
  {
    "zip_code": 29320,
    "latitude": 34.95717,
    "longitude": -81.991626,
    "city": "Arcadia",
    "state": "SC",
    "full_state": "South Carolina",
    "county": "Spartanburg"
  },
  {
    "zip_code": 29321,
    "latitude": 34.720999,
    "longitude": -81.733884,
    "city": "Buffalo",
    "state": "SC",
    "full_state": "South Carolina",
    "county": "Union"
  },
  {
    "zip_code": 29322,
    "latitude": 35.113668,
    "longitude": -82.040137,
    "city": "Campobello",
    "state": "SC",
    "full_state": "South Carolina",
    "county": "Spartanburg"
  },
  {
    "zip_code": 29323,
    "latitude": 35.109575,
    "longitude": -82.010515,
    "city": "Chesnee",
    "state": "SC",
    "full_state": "South Carolina",
    "county": "Spartanburg"
  },
  {
    "zip_code": 29324,
    "latitude": 34.99056,
    "longitude": -81.83271,
    "city": "Clifton",
    "state": "SC",
    "full_state": "South Carolina",
    "county": "Spartanburg"
  },
  {
    "zip_code": 29325,
    "latitude": 34.43492,
    "longitude": -81.893558,
    "city": "Clinton",
    "state": "SC",
    "full_state": "South Carolina",
    "county": "Laurens"
  },
  {
    "zip_code": 29329,
    "latitude": 35.001748,
    "longitude": -81.832999,
    "city": "Converse",
    "state": "SC",
    "full_state": "South Carolina",
    "county": "Spartanburg"
  },
  {
    "zip_code": 29330,
    "latitude": 35.04921,
    "longitude": -81.83128,
    "city": "Cowpens",
    "state": "SC",
    "full_state": "South Carolina",
    "county": "Spartanburg"
  },
  {
    "zip_code": 29331,
    "latitude": 34.638315,
    "longitude": -81.856745,
    "city": "Cross Anchor",
    "state": "SC",
    "full_state": "South Carolina",
    "county": "Spartanburg"
  },
  {
    "zip_code": 29332,
    "latitude": 34.281449,
    "longitude": -81.977214,
    "city": "Cross Hill",
    "state": "SC",
    "full_state": "South Carolina",
    "county": "Laurens"
  },
  {
    "zip_code": 29333,
    "latitude": 34.968472,
    "longitude": -81.906376,
    "city": "Drayton",
    "state": "SC",
    "full_state": "South Carolina",
    "county": "Spartanburg"
  },
  {
    "zip_code": 29334,
    "latitude": 34.935427,
    "longitude": -81.992532,
    "city": "Duncan",
    "state": "SC",
    "full_state": "South Carolina",
    "county": "Spartanburg"
  },
  {
    "zip_code": 29335,
    "latitude": 34.749045,
    "longitude": -81.882943,
    "city": "Enoree",
    "state": "SC",
    "full_state": "South Carolina",
    "county": "Spartanburg"
  },
  {
    "zip_code": 29336,
    "latitude": 34.888237,
    "longitude": -81.96902,
    "city": "Fairforest",
    "state": "SC",
    "full_state": "South Carolina",
    "county": "Spartanburg"
  },
  {
    "zip_code": 29338,
    "latitude": 34.999397,
    "longitude": -82.057103,
    "city": "Fingerville",
    "state": "SC",
    "full_state": "South Carolina",
    "county": "Spartanburg"
  },
  {
    "zip_code": 29340,
    "latitude": 35.00549,
    "longitude": -81.63383,
    "city": "Gaffney",
    "state": "SC",
    "full_state": "South Carolina",
    "county": "Cherokee"
  },
  {
    "zip_code": 29341,
    "latitude": 35.099884,
    "longitude": -81.705609,
    "city": "Gaffney",
    "state": "SC",
    "full_state": "South Carolina",
    "county": "Cherokee"
  },
  {
    "zip_code": 29342,
    "latitude": 34.996314,
    "longitude": -81.652395,
    "city": "Gaffney",
    "state": "SC",
    "full_state": "South Carolina",
    "county": "Cherokee"
  },
  {
    "zip_code": 29346,
    "latitude": 35.044719,
    "longitude": -81.977324,
    "city": "Glendale",
    "state": "SC",
    "full_state": "South Carolina",
    "county": "Spartanburg"
  },
  {
    "zip_code": 29348,
    "latitude": 34.888237,
    "longitude": -81.96902,
    "city": "Gramling",
    "state": "SC",
    "full_state": "South Carolina",
    "county": "Spartanburg"
  },
  {
    "zip_code": 29349,
    "latitude": 35.075367,
    "longitude": -82.02964,
    "city": "Inman",
    "state": "SC",
    "full_state": "South Carolina",
    "county": "Spartanburg"
  },
  {
    "zip_code": 29351,
    "latitude": 34.415357,
    "longitude": -81.804172,
    "city": "Joanna",
    "state": "SC",
    "full_state": "South Carolina",
    "county": "Laurens"
  },
  {
    "zip_code": 29353,
    "latitude": 34.81248,
    "longitude": -81.64306,
    "city": "Jonesville",
    "state": "SC",
    "full_state": "South Carolina",
    "county": "Union"
  },
  {
    "zip_code": 29355,
    "latitude": 34.35512,
    "longitude": -81.65907,
    "city": "Kinards",
    "state": "SC",
    "full_state": "South Carolina",
    "county": "Newberry"
  },
  {
    "zip_code": 29356,
    "latitude": 35.146058,
    "longitude": -82.153545,
    "city": "Landrum",
    "state": "SC",
    "full_state": "South Carolina",
    "county": "Spartanburg"
  },
  {
    "zip_code": 29360,
    "latitude": 34.528882,
    "longitude": -82.055091,
    "city": "Laurens",
    "state": "SC",
    "full_state": "South Carolina",
    "county": "Laurens"
  },
  {
    "zip_code": 29364,
    "latitude": 34.79259,
    "longitude": -81.477843,
    "city": "Lockhart",
    "state": "SC",
    "full_state": "South Carolina",
    "county": "Union"
  },
  {
    "zip_code": 29365,
    "latitude": 35.006816,
    "longitude": -81.985214,
    "city": "Lyman",
    "state": "SC",
    "full_state": "South Carolina",
    "county": "Spartanburg"
  },
  {
    "zip_code": 29368,
    "latitude": 34.949241,
    "longitude": -81.990216,
    "city": "Mayo",
    "state": "SC",
    "full_state": "South Carolina",
    "county": "Spartanburg"
  },
  {
    "zip_code": 29369,
    "latitude": 34.970097,
    "longitude": -82.02732,
    "city": "Moore",
    "state": "SC",
    "full_state": "South Carolina",
    "county": "Spartanburg"
  },
  {
    "zip_code": 29370,
    "latitude": 34.375065,
    "longitude": -81.967088,
    "city": "Mountville",
    "state": "SC",
    "full_state": "South Carolina",
    "county": "Laurens"
  },
  {
    "zip_code": 29372,
    "latitude": 34.889502,
    "longitude": -81.773952,
    "city": "Pacolet",
    "state": "SC",
    "full_state": "South Carolina",
    "county": "Spartanburg"
  },
  {
    "zip_code": 29373,
    "latitude": 34.912385,
    "longitude": -81.748663,
    "city": "Pacolet Mills",
    "state": "SC",
    "full_state": "South Carolina",
    "county": "Spartanburg"
  },
  {
    "zip_code": 29374,
    "latitude": 34.887498,
    "longitude": -81.944611,
    "city": "Pauline",
    "state": "SC",
    "full_state": "South Carolina",
    "county": "Spartanburg"
  },
  {
    "zip_code": 29375,
    "latitude": 34.863648,
    "longitude": -82.110149,
    "city": "Reidville",
    "state": "SC",
    "full_state": "South Carolina",
    "county": "Spartanburg"
  },
  {
    "zip_code": 29376,
    "latitude": 34.829502,
    "longitude": -81.947247,
    "city": "Roebuck",
    "state": "SC",
    "full_state": "South Carolina",
    "county": "Spartanburg"
  },
  {
    "zip_code": 29377,
    "latitude": 34.987543,
    "longitude": -82.135145,
    "city": "Startex",
    "state": "SC",
    "full_state": "South Carolina",
    "county": "Spartanburg"
  },
  {
    "zip_code": 29378,
    "latitude": 34.853013,
    "longitude": -81.772738,
    "city": "Una",
    "state": "SC",
    "full_state": "South Carolina",
    "county": "Spartanburg"
  },
  {
    "zip_code": 29379,
    "latitude": 34.700463,
    "longitude": -81.647687,
    "city": "Union",
    "state": "SC",
    "full_state": "South Carolina",
    "county": "Union"
  },
  {
    "zip_code": 29384,
    "latitude": 34.335762,
    "longitude": -82.095499,
    "city": "Waterloo",
    "state": "SC",
    "full_state": "South Carolina",
    "county": "Laurens"
  },
  {
    "zip_code": 29385,
    "latitude": 34.834143,
    "longitude": -82.009137,
    "city": "Wellford",
    "state": "SC",
    "full_state": "South Carolina",
    "county": "Spartanburg"
  },
  {
    "zip_code": 29386,
    "latitude": 34.888237,
    "longitude": -81.96902,
    "city": "White Stone",
    "state": "SC",
    "full_state": "South Carolina",
    "county": "Spartanburg"
  },
  {
    "zip_code": 29388,
    "latitude": 34.890526,
    "longitude": -81.991496,
    "city": "Woodruff",
    "state": "SC",
    "full_state": "South Carolina",
    "county": "Spartanburg"
  },
  {
    "zip_code": 29390,
    "latitude": 34.888237,
    "longitude": -81.96902,
    "city": "Duncan",
    "state": "SC",
    "full_state": "South Carolina",
    "county": "Spartanburg"
  },
  {
    "zip_code": 29391,
    "latitude": 34.888237,
    "longitude": -81.96902,
    "city": "Duncan",
    "state": "SC",
    "full_state": "South Carolina",
    "county": "Spartanburg"
  },
  {
    "zip_code": 29395,
    "latitude": 34.858562,
    "longitude": -81.743856,
    "city": "Jonesville",
    "state": "SC",
    "full_state": "South Carolina",
    "county": "Union"
  },
  {
    "zip_code": 29401,
    "latitude": 32.780326,
    "longitude": -79.940844,
    "city": "Charleston",
    "state": "SC",
    "full_state": "South Carolina",
    "county": "Charleston"
  },
  {
    "zip_code": 29402,
    "latitude": 32.84885,
    "longitude": -79.85773,
    "city": "Charleston",
    "state": "SC",
    "full_state": "South Carolina",
    "county": "Charleston"
  },
  {
    "zip_code": 29403,
    "latitude": 32.822391,
    "longitude": -79.965464,
    "city": "Charleston",
    "state": "SC",
    "full_state": "South Carolina",
    "county": "Charleston"
  },
  {
    "zip_code": 29404,
    "latitude": 32.898194,
    "longitude": -80.068564,
    "city": "Charleston Afb",
    "state": "SC",
    "full_state": "South Carolina",
    "county": "Charleston"
  },
  {
    "zip_code": 29405,
    "latitude": 32.853019,
    "longitude": -79.991295,
    "city": "North Charleston",
    "state": "SC",
    "full_state": "South Carolina",
    "county": "Charleston"
  },
  {
    "zip_code": 29406,
    "latitude": 32.927344,
    "longitude": -80.022009,
    "city": "Charleston",
    "state": "SC",
    "full_state": "South Carolina",
    "county": "Charleston"
  },
  {
    "zip_code": 29407,
    "latitude": 32.812039,
    "longitude": -80.093128,
    "city": "Charleston",
    "state": "SC",
    "full_state": "South Carolina",
    "county": "Charleston"
  },
  {
    "zip_code": 29409,
    "latitude": 32.84885,
    "longitude": -79.85773,
    "city": "Charleston",
    "state": "SC",
    "full_state": "South Carolina",
    "county": "Charleston"
  },
  {
    "zip_code": 29410,
    "latitude": 33.192514,
    "longitude": -80.03063,
    "city": "North Charleston",
    "state": "SC",
    "full_state": "South Carolina",
    "county": "Berkeley"
  },
  {
    "zip_code": 29412,
    "latitude": 32.717954,
    "longitude": -79.953725,
    "city": "Charleston",
    "state": "SC",
    "full_state": "South Carolina",
    "county": "Charleston"
  },
  {
    "zip_code": 29413,
    "latitude": 32.84885,
    "longitude": -79.85773,
    "city": "Charleston",
    "state": "SC",
    "full_state": "South Carolina",
    "county": "Charleston"
  },
  {
    "zip_code": 29414,
    "latitude": 32.810035,
    "longitude": -80.025928,
    "city": "Charleston",
    "state": "SC",
    "full_state": "South Carolina",
    "county": "Charleston"
  },
  {
    "zip_code": 29415,
    "latitude": 32.84885,
    "longitude": -79.85773,
    "city": "North Charleston",
    "state": "SC",
    "full_state": "South Carolina",
    "county": "Charleston"
  },
  {
    "zip_code": 29416,
    "latitude": 32.84885,
    "longitude": -79.85773,
    "city": "Charleston",
    "state": "SC",
    "full_state": "South Carolina",
    "county": "Charleston"
  },