[
  {
    "zip_code": 5733,
    "latitude": 43.655139,
    "longitude": -73.121251,
    "city": "Brandon",
    "state": "VT",
    "full_state": "Vermont",
    "county": "Rutland"
  },
  {
    "zip_code": 5734,
    "latitude": 43.982512,
    "longitude": -73.331483,
    "city": "Bridport",
    "state": "VT",
    "full_state": "Vermont",
    "county": "Addison"
  },
  {
    "zip_code": 5735,
    "latitude": 43.636856,
    "longitude": -73.126638,
    "city": "Castleton",
    "state": "VT",
    "full_state": "Vermont",
    "county": "Rutland"
  },
  {
    "zip_code": 5736,
    "latitude": 43.594106,
    "longitude": -73.008253,
    "city": "Center Rutland",
    "state": "VT",
    "full_state": "Vermont",
    "county": "Rutland"
  },
  {
    "zip_code": 5737,
    "latitude": 43.713218,
    "longitude": -72.925199,
    "city": "Chittenden",
    "state": "VT",
    "full_state": "Vermont",
    "county": "Rutland"
  },
  {
    "zip_code": 5738,
    "latitude": 43.526706,
    "longitude": -72.869165,
    "city": "Cuttingsville",
    "state": "VT",
    "full_state": "Vermont",
    "county": "Rutland"
  },
  {
    "zip_code": 5739,
    "latitude": 43.34792,
    "longitude": -73.027985,
    "city": "Danby",
    "state": "VT",
    "full_state": "Vermont",
    "county": "Rutland"
  },
  {
    "zip_code": 5740,
    "latitude": 43.97153,
    "longitude": -73.091416,
    "city": "East Middlebury",
    "state": "VT",
    "full_state": "Vermont",
    "county": "Addison"
  },
  {
    "zip_code": 5741,
    "latitude": 43.592039,
    "longitude": -72.818121,
    "city": "East Poultney",
    "state": "VT",
    "full_state": "Vermont",
    "county": "Rutland"
  },
  {
    "zip_code": 5742,
    "latitude": 43.446092,
    "longitude": -72.92087,
    "city": "East Wallingford",
    "state": "VT",
    "full_state": "Vermont",
    "county": "Rutland"
  },
  {
    "zip_code": 5743,
    "latitude": 43.634258,
    "longitude": -73.182585,
    "city": "Fair Haven",
    "state": "VT",
    "full_state": "Vermont",
    "county": "Rutland"
  },
  {
    "zip_code": 5744,
    "latitude": 43.576783,
    "longitude": -73.107352,
    "city": "Florence",
    "state": "VT",
    "full_state": "Vermont",
    "county": "Rutland"
  },
  {
    "zip_code": 5745,
    "latitude": 43.592039,
    "longitude": -72.818121,
    "city": "Forest Dale",
    "state": "VT",
    "full_state": "Vermont",
    "county": "Rutland"
  },
  {
    "zip_code": 5746,
    "latitude": 43.592039,
    "longitude": -72.588407,
    "city": "Gaysville",
    "state": "VT",
    "full_state": "Vermont",
    "county": "Windsor"
  },
  {
    "zip_code": 5747,
    "latitude": 44.0032,
    "longitude": -72.817108,
    "city": "Granville",
    "state": "VT",
    "full_state": "Vermont",
    "county": "Addison"
  },
  {
    "zip_code": 5748,
    "latitude": 43.907858,
    "longitude": -72.890031,
    "city": "Hancock",
    "state": "VT",
    "full_state": "Vermont",
    "county": "Addison"
  },
  {
    "zip_code": 5750,
    "latitude": 43.599381,
    "longitude": -73.25104,
    "city": "Hydeville",
    "state": "VT",
    "full_state": "Vermont",
    "county": "Rutland"
  },
  {
    "zip_code": 5751,
    "latitude": 43.656951,
    "longitude": -72.782713,
    "city": "Killington",
    "state": "VT",
    "full_state": "Vermont",
    "county": "Rutland"
  },
  {
    "zip_code": 5753,
    "latitude": 43.991942,
    "longitude": -73.171578,
    "city": "Middlebury",
    "state": "VT",
    "full_state": "Vermont",
    "county": "Addison"
  },
  {
    "zip_code": 5757,
    "latitude": 43.478301,
    "longitude": -73.060391,
    "city": "Middletown Springs",
    "state": "VT",
    "full_state": "Vermont",
    "county": "Rutland"
  },
  {
    "zip_code": 5758,
    "latitude": 43.444535,
    "longitude": -72.802413,
    "city": "Mount Holly",
    "state": "VT",
    "full_state": "Vermont",
    "county": "Rutland"
  },
  {
    "zip_code": 5759,
    "latitude": 43.535739,
    "longitude": -72.970114,
    "city": "North Clarendon",
    "state": "VT",
    "full_state": "Vermont",
    "county": "Rutland"
  },
  {
    "zip_code": 5760,
    "latitude": 43.863158,
    "longitude": -73.242322,
    "city": "Orwell",
    "state": "VT",
    "full_state": "Vermont",
    "county": "Addison"
  },
  {
    "zip_code": 5761,
    "latitude": 43.361439,
    "longitude": -73.150683,
    "city": "Pawlet",
    "state": "VT",
    "full_state": "Vermont",
    "county": "Rutland"
  },
  {
    "zip_code": 5762,
    "latitude": 43.592039,
    "longitude": -72.818121,
    "city": "Pittsfield",
    "state": "VT",
    "full_state": "Vermont",
    "county": "Rutland"
  },
  {
    "zip_code": 5763,
    "latitude": 43.72182,
    "longitude": -72.999461,
    "city": "Pittsford",
    "state": "VT",
    "full_state": "Vermont",
    "county": "Rutland"
  },
  {
    "zip_code": 5764,
    "latitude": 43.525395,
    "longitude": -73.112878,
    "city": "Poultney",
    "state": "VT",
    "full_state": "Vermont",
    "county": "Rutland"
  },
  {
    "zip_code": 5765,
    "latitude": 43.601975,
    "longitude": -73.09589,
    "city": "Proctor",
    "state": "VT",
    "full_state": "Vermont",
    "county": "Rutland"
  },
  {
    "zip_code": 5766,
    "latitude": 43.979315,
    "longitude": -73.010663,
    "city": "Ripton",
    "state": "VT",
    "full_state": "Vermont",
    "county": "Addison"
  },
  {
    "zip_code": 5767,
    "latitude": 43.866832,
    "longitude": -72.851495,
    "city": "Rochester",
    "state": "VT",
    "full_state": "Vermont",
    "county": "Windsor"
  },
  {
    "zip_code": 5768,
    "latitude": 43.026984,
    "longitude": -73.055156,
    "city": "Rupert",
    "state": "VT",
    "full_state": "Vermont",
    "county": "Bennington"
  },
  {
    "zip_code": 5769,
    "latitude": 43.920297,
    "longitude": -73.122709,
    "city": "Salisbury",
    "state": "VT",
    "full_state": "Vermont",
    "county": "Addison"
  },
  {
    "zip_code": 5770,
    "latitude": 43.912406,
    "longitude": -73.279162,
    "city": "Shoreham",
    "state": "VT",
    "full_state": "Vermont",
    "county": "Addison"
  },
  {
    "zip_code": 5772,
    "latitude": 43.756978,
    "longitude": -72.730177,
    "city": "Stockbridge",
    "state": "VT",
    "full_state": "Vermont",
    "county": "Windsor"
  },
  {
    "zip_code": 5773,
    "latitude": 43.477386,
    "longitude": -73.066066,
    "city": "Wallingford",
    "state": "VT",
    "full_state": "Vermont",
    "county": "Rutland"
  },
  {
    "zip_code": 5774,
    "latitude": 43.429363,
    "longitude": -73.161826,
    "city": "Wells",
    "state": "VT",
    "full_state": "Vermont",
    "county": "Rutland"
  },
  {
    "zip_code": 5775,
    "latitude": 43.360006,
    "longitude": -73.224211,
    "city": "West Pawlet",
    "state": "VT",
    "full_state": "Vermont",
    "county": "Rutland"
  },
  {
    "zip_code": 5776,
    "latitude": 43.026984,
    "longitude": -73.055156,
    "city": "West Rupert",
    "state": "VT",
    "full_state": "Vermont",
    "county": "Bennington"
  },
  {
    "zip_code": 5777,
    "latitude": 43.588163,
    "longitude": -73.065323,
    "city": "West Rutland",
    "state": "VT",
    "full_state": "Vermont",
    "county": "Rutland"
  },
  {
    "zip_code": 5778,
    "latitude": 43.893982,
    "longitude": -73.203001,
    "city": "Whiting",
    "state": "VT",
    "full_state": "Vermont",
    "county": "Addison"
  },
  {
    "zip_code": 5819,
    "latitude": 44.426455,
    "longitude": -72.114155,
    "city": "Saint Johnsbury",
    "state": "VT",
    "full_state": "Vermont",
    "county": "Caledonia"
  },
  {
    "zip_code": 5820,
    "latitude": 44.741679,
    "longitude": -72.364639,
    "city": "Albany",
    "state": "VT",
    "full_state": "Vermont",
    "county": "Orleans"
  },
  {
    "zip_code": 5821,
    "latitude": 44.313675,
    "longitude": -72.11879,
    "city": "Barnet",
    "state": "VT",
    "full_state": "Vermont",
    "county": "Caledonia"
  },
  {
    "zip_code": 5822,
    "latitude": 44.73663,
    "longitude": -72.199084,
    "city": "Barton",
    "state": "VT",
    "full_state": "Vermont",
    "county": "Orleans"
  },
  {
    "zip_code": 5823,
    "latitude": 45.005783,
    "longitude": -72.138347,
    "city": "Beebe Plain",
    "state": "VT",
    "full_state": "Vermont",
    "county": "Orleans"
  },
  {
    "zip_code": 5824,
    "latitude": 44.581613,
    "longitude": -71.833956,
    "city": "Concord",
    "state": "VT",
    "full_state": "Vermont",
    "county": "Essex"
  },
  {
    "zip_code": 5825,
    "latitude": 44.775607,
    "longitude": -72.22641,
    "city": "Coventry",
    "state": "VT",
    "full_state": "Vermont",
    "county": "Orleans"
  },
  {
    "zip_code": 5826,
    "latitude": 44.641663,
    "longitude": -72.388928,
    "city": "Craftsbury",
    "state": "VT",
    "full_state": "Vermont",
    "county": "Orleans"
  },
  {
    "zip_code": 5827,
    "latitude": 44.678786,
    "longitude": -72.35944,
    "city": "Craftsbury Common",
    "state": "VT",
    "full_state": "Vermont",
    "county": "Orleans"
  },
  {
    "zip_code": 5828,
    "latitude": 44.437306,
    "longitude": -72.123508,
    "city": "Danville",
    "state": "VT",
    "full_state": "Vermont",
    "county": "Caledonia"
  },
  {
    "zip_code": 5829,
    "latitude": 44.952347,
    "longitude": -72.218616,
    "city": "Derby",
    "state": "VT",
    "full_state": "Vermont",
    "county": "Orleans"
  },
  {
    "zip_code": 5830,
    "latitude": 44.97035,
    "longitude": -72.036632,
    "city": "Derby Line",
    "state": "VT",
    "full_state": "Vermont",
    "county": "Orleans"
  },
  {
    "zip_code": 5832,
    "latitude": 44.587962,
    "longitude": -71.910223,
    "city": "East Burke",
    "state": "VT",
    "full_state": "Vermont",
    "county": "Caledonia"
  },
  {
    "zip_code": 5833,
    "latitude": 44.775607,
    "longitude": -72.22641,
    "city": "East Charleston",
    "state": "VT",
    "full_state": "Vermont",
    "county": "Orleans"
  },
  {
    "zip_code": 5836,
    "latitude": 44.496356,
    "longitude": -72.17371,
    "city": "East Hardwick",
    "state": "VT",
    "full_state": "Vermont",
    "county": "Caledonia"
  },
  {
    "zip_code": 5837,
    "latitude": 44.667396,
    "longitude": -71.813465,
    "city": "East Haven",
    "state": "VT",
    "full_state": "Vermont",
    "county": "Essex"
  },
  {
    "zip_code": 5838,
    "latitude": 44.468494,
    "longitude": -71.930077,
    "city": "East Saint Johnsbury",
    "state": "VT",
    "full_state": "Vermont",
    "county": "Caledonia"
  },
  {
    "zip_code": 5839,
    "latitude": 44.679528,
    "longitude": -72.221912,
    "city": "Glover",
    "state": "VT",
    "full_state": "Vermont",
    "county": "Orleans"
  },
  {
    "zip_code": 5840,
    "latitude": 44.680771,
    "longitude": -71.719436,
    "city": "Granby",
    "state": "VT",
    "full_state": "Vermont",
    "county": "Essex"
  },
  {
    "zip_code": 5841,
    "latitude": 44.600325,
    "longitude": -72.286556,
    "city": "Greensboro",
    "state": "VT",
    "full_state": "Vermont",
    "county": "Orleans"
  },
  {
    "zip_code": 5842,
    "latitude": 44.775607,
    "longitude": -72.22641,
    "city": "Greensboro Bend",
    "state": "VT",
    "full_state": "Vermont",
    "county": "Orleans"
  },
  {
    "zip_code": 5843,
    "latitude": 44.51609,
    "longitude": -72.309822,
    "city": "Hardwick",
    "state": "VT",
    "full_state": "Vermont",
    "county": "Caledonia"
  },
  {
    "zip_code": 5845,
    "latitude": 44.783177,
    "longitude": -72.301139,
    "city": "Irasburg",
    "state": "VT",
    "full_state": "Vermont",
    "county": "Orleans"
  },
  {
    "zip_code": 5846,
    "latitude": 44.832535,
    "longitude": -71.841125,
    "city": "Island Pond",
    "state": "VT",
    "full_state": "Vermont",
    "county": "Essex"
  },
  {
    "zip_code": 5847,
    "latitude": 44.788925,
    "longitude": -72.439455,
    "city": "Lowell",
    "state": "VT",
    "full_state": "Vermont",
    "county": "Orleans"
  },
  {
    "zip_code": 5848,
    "latitude": 44.382103,
    "longitude": -71.919518,
    "city": "Lower Waterford",
    "state": "VT",
    "full_state": "Vermont",
    "county": "Caledonia"
  },
  {
    "zip_code": 5849,
    "latitude": 44.497557,
    "longitude": -71.950519,
    "city": "Lyndon",
    "state": "VT",
    "full_state": "Vermont",
    "county": "Caledonia"
  },
  {
    "zip_code": 5850,
    "latitude": 44.481915,
    "longitude": -71.988258,
    "city": "Lyndon Center",
    "state": "VT",
    "full_state": "Vermont",
    "county": "Caledonia"
  },
  {
    "zip_code": 5851,
    "latitude": 44.5351,
    "longitude": -72.056557,
    "city": "Lyndonville",
    "state": "VT",
    "full_state": "Vermont",
    "county": "Caledonia"
  },
  {
    "zip_code": 5853,
    "latitude": 44.878704,
    "longitude": -71.971424,
    "city": "Morgan",
    "state": "VT",
    "full_state": "Vermont",
    "county": "Orleans"
  },
  {
    "zip_code": 5855,
    "latitude": 44.907921,
    "longitude": -72.203948,
    "city": "Newport",
    "state": "VT",
    "full_state": "Vermont",
    "county": "Orleans"
  },
  {
    "zip_code": 5857,
    "latitude": 44.927018,
    "longitude": -72.299191,
    "city": "Newport Center",
    "state": "VT",
    "full_state": "Vermont",
    "county": "Orleans"
  },
  {
    "zip_code": 5858,
    "latitude": 44.512087,
    "longitude": -71.795986,
    "city": "North Concord",
    "state": "VT",
    "full_state": "Vermont",
    "county": "Essex"
  },
  {
    "zip_code": 5859,
    "latitude": 44.937769,
    "longitude": -72.433354,
    "city": "North Troy",
    "state": "VT",
    "full_state": "Vermont",
    "county": "Orleans"
  },
  {
    "zip_code": 5860,
    "latitude": 44.823782,
    "longitude": -72.102019,
    "city": "Orleans",
    "state": "VT",
    "full_state": "Vermont",
    "county": "Orleans"
  },
  {
    "zip_code": 5861,
    "latitude": 44.46239,
    "longitude": -72.135804,
    "city": "Passumpsic",
    "state": "VT",
    "full_state": "Vermont",
    "county": "Caledonia"
  },
  {
    "zip_code": 5862,
    "latitude": 44.46239,
    "longitude": -72.135804,
    "city": "Peacham",
    "state": "VT",
    "full_state": "Vermont",
    "county": "Caledonia"
  },
  {
    "zip_code": 5863,
    "latitude": 44.503403,
    "longitude": -71.972088,
    "city": "Saint Johnsbury Center",
    "state": "VT",
    "full_state": "Vermont",
    "county": "Caledonia"
  },
  {
    "zip_code": 5866,
    "latitude": 44.639653,
    "longitude": -72.132255,
    "city": "Sheffield",
    "state": "VT",
    "full_state": "Vermont",
    "county": "Caledonia"
  },
  {
    "zip_code": 5867,
    "latitude": 44.664521,
    "longitude": -72.042415,
    "city": "Sutton",
    "state": "VT",
    "full_state": "Vermont",
    "county": "Caledonia"
  },
  {
    "zip_code": 5868,
    "latitude": 44.775607,
    "longitude": -72.22641,
    "city": "Troy",
    "state": "VT",
    "full_state": "Vermont",
    "county": "Orleans"
  },
  {
    "zip_code": 5871,
    "latitude": 44.683041,
    "longitude": -71.936817,
    "city": "West Burke",
    "state": "VT",
    "full_state": "Vermont",
    "county": "Caledonia"
  },
  {
    "zip_code": 5872,
    "latitude": 44.849402,
    "longitude": -72.03121,
    "city": "West Charleston",
    "state": "VT",
    "full_state": "Vermont",
    "county": "Orleans"
  },
  {
    "zip_code": 5873,
    "latitude": 44.393366,
    "longitude": -72.222424,
    "city": "West Danville",
    "state": "VT",
    "full_state": "Vermont",
    "county": "Caledonia"
  },
  {
    "zip_code": 5874,
    "latitude": 44.869117,
    "longitude": -72.450485,
    "city": "Westfield",
    "state": "VT",
    "full_state": "Vermont",
    "county": "Orleans"
  },
  {
    "zip_code": 5875,
    "latitude": 44.710028,
    "longitude": -72.258038,
    "city": "West Glover",
    "state": "VT",
    "full_state": "Vermont",
    "county": "Orleans"
  },
  {
    "zip_code": 5901,
    "latitude": 44.680771,
    "longitude": -71.719436,
    "city": "Averill",
    "state": "VT",
    "full_state": "Vermont",
    "county": "Essex"
  },
  {
    "zip_code": 5902,
    "latitude": 44.680771,
    "longitude": -71.719436,
    "city": "Beecher Falls",
    "state": "VT",
    "full_state": "Vermont",
    "county": "Essex"
  },
  {
    "zip_code": 5903,
    "latitude": 44.930787,
    "longitude": -71.597809,
    "city": "Canaan",
    "state": "VT",
    "full_state": "Vermont",
    "county": "Essex"
  },
  {
    "zip_code": 5904,
    "latitude": 44.680771,
    "longitude": -71.719436,
    "city": "Gilman",
    "state": "VT",
    "full_state": "Vermont",
    "county": "Essex"
  },
  {
    "zip_code": 5905,
    "latitude": 44.671187,
    "longitude": -71.662213,
    "city": "Guildhall",
    "state": "VT",
    "full_state": "Vermont",
    "county": "Essex"
  },
  {
    "zip_code": 5906,
    "latitude": 44.680771,
    "longitude": -71.719436,
    "city": "Lunenburg",
    "state": "VT",
    "full_state": "Vermont",
    "county": "Essex"
  },
  {
    "zip_code": 5907,
    "latitude": 44.932643,
    "longitude": -71.776359,
    "city": "Norton",
    "state": "VT",
    "full_state": "Vermont",
    "county": "Essex"
  },
  {
    "zip_code": 6001,
    "latitude": 41.757944,
    "longitude": -72.728272,
    "city": "Avon",
    "state": "CT",
    "full_state": "Connecticut",
    "county": "Hartford"
  },
  {
    "zip_code": 6002,
    "latitude": 41.851961,
    "longitude": -72.738939,
    "city": "Bloomfield",
    "state": "CT",
    "full_state": "Connecticut",
    "county": "Hartford"
  },
  {
    "zip_code": 6006,
    "latitude": 41.879637,
    "longitude": -72.734271,
    "city": "Windsor",
    "state": "CT",
    "full_state": "Connecticut",
    "county": "Hartford"
  },
  {
    "zip_code": 6010,
    "latitude": 41.681198,
    "longitude": -72.939577,
    "city": "Bristol",
    "state": "CT",
    "full_state": "Connecticut",
    "county": "Hartford"
  },
  {
    "zip_code": 6011,
    "latitude": 41.791776,
    "longitude": -72.718832,
    "city": "Bristol",
    "state": "CT",
    "full_state": "Connecticut",
    "county": "Hartford"
  },
  {
    "zip_code": 6013,
    "latitude": 41.761773,
    "longitude": -72.95826,
    "city": "Burlington",
    "state": "CT",
    "full_state": "Connecticut",
    "county": "Hartford"
  },
  {
    "zip_code": 6016,
    "latitude": 41.842097,
    "longitude": -72.708388,
    "city": "Broad Brook",
    "state": "CT",
    "full_state": "Connecticut",
    "county": "Hartford"
  },
  {
    "zip_code": 6018,
    "latitude": 42.001585,
    "longitude": -73.295891,
    "city": "Canaan",
    "state": "CT",
    "full_state": "Connecticut",
    "county": "Litchfield"
  },
  {
    "zip_code": 6019,
    "latitude": 41.842882,
    "longitude": -72.899645,
    "city": "Canton",
    "state": "CT",
    "full_state": "Connecticut",
    "county": "Hartford"
  },
  {
    "zip_code": 6020,
    "latitude": 41.853921,
    "longitude": -72.902811,
    "city": "Canton Center",
    "state": "CT",
    "full_state": "Connecticut",
    "county": "Hartford"
  },
  {
    "zip_code": 6021,
    "latitude": 42.005809,
    "longitude": -73.118329,
    "city": "Colebrook",
    "state": "CT",
    "full_state": "Connecticut",
    "county": "Litchfield"
  },
  {
    "zip_code": 6022,
    "latitude": 41.851597,
    "longitude": -72.918127,
    "city": "Collinsville",
    "state": "CT",
    "full_state": "Connecticut",
    "county": "Hartford"
  },
  {
    "zip_code": 6023,
    "latitude": 41.613489,
    "longitude": -72.7207,
    "city": "East Berlin",
    "state": "CT",
    "full_state": "Connecticut",
    "county": "Hartford"
  },
  {
    "zip_code": 6024,
    "latitude": 42.015806,
    "longitude": -73.291299,
    "city": "East Canaan",
    "state": "CT",
    "full_state": "Connecticut",
    "county": "Litchfield"
  },
  {
    "zip_code": 6025,
    "latitude": 41.688896,
    "longitude": -72.534482,
    "city": "East Glastonbury",
    "state": "CT",
    "full_state": "Connecticut",
    "county": "Hartford"
  },
  {
    "zip_code": 6026,
    "latitude": 41.939096,
    "longitude": -72.740538,
    "city": "East Granby",
    "state": "CT",
    "full_state": "Connecticut",
    "county": "Hartford"
  },
  {
    "zip_code": 6027,
    "latitude": 42.004978,
    "longitude": -72.896907,
    "city": "East Hartland",
    "state": "CT",
    "full_state": "Connecticut",
    "county": "Hartford"
  },
  {
    "zip_code": 6028,
    "latitude": 41.859248,
    "longitude": -72.603033,
    "city": "East Windsor Hill",
    "state": "CT",
    "full_state": "Connecticut",
    "county": "Hartford"
  },
  {
    "zip_code": 6029,
    "latitude": 41.849319,
    "longitude": -72.411777,
    "city": "Ellington",
    "state": "CT",
    "full_state": "Connecticut",
    "county": "Tolland"
  },
  {
    "zip_code": 6030,
    "latitude": 41.791776,
    "longitude": -72.718832,
    "city": "Farmington",
    "state": "CT",
    "full_state": "Connecticut",
    "county": "Hartford"
  },
  {
    "zip_code": 6031,
    "latitude": 41.949717,
    "longitude": -73.304403,
    "city": "Falls Village",
    "state": "CT",
    "full_state": "Connecticut",
    "county": "Litchfield"
  },
  {
    "zip_code": 6032,
    "latitude": 41.726769,
    "longitude": -72.829543,
    "city": "Farmington",
    "state": "CT",
    "full_state": "Connecticut",
    "county": "Hartford"
  },
  {
    "zip_code": 6033,
    "latitude": 41.703451,
    "longitude": -72.539332,
    "city": "Glastonbury",
    "state": "CT",
    "full_state": "Connecticut",
    "county": "Hartford"
  },
  {
    "zip_code": 6034,
    "latitude": 41.791776,
    "longitude": -72.718832,
    "city": "Farmington",
    "state": "CT",
    "full_state": "Connecticut",
    "county": "Hartford"
  },
  {
    "zip_code": 6035,
    "latitude": 41.966062,
    "longitude": -72.796407,
    "city": "Granby",
    "state": "CT",
    "full_state": "Connecticut",
    "county": "Hartford"
  },
  {
    "zip_code": 6037,
    "latitude": 41.602948,
    "longitude": -72.769991,
    "city": "Berlin",
    "state": "CT",
    "full_state": "Connecticut",
    "county": "Hartford"
  },
  {
    "zip_code": 6039,
    "latitude": 41.951917,
    "longitude": -73.38138,
    "city": "Lakeville",
    "state": "CT",
    "full_state": "Connecticut",
    "county": "Litchfield"
  },
  {
    "zip_code": 6040,
    "latitude": 41.776048,
    "longitude": -72.523748,
    "city": "Manchester",
    "state": "CT",
    "full_state": "Connecticut",
    "county": "Hartford"
  },
  {
    "zip_code": 6041,
    "latitude": 41.794681,
    "longitude": -72.564832,
    "city": "Manchester",
    "state": "CT",
    "full_state": "Connecticut",
    "county": "Hartford"
  },
  {
    "zip_code": 6043,
    "latitude": 41.768648,
    "longitude": -72.439278,
    "city": "Bolton",
    "state": "CT",
    "full_state": "Connecticut",
    "county": "Tolland"
  },
  {
    "zip_code": 6045,
    "latitude": 41.791776,
    "longitude": -72.718832,
    "city": "Manchester",
    "state": "CT",
    "full_state": "Connecticut",
    "county": "Hartford"
  },
  {
    "zip_code": 6049,
    "latitude": 41.791776,
    "longitude": -72.718832,
    "city": "Melrose",
    "state": "CT",
    "full_state": "Connecticut",
    "county": "Hartford"
  },
  {
    "zip_code": 6050,
    "latitude": 41.666049,
    "longitude": -72.778391,
    "city": "New Britain",
    "state": "CT",
    "full_state": "Connecticut",
    "county": "Hartford"
  },
  {
    "zip_code": 6051,
    "latitude": 41.668449,
    "longitude": -72.770441,
    "city": "New Britain",
    "state": "CT",
    "full_state": "Connecticut",
    "county": "Hartford"
  },
  {
    "zip_code": 6052,
    "latitude": 41.656748,
    "longitude": -72.801892,
    "city": "New Britain",
    "state": "CT",
    "full_state": "Connecticut",
    "county": "Hartford"
  },
  {
    "zip_code": 6053,
    "latitude": 41.690249,
    "longitude": -72.790991,
    "city": "New Britain",
    "state": "CT",
    "full_state": "Connecticut",
    "county": "Hartford"
  },
  {
    "zip_code": 6057,
    "latitude": 41.883102,
    "longitude": -73.045918,
    "city": "New Hartford",
    "state": "CT",
    "full_state": "Connecticut",
    "county": "Litchfield"
  },
  {
    "zip_code": 6058,
    "latitude": 41.886811,
    "longitude": -73.184674,
    "city": "Norfolk",
    "state": "CT",
    "full_state": "Connecticut",
    "county": "Litchfield"
  },
  {
    "zip_code": 6059,
    "latitude": 41.899683,
    "longitude": -72.890744,
    "city": "North Canton",
    "state": "CT",
    "full_state": "Connecticut",
    "county": "Hartford"
  },
  {
    "zip_code": 6060,
    "latitude": 42.004694,
    "longitude": -72.843205,
    "city": "North Granby",
    "state": "CT",
    "full_state": "Connecticut",
    "county": "Hartford"
  },
  {
    "zip_code": 6061,
    "latitude": 41.874382,
    "longitude": -72.967958,
    "city": "Pine Meadow",
    "state": "CT",
    "full_state": "Connecticut",
    "county": "Litchfield"
  },
  {
    "zip_code": 6062,
    "latitude": 41.672983,
    "longitude": -72.859695,
    "city": "Plainville",
    "state": "CT",
    "full_state": "Connecticut",
    "county": "Hartford"
  },
  {
    "zip_code": 6063,
    "latitude": 41.93937,
    "longitude": -72.990647,
    "city": "Barkhamsted",
    "state": "CT",
    "full_state": "Connecticut",
    "county": "Litchfield"
  },
  {
    "zip_code": 6064,
    "latitude": 41.791776,
    "longitude": -72.718832,
    "city": "Poquonock",
    "state": "CT",
    "full_state": "Connecticut",
    "county": "Hartford"
  },
  {
    "zip_code": 6065,
    "latitude": 41.968597,
    "longitude": -73.014467,
    "city": "Riverton",
    "state": "CT",
    "full_state": "Connecticut",
    "county": "Litchfield"
  },
  {
    "zip_code": 6066,
    "latitude": 41.8372,
    "longitude": -72.454917,
    "city": "Vernon Rockville",
    "state": "CT",
    "full_state": "Connecticut",
    "county": "Tolland"
  },
  {
    "zip_code": 6067,
    "latitude": 41.657249,
    "longitude": -72.670887,
    "city": "Rocky Hill",
    "state": "CT",
    "full_state": "Connecticut",
    "county": "Hartford"
  },
  {
    "zip_code": 6068,
    "latitude": 42.00579,
    "longitude": -73.399336,
    "city": "Salisbury",
    "state": "CT",
    "full_state": "Connecticut",
    "county": "Litchfield"
  },
  {
    "zip_code": 6069,
    "latitude": 41.874681,
    "longitude": -73.433903,
    "city": "Sharon",
    "state": "CT",
    "full_state": "Connecticut",
    "county": "Litchfield"
  },
  {
    "zip_code": 6070,
    "latitude": 41.868647,
    "longitude": -72.819742,
    "city": "Simsbury",
    "state": "CT",
    "full_state": "Connecticut",
    "county": "Hartford"
  },
  {
    "zip_code": 6071,
    "latitude": 41.919603,
    "longitude": -72.433046,
    "city": "Somers",
    "state": "CT",
    "full_state": "Connecticut",
    "county": "Tolland"
  },
  {
    "zip_code": 6072,
    "latitude": 41.976466,
    "longitude": -72.490593,
    "city": "Somersville",
    "state": "CT",
    "full_state": "Connecticut",
    "county": "Tolland"
  },
  {
    "zip_code": 6073,
    "latitude": 41.657099,
    "longitude": -72.572233,
    "city": "South Glastonbury",
    "state": "CT",
    "full_state": "Connecticut",
    "county": "Hartford"
  },
  {
    "zip_code": 6074,
    "latitude": 41.834198,
    "longitude": -72.564632,
    "city": "South Windsor",
    "state": "CT",
    "full_state": "Connecticut",
    "county": "Hartford"
  },
  {
    "zip_code": 6075,
    "latitude": 41.81152,
    "longitude": -72.308779,
    "city": "Stafford",
    "state": "CT",
    "full_state": "Connecticut",
    "county": "Tolland"
  },
  {
    "zip_code": 6076,
    "latitude": 41.900495,
    "longitude": -72.27641,
    "city": "Stafford Springs",
    "state": "CT",
    "full_state": "Connecticut",
    "county": "Tolland"
  },
  {
    "zip_code": 6077,
    "latitude": 41.991645,
    "longitude": -72.257735,
    "city": "Staffordville",
    "state": "CT",
    "full_state": "Connecticut",
    "county": "Tolland"
  },
  {
    "zip_code": 6078,
    "latitude": 41.989646,
    "longitude": -72.658135,
    "city": "Suffield",
    "state": "CT",
    "full_state": "Connecticut",
    "county": "Hartford"
  },
  {
    "zip_code": 6079,
    "latitude": 42.032012,
    "longitude": -73.403763,
    "city": "Taconic",
    "state": "CT",
    "full_state": "Connecticut",
    "county": "Litchfield"
  },
  {
    "zip_code": 6080,
    "latitude": 41.948597,
    "longitude": -72.628802,
    "city": "Suffield",
    "state": "CT",
    "full_state": "Connecticut",
    "county": "Hartford"
  },
  {
    "zip_code": 6081,
    "latitude": 41.905269,
    "longitude": -72.767239,
    "city": "Tariffville",
    "state": "CT",
    "full_state": "Connecticut",
    "county": "Hartford"
  },
  {
    "zip_code": 6082,
    "latitude": 41.984646,
    "longitude": -72.557731,
    "city": "Enfield",
    "state": "CT",
    "full_state": "Connecticut",
    "county": "Hartford"
  },
  {
    "zip_code": 6083,
    "latitude": 41.791776,
    "longitude": -72.718832,
    "city": "Enfield",
    "state": "CT",
    "full_state": "Connecticut",
    "county": "Hartford"
  },
  {
    "zip_code": 6084,
    "latitude": 41.882553,
    "longitude": -72.361039,
    "city": "Tolland",
    "state": "CT",
    "full_state": "Connecticut",
    "county": "Tolland"
  },
  {
    "zip_code": 6085,
    "latitude": 41.860009,
    "longitude": -72.933467,
    "city": "Unionville",
    "state": "CT",
    "full_state": "Connecticut",
    "county": "Hartford"
  },
  {
    "zip_code": 6087,
    "latitude": 41.757616,
    "longitude": -72.884953,
    "city": "Unionville",
    "state": "CT",
    "full_state": "Connecticut",
    "county": "Hartford"
  },
  {
    "zip_code": 6088,
    "latitude": 41.903347,
    "longitude": -72.592883,
    "city": "East Windsor",
    "state": "CT",
    "full_state": "Connecticut",
    "county": "Hartford"
  },
  {
    "zip_code": 6089,
    "latitude": 41.889965,
    "longitude": -72.704,
    "city": "Weatogue",
    "state": "CT",
    "full_state": "Connecticut",
    "county": "Hartford"
  },
  {
    "zip_code": 6090,
    "latitude": 41.955645,
    "longitude": -72.861993,
    "city": "West Granby",
    "state": "CT",
    "full_state": "Connecticut",
    "county": "Hartford"
  },
  {
    "zip_code": 6091,
    "latitude": 42.003447,
    "longitude": -72.992109,
    "city": "West Hartland",
    "state": "CT",
    "full_state": "Connecticut",
    "county": "Hartford"
  },
  {
    "zip_code": 6092,
    "latitude": 41.865597,
    "longitude": -72.849854,
    "city": "West Simsbury",
    "state": "CT",
    "full_state": "Connecticut",
    "county": "Hartford"
  },
  {
    "zip_code": 6093,
    "latitude": 42.005795,
    "longitude": -72.727337,
    "city": "West Suffield",
    "state": "CT",
    "full_state": "Connecticut",
    "county": "Hartford"
  },
  {
    "zip_code": 6094,
    "latitude": 41.896321,
    "longitude": -73.146312,
    "city": "Winchester Center",
    "state": "CT",
    "full_state": "Connecticut",
    "county": "Litchfield"
  },
  {
    "zip_code": 6095,
    "latitude": 41.909988,
    "longitude": -72.804935,
    "city": "Windsor",
    "state": "CT",
    "full_state": "Connecticut",
    "county": "Hartford"
  },
  {
    "zip_code": 6096,
    "latitude": 41.933846,
    "longitude": -72.660245,
    "city": "Windsor Locks",
    "state": "CT",
    "full_state": "Connecticut",
    "county": "Hartford"
  },
  {
    "zip_code": 6098,
    "latitude": 41.925671,
    "longitude": -73.058157,
    "city": "Winsted",
    "state": "CT",
    "full_state": "Connecticut",
    "county": "Litchfield"
  },
  {
    "zip_code": 6101,
    "latitude": 41.78007,
    "longitude": -72.677099,
    "city": "Hartford",
    "state": "CT",
    "full_state": "Connecticut",
    "county": "Hartford"
  },
  {
    "zip_code": 6102,
    "latitude": 41.791776,
    "longitude": -72.718832,
    "city": "Hartford",
    "state": "CT",
    "full_state": "Connecticut",
    "county": "Hartford"
  },
  {
    "zip_code": 6103,
    "latitude": 41.766349,
    "longitude": -72.674636,
    "city": "Hartford",
    "state": "CT",
    "full_state": "Connecticut",
    "county": "Hartford"
  },
  {
    "zip_code": 6104,
    "latitude": 41.791776,
    "longitude": -72.718832,
    "city": "Hartford",
    "state": "CT",
    "full_state": "Connecticut",
    "county": "Hartford"
  },
  {
    "zip_code": 6105,
    "latitude": 41.774499,
    "longitude": -72.699537,
    "city": "Hartford",
    "state": "CT",
    "full_state": "Connecticut",
    "county": "Hartford"
  },
  {
    "zip_code": 6106,
    "latitude": 41.745049,
    "longitude": -72.687787,
    "city": "Hartford",
    "state": "CT",
    "full_state": "Connecticut",
    "county": "Hartford"
  },
  {
    "zip_code": 6107,
    "latitude": 41.75325,
    "longitude": -72.75804,
    "city": "W Hartford",
    "state": "CT",
    "full_state": "Connecticut",
    "county": "Hartford"
  },
  {
    "zip_code": 6108,
    "latitude": 41.779799,
    "longitude": -72.621365,
    "city": "East Hartford",
    "state": "CT",
    "full_state": "Connecticut",
    "county": "Hartford"
  },
  {
    "zip_code": 6109,
    "latitude": 41.698899,
    "longitude": -72.667887,
    "city": "Wethersfield",
    "state": "CT",
    "full_state": "Connecticut",
    "county": "Hartford"
  },
  {
    "zip_code": 6110,
    "latitude": 41.73425,
    "longitude": -72.738139,
    "city": "W Hartford",
    "state": "CT",
    "full_state": "Connecticut",
    "county": "Hartford"
  },
  {
    "zip_code": 6111,
    "latitude": 41.685985,
    "longitude": -72.729646,
    "city": "Newington",
    "state": "CT",
    "full_state": "Connecticut",
    "county": "Hartford"
  },
  {
    "zip_code": 6112,
    "latitude": 41.791337,
    "longitude": -72.694337,
    "city": "Hartford",
    "state": "CT",
    "full_state": "Connecticut",
    "county": "Hartford"
  },
  {
    "zip_code": 6114,
    "latitude": 41.747399,
    "longitude": -72.672237,
    "city": "Hartford",
    "state": "CT",
    "full_state": "Connecticut",
    "county": "Hartford"
  },
  {
    "zip_code": 6115,
    "latitude": 41.758849,
    "longitude": -72.679387,
    "city": "Hartford",
    "state": "CT",
    "full_state": "Connecticut",
    "county": "Hartford"
  },
  {
    "zip_code": 6117,
    "latitude": 41.788688,
    "longitude": -72.755739,
    "city": "W Hartford",
    "state": "CT",
    "full_state": "Connecticut",
    "county": "Hartford"
  },
  {
    "zip_code": 6118,
    "latitude": 41.748999,
    "longitude": -72.609884,
    "city": "East Hartford",
    "state": "CT",
    "full_state": "Connecticut",
    "county": "Hartford"
  },
  {
    "zip_code": 6119,
    "latitude": 41.764349,
    "longitude": -72.726388,
    "city": "W Hartford",
    "state": "CT",
    "full_state": "Connecticut",
    "county": "Hartford"
  },
  {
    "zip_code": 6120,
    "latitude": 41.785449,
    "longitude": -72.669936,
    "city": "Hartford",
    "state": "CT",
    "full_state": "Connecticut",
    "county": "Hartford"
  },
  {
    "zip_code": 6123,
    "latitude": 41.791776,
    "longitude": -72.718832,
    "city": "Hartford",
    "state": "CT",
    "full_state": "Connecticut",
    "county": "Hartford"
  },
  {
    "zip_code": 6126,
    "latitude": 41.791776,
    "longitude": -72.718832,
    "city": "Hartford",
    "state": "CT",
    "full_state": "Connecticut",
    "county": "Hartford"
  },
  {
    "zip_code": 6127,
    "latitude": 41.791776,
    "longitude": -72.718832,
    "city": "W Hartford",
    "state": "CT",
    "full_state": "Connecticut",
    "county": "Hartford"
  },
  {
    "zip_code": 6128,
    "latitude": 41.791776,
    "longitude": -72.718832,
    "city": "East Hartford",
    "state": "CT",
    "full_state": "Connecticut",
    "county": "Hartford"
  },
  {
    "zip_code": 6129,
    "latitude": 41.791776,
    "longitude": -72.718832,
    "city": "Wethersfield",
    "state": "CT",
    "full_state": "Connecticut",
    "county": "Hartford"
  },
  {
    "zip_code": 6131,
    "latitude": 41.791776,
    "longitude": -72.718832,
    "city": "Newington",
    "state": "CT",
    "full_state": "Connecticut",
    "county": "Hartford"
  },
  {
    "zip_code": 6132,
    "latitude": 41.791776,
    "longitude": -72.718832,
    "city": "Hartford",
    "state": "CT",
    "full_state": "Connecticut",
    "county": "Hartford"
  },
  {
    "zip_code": 6133,
    "latitude": 41.791776,
    "longitude": -72.718832,
    "city": "W Hartford",
    "state": "CT",
    "full_state": "Connecticut",
    "county": "Hartford"
  },
  {
    "zip_code": 6134,
    "latitude": 41.791776,
    "longitude": -72.718832,
    "city": "Hartford",
    "state": "CT",
    "full_state": "Connecticut",
    "county": "Hartford"
  },
  {
    "zip_code": 6137,
    "latitude": 41.791776,
    "longitude": -72.718832,
    "city": "W Hartford",
    "state": "CT",
    "full_state": "Connecticut",
    "county": "Hartford"
  },
  {
    "zip_code": 6138,
    "latitude": 41.791776,
    "longitude": -72.718832,
    "city": "East Hartford",
    "state": "CT",
    "full_state": "Connecticut",
    "county": "Hartford"
  },
  {
    "zip_code": 6140,
    "latitude": 41.791776,
    "longitude": -72.718832,
    "city": "Hartford",
    "state": "CT",
    "full_state": "Connecticut",
    "county": "Hartford"
  },
  {
    "zip_code": 6141,
    "latitude": 41.791776,
    "longitude": -72.718832,
    "city": "Hartford",
    "state": "CT",
    "full_state": "Connecticut",
    "county": "Hartford"
  },
  {
    "zip_code": 6142,
    "latitude": 41.791776,
    "longitude": -72.718832,
    "city": "Hartford",
    "state": "CT",
    "full_state": "Connecticut",
    "county": "Hartford"
  },
  {
    "zip_code": 6143,
    "latitude": 41.791776,
    "longitude": -72.718832,
    "city": "Hartford",
    "state": "CT",
    "full_state": "Connecticut",
    "county": "Hartford"
  },
  {
    "zip_code": 6144,
    "latitude": 41.791776,
    "longitude": -72.718832,
    "city": "Hartford",
    "state": "CT",
    "full_state": "Connecticut",
    "county": "Hartford"
  },
  {
    "zip_code": 6145,
    "latitude": 41.791776,
    "longitude": -72.718832,
    "city": "Hartford",
    "state": "CT",
    "full_state": "Connecticut",
    "county": "Hartford"
  },
  {
    "zip_code": 6146,
    "latitude": 41.791776,
    "longitude": -72.718832,
    "city": "Hartford",
    "state": "CT",
    "full_state": "Connecticut",
    "county": "Hartford"
  },
  {
    "zip_code": 6147,
    "latitude": 41.791776,
    "longitude": -72.718832,
    "city": "Hartford",
    "state": "CT",
    "full_state": "Connecticut",
    "county": "Hartford"
  },
  {
    "zip_code": 6150,
    "latitude": 41.791776,
    "longitude": -72.718832,
    "city": "Hartford",
    "state": "CT",
    "full_state": "Connecticut",
    "county": "Hartford"
  },
  {
    "zip_code": 6151,
    "latitude": 41.791776,
    "longitude": -72.718832,
    "city": "Hartford",
    "state": "CT",
    "full_state": "Connecticut",
    "county": "Hartford"
  },
  {
    "zip_code": 6152,
    "latitude": 41.791776,
    "longitude": -72.718832,
    "city": "Hartford",
    "state": "CT",
    "full_state": "Connecticut",
    "county": "Hartford"
  },
  {
    "zip_code": 6153,
    "latitude": 41.791776,
    "longitude": -72.718832,
    "city": "Hartford",
    "state": "CT",
    "full_state": "Connecticut",
    "county": "Hartford"
  },
  {
    "zip_code": 6154,
    "latitude": 41.771499,
    "longitude": -72.686687,
    "city": "Hartford",
    "state": "CT",
    "full_state": "Connecticut",
    "county": "Hartford"
  },
  {
    "zip_code": 6155,
    "latitude": 41.76928,
    "longitude": -72.686465,
    "city": "Hartford",
    "state": "CT",
    "full_state": "Connecticut",
    "county": "Hartford"
  },
  {
    "zip_code": 6156,
    "latitude": 41.767949,
    "longitude": -72.690687,
    "city": "Hartford",
    "state": "CT",
    "full_state": "Connecticut",
    "county": "Hartford"
  },
  {
    "zip_code": 6160,
    "latitude": 41.766499,
    "longitude": -72.693337,
    "city": "Hartford",
    "state": "CT",
    "full_state": "Connecticut",
    "county": "Hartford"
  },
  {
    "zip_code": 6161,
    "latitude": 41.766049,
    "longitude": -72.671837,
    "city": "Hartford",
    "state": "CT",
    "full_state": "Connecticut",
    "county": "Hartford"
  },
  {
    "zip_code": 6167,
    "latitude": 41.791776,
    "longitude": -72.718832,
    "city": "Hartford",
    "state": "CT",
    "full_state": "Connecticut",
    "county": "Hartford"
  },
  {
    "zip_code": 6176,
    "latitude": 41.791776,
    "longitude": -72.718832,
    "city": "Hartford",
    "state": "CT",
    "full_state": "Connecticut",
    "county": "Hartford"
  },
  {
    "zip_code": 6180,
    "latitude": 41.791776,
    "longitude": -72.718832,
    "city": "Hartford",
    "state": "CT",
    "full_state": "Connecticut",
    "county": "Hartford"
  },
  {
    "zip_code": 6183,
    "latitude": 41.763849,
    "longitude": -72.673037,
    "city": "Hartford",
    "state": "CT",
    "full_state": "Connecticut",
    "county": "Hartford"
  },
  {
    "zip_code": 6199,
    "latitude": 41.927447,
    "longitude": -72.680386,
    "city": "Hartford",
    "state": "CT",
    "full_state": "Connecticut",
    "county": "Hartford"
  },
  {
    "zip_code": 6226,
    "latitude": 41.845504,
    "longitude": -72.091889,
    "city": "Willimantic",
    "state": "CT",
    "full_state": "Connecticut",
    "county": "Windham"
  },
  {
    "zip_code": 6230,
    "latitude": 41.847302,
    "longitude": -72.02528,
    "city": "Abington",
    "state": "CT",
    "full_state": "Connecticut",
    "county": "Windham"
  },
  {
    "zip_code": 6231,
    "latitude": 41.626377,
    "longitude": -72.3728,
    "city": "Amston",
    "state": "CT",
    "full_state": "Connecticut",
    "county": "Tolland"
  },
  {
    "zip_code": 6232,
    "latitude": 41.731847,
    "longitude": -72.374634,
    "city": "Andover",
    "state": "CT",
    "full_state": "Connecticut",
    "county": "Tolland"
  },
  {
    "zip_code": 6233,
    "latitude": 41.831565,
    "longitude": -72.020137,
    "city": "Ballouville",
    "state": "CT",
    "full_state": "Connecticut",
    "county": "Windham"
  },
  {
    "zip_code": 6234,
    "latitude": 41.847758,
    "longitude": -71.983412,
    "city": "Brooklyn",
    "state": "CT",
    "full_state": "Connecticut",
    "county": "Windham"
  },
  {
    "zip_code": 6235,
    "latitude": 41.80294,
    "longitude": -72.126036,
    "city": "Chaplin",
    "state": "CT",
    "full_state": "Connecticut",
    "county": "Windham"
  },
  {
    "zip_code": 6237,
    "latitude": 41.696124,
    "longitude": -72.300043,
    "city": "Columbia",
    "state": "CT",
    "full_state": "Connecticut",
    "county": "Tolland"
  },
  {
    "zip_code": 6238,
    "latitude": 41.778623,
    "longitude": -72.323642,
    "city": "Coventry",
    "state": "CT",
    "full_state": "Connecticut",
    "county": "Tolland"
  },
  {
    "zip_code": 6239,
    "latitude": 41.864901,
    "longitude": -71.874354,
    "city": "Danielson",
    "state": "CT",
    "full_state": "Connecticut",
    "county": "Windham"
  },
  {
    "zip_code": 6241,
    "latitude": 41.854975,
    "longitude": -71.858826,
    "city": "Dayville",
    "state": "CT",
    "full_state": "Connecticut",
    "county": "Windham"
  },
  {
    "zip_code": 6242,
    "latitude": 41.927524,
    "longitude": -72.041112,
    "city": "Eastford",
    "state": "CT",
    "full_state": "Connecticut",
    "county": "Windham"
  },
  {
    "zip_code": 6243,
    "latitude": 41.844885,
    "longitude": -71.818941,
    "city": "East Killingly",
    "state": "CT",
    "full_state": "Connecticut",
    "county": "Windham"
  },
  {
    "zip_code": 6244,
    "latitude": 41.984327,
    "longitude": -71.981045,
    "city": "East Woodstock",
    "state": "CT",
    "full_state": "Connecticut",
    "county": "Windham"
  },
  {
    "zip_code": 6245,
    "latitude": 42.019776,
    "longitude": -71.941669,
    "city": "Fabyan",
    "state": "CT",
    "full_state": "Connecticut",
    "county": "Windham"
  },
  {
    "zip_code": 6246,
    "latitude": 41.971116,
    "longitude": -71.891732,
    "city": "Grosvenor Dale",
    "state": "CT",
    "full_state": "Connecticut",
    "county": "Windham"
  },
  {
    "zip_code": 6247,
    "latitude": 41.788756,
    "longitude": -71.975819,
    "city": "Hampton",
    "state": "CT",
    "full_state": "Connecticut",
    "county": "Windham"
  },
  {
    "zip_code": 6248,
    "latitude": 41.689249,
    "longitude": -72.398627,
    "city": "Hebron",
    "state": "CT",
    "full_state": "Connecticut",
    "county": "Tolland"
  },
  {
    "zip_code": 6249,
    "latitude": 41.628008,
    "longitude": -72.245422,
    "city": "Lebanon",
    "state": "CT",
    "full_state": "Connecticut",
    "county": "New London"
  },
  {
    "zip_code": 6250,
    "latitude": 41.78155,
    "longitude": -72.22554,
    "city": "Mansfield Center",
    "state": "CT",
    "full_state": "Connecticut",
    "county": "Tolland"
  },
  {
    "zip_code": 6251,
    "latitude": 41.799326,
    "longitude": -72.306526,
    "city": "Mansfield Depot",
    "state": "CT",
    "full_state": "Connecticut",
    "county": "Tolland"
  },
  {
    "zip_code": 6254,
    "latitude": 41.609895,
    "longitude": -72.150305,
    "city": "North Franklin",
    "state": "CT",
    "full_state": "Connecticut",
    "county": "New London"
  },
  {
    "zip_code": 6255,
    "latitude": 41.978392,
    "longitude": -71.899716,
    "city": "North Grosvenordale",
    "state": "CT",
    "full_state": "Connecticut",
    "county": "Windham"
  },
  {
    "zip_code": 6256,
    "latitude": 41.778469,
    "longitude": -72.040003,
    "city": "North Windham",
    "state": "CT",
    "full_state": "Connecticut",
    "county": "Windham"
  },
  {
    "zip_code": 6258,
    "latitude": 41.889048,
    "longitude": -71.968232,
    "city": "Pomfret",
    "state": "CT",
    "full_state": "Connecticut",
    "county": "Windham"
  },
  {
    "zip_code": 6259,
    "latitude": 41.863133,
    "longitude": -72.00259,
    "city": "Pomfret Center",
    "state": "CT",
    "full_state": "Connecticut",
    "county": "Windham"
  },
  {
    "zip_code": 6260,
    "latitude": 41.862904,
    "longitude": -71.887712,
    "city": "Putnam",
    "state": "CT",
    "full_state": "Connecticut",
    "county": "Windham"
  },
  {
    "zip_code": 6262,
    "latitude": 42.021536,
    "longitude": -71.947077,
    "city": "Quinebaug",
    "state": "CT",
    "full_state": "Connecticut",
    "county": "Windham"
  },
  {
    "zip_code": 6263,
    "latitude": 41.839051,
    "longitude": -71.90634,
    "city": "Rogers",
    "state": "CT",
    "full_state": "Connecticut",
    "county": "Windham"
  },
  {
    "zip_code": 6264,
    "latitude": 41.695803,
    "longitude": -72.087045,
    "city": "Scotland",
    "state": "CT",
    "full_state": "Connecticut",
    "county": "Windham"
  },
  {
    "zip_code": 6265,
    "latitude": 41.81152,
    "longitude": -72.308779,
    "city": "South Willington",
    "state": "CT",
    "full_state": "Connecticut",
    "county": "Tolland"
  },
  {
    "zip_code": 6266,
    "latitude": 41.674079,
    "longitude": -72.172298,
    "city": "South Windham",
    "state": "CT",
    "full_state": "Connecticut",
    "county": "Windham"
  },
  {
    "zip_code": 6267,
    "latitude": 41.943902,
    "longitude": -71.945253,
    "city": "South Woodstock",
    "state": "CT",
    "full_state": "Connecticut",
    "county": "Windham"
  },
  {
    "zip_code": 6268,
    "latitude": 41.787937,
    "longitude": -72.25248,
    "city": "Storrs Mansfield",
    "state": "CT",
    "full_state": "Connecticut",
    "county": "Tolland"
  },
  {
    "zip_code": 6269,
    "latitude": 41.808007,
    "longitude": -72.250963,
    "city": "Storrs Mansfield",
    "state": "CT",
    "full_state": "Connecticut",
    "county": "Tolland"
  },
  {
    "zip_code": 6277,
    "latitude": 41.975796,
    "longitude": -71.862047,
    "city": "Thompson",
    "state": "CT",
    "full_state": "Connecticut",
    "county": "Windham"
  },
  {
    "zip_code": 6278,
    "latitude": 41.889043,
    "longitude": -72.147561,
    "city": "Ashford",
    "state": "CT",
    "full_state": "Connecticut",
    "county": "Windham"
  },
  {
    "zip_code": 6279,
    "latitude": 41.896623,
    "longitude": -72.262236,
    "city": "Willington",
    "state": "CT",
    "full_state": "Connecticut",
    "county": "Tolland"
  },
  {
    "zip_code": 6280,
    "latitude": 41.693914,
    "longitude": -72.137843,
    "city": "Windham",
    "state": "CT",
    "full_state": "Connecticut",
    "county": "Windham"
  },
  {
    "zip_code": 6281,
    "latitude": 41.961991,
    "longitude": -72.014108,
    "city": "Woodstock",
    "state": "CT",
    "full_state": "Connecticut",
    "county": "Windham"
  },
  {
    "zip_code": 6282,
    "latitude": 41.952846,
    "longitude": -72.057134,
    "city": "Woodstock Valley",
    "state": "CT",
    "full_state": "Connecticut",
    "county": "Windham"
  },
  {
    "zip_code": 6320,
    "latitude": 41.413998,
    "longitude": -72.10907,
    "city": "New London",
    "state": "CT",
    "full_state": "Connecticut",
    "county": "New London"
  },
  {
    "zip_code": 6330,
    "latitude": 41.501708,
    "longitude": -72.044306,
    "city": "Baltic",
    "state": "CT",
    "full_state": "Connecticut",
    "county": "New London"
  },
  {
    "zip_code": 6331,
    "latitude": 41.696753,
    "longitude": -71.998277,
    "city": "Canterbury",
    "state": "CT",
    "full_state": "Connecticut",
    "county": "Windham"
  },
  {
    "zip_code": 6332,
    "latitude": 41.725694,
    "longitude": -71.909019,
    "city": "Central Village",
    "state": "CT",
    "full_state": "Connecticut",
    "county": "Windham"
  },
  {
    "zip_code": 6333,
    "latitude": 41.378842,
    "longitude": -72.236794,
    "city": "East Lyme",
    "state": "CT",
    "full_state": "Connecticut",
    "county": "New London"
  },
  {
    "zip_code": 6334,
    "latitude": 41.544598,
    "longitude": -72.177023,
    "city": "Bozrah",
    "state": "CT",
    "full_state": "Connecticut",
    "county": "New London"
  },
  {
    "zip_code": 6335,
    "latitude": 41.523377,
    "longitude": -72.021165,
    "city": "Gales Ferry",
    "state": "CT",
    "full_state": "Connecticut",
    "county": "New London"
  },
  {
    "zip_code": 6336,
    "latitude": 41.579548,
    "longitude": -72.196273,
    "city": "Gilman",
    "state": "CT",
    "full_state": "Connecticut",
    "county": "New London"
  },
  {
    "zip_code": 6337,
    "latitude": 41.559873,
    "longitude": -71.889199,
    "city": "Glasgo",
    "state": "CT",
    "full_state": "Connecticut",
    "county": "New London"
  },
  {
    "zip_code": 6339,
    "latitude": 41.492843,
    "longitude": -71.965554,
    "city": "Ledyard",
    "state": "CT",
    "full_state": "Connecticut",
    "county": "New London"
  },
  {
    "zip_code": 6340,
    "latitude": 41.355405,
    "longitude": -72.038268,
    "city": "Groton",
    "state": "CT",
    "full_state": "Connecticut",
    "county": "New London"
  },
  {
    "zip_code": 6349,
    "latitude": 41.39973,
    "longitude": -72.090357,
    "city": "Groton",
    "state": "CT",
    "full_state": "Connecticut",
    "county": "New London"
  },
  {
    "zip_code": 6350,
    "latitude": 41.644546,
    "longitude": -72.06769,
    "city": "Hanover",
    "state": "CT",
    "full_state": "Connecticut",
    "county": "New London"
  },
  {
    "zip_code": 6351,
    "latitude": 41.599562,
    "longitude": -71.982619,
    "city": "Jewett City",
    "state": "CT",
    "full_state": "Connecticut",
    "county": "New London"
  },
  {
    "zip_code": 6353,
    "latitude": 41.452548,
    "longitude": -72.137471,
    "city": "Montville",
    "state": "CT",
    "full_state": "Connecticut",
    "county": "New London"
  },
  {
    "zip_code": 6354,
    "latitude": 41.704931,
    "longitude": -71.849772,
    "city": "Moosup",
    "state": "CT",
    "full_state": "Connecticut",
    "county": "Windham"
  },
  {
    "zip_code": 6355,
    "latitude": 41.485188,
    "longitude": -72.000748,
    "city": "Mystic",
    "state": "CT",
    "full_state": "Connecticut",
    "county": "New London"
  },
  {
    "zip_code": 6357,
    "latitude": 41.323447,
    "longitude": -72.215623,
    "city": "Niantic",
    "state": "CT",
    "full_state": "Connecticut",
    "county": "New London"
  },
  {
    "zip_code": 6359,
    "latitude": 41.466851,
    "longitude": -71.880694,
    "city": "North Stonington",
    "state": "CT",
    "full_state": "Connecticut",
    "county": "New London"
  },
  {
    "zip_code": 6360,
    "latitude": 41.499398,
    "longitude": -71.994757,
    "city": "Norwich",
    "state": "CT",
    "full_state": "Connecticut",
    "county": "New London"
  },
  {
    "zip_code": 6365,
    "latitude": 41.522369,
    "longitude": -71.993427,
    "city": "Preston",
    "state": "CT",
    "full_state": "Connecticut",
    "county": "New London"
  },
  {
    "zip_code": 6370,
    "latitude": 41.512172,
    "longitude": -72.102302,
    "city": "Oakdale",
    "state": "CT",
    "full_state": "Connecticut",
    "county": "New London"
  },
  {
    "zip_code": 6371,
    "latitude": 41.409397,
    "longitude": -72.147665,
    "city": "Old Lyme",
    "state": "CT",
    "full_state": "Connecticut",
    "county": "New London"
  },
  {
    "zip_code": 6372,
    "latitude": 41.388216,
    "longitude": -71.949548,
    "city": "Old Mystic",
    "state": "CT",
    "full_state": "Connecticut",
    "county": "New London"
  },
  {
    "zip_code": 6373,
    "latitude": 41.678546,
    "longitude": -71.817759,
    "city": "Oneco",
    "state": "CT",
    "full_state": "Connecticut",
    "county": "Windham"
  },
  {
    "zip_code": 6374,
    "latitude": 41.688121,
    "longitude": -71.884113,
    "city": "Plainfield",
    "state": "CT",
    "full_state": "Connecticut",
    "county": "Windham"
  },
  {
    "zip_code": 6375,
    "latitude": 41.401066,
    "longitude": -72.140022,
    "city": "Quaker Hill",
    "state": "CT",
    "full_state": "Connecticut",
    "county": "New London"
  },
  {
    "zip_code": 6376,
    "latitude": 41.296668,
    "longitude": -72.263296,
    "city": "South Lyme",
    "state": "CT",
    "full_state": "Connecticut",
    "county": "New London"
  },
  {
    "zip_code": 6377,
    "latitude": 41.719948,
    "longitude": -71.823184,
    "city": "Sterling",
    "state": "CT",
    "full_state": "Connecticut",
    "county": "Windham"
  },
  {
    "zip_code": 6378,
    "latitude": 41.378598,
    "longitude": -71.917915,
    "city": "Stonington",
    "state": "CT",
    "full_state": "Connecticut",
    "county": "New London"
  },
  {
    "zip_code": 6379,
    "latitude": 41.455191,
    "longitude": -71.895547,
    "city": "Pawcatuck",
    "state": "CT",
    "full_state": "Connecticut",
    "county": "New London"
  },
  {
    "zip_code": 6380,
    "latitude": 41.563998,
    "longitude": -72.05522,
    "city": "Taftville",
    "state": "CT",
    "full_state": "Connecticut",
    "county": "New London"
  },
  {
    "zip_code": 6382,
    "latitude": 41.424507,
    "longitude": -72.069578,
    "city": "Uncasville",
    "state": "CT",
    "full_state": "Connecticut",
    "county": "New London"
  },
  {
    "zip_code": 6383,
    "latitude": 41.601648,
    "longitude": -72.04037,
    "city": "Versailles",
    "state": "CT",
    "full_state": "Connecticut",
    "county": "New London"
  },
  {
    "zip_code": 6384,
    "latitude": 41.576894,
    "longitude": -71.866587,
    "city": "Voluntown",
    "state": "CT",
    "full_state": "Connecticut",
    "county": "New London"
  },
  {
    "zip_code": 6385,
    "latitude": 41.456698,
    "longitude": -72.126498,
    "city": "Waterford",
    "state": "CT",
    "full_state": "Connecticut",
    "county": "New London"
  },
  {
    "zip_code": 6386,
    "latitude": 41.464758,
    "longitude": -72.127301,
    "city": "Waterford",
    "state": "CT",
    "full_state": "Connecticut",
    "county": "New London"
  },
  {
    "zip_code": 6387,
    "latitude": 41.744527,
    "longitude": -71.913339,
    "city": "Wauregan",
    "state": "CT",
    "full_state": "Connecticut",
    "county": "Windham"
  },
  {
    "zip_code": 6388,
    "latitude": 41.344098,
    "longitude": -71.976467,
    "city": "West Mystic",
    "state": "CT",
    "full_state": "Connecticut",
    "county": "New London"
  },
  {
    "zip_code": 6389,
    "latitude": 41.559648,
    "longitude": -72.122672,
    "city": "Yantic",
    "state": "CT",
    "full_state": "Connecticut",
    "county": "New London"
  },
  {
    "zip_code": 6390,
    "latitude": 40.992288,
    "longitude": -72.723496,
    "city": "Fishers Island",
    "state": "NY",
    "full_state": "New York",
    "county": "Suffolk"
  },
  {
    "zip_code": 6401,
    "latitude": 41.342514,
    "longitude": -73.070301,
    "city": "Ansonia",
    "state": "CT",
    "full_state": "Connecticut",
    "county": "New Haven"
  },
  {
    "zip_code": 6403,
    "latitude": 41.435134,
    "longitude": -73.058835,
    "city": "Beacon Falls",
    "state": "CT",
    "full_state": "Connecticut",
    "county": "New Haven"
  },
  {
    "zip_code": 6404,
    "latitude": 41.165097,
    "longitude": -73.129186,
    "city": "Botsford",
    "state": "CT",
    "full_state": "Connecticut",
    "county": "Fairfield"
  },
  {
    "zip_code": 6405,
    "latitude": 41.284746,
    "longitude": -72.796292,
    "city": "Branford",
    "state": "CT",
    "full_state": "Connecticut",
    "county": "New Haven"
  },
  {
    "zip_code": 6408,
    "latitude": 41.365709,
    "longitude": -72.927507,
    "city": "Cheshire",
    "state": "CT",
    "full_state": "Connecticut",
    "county": "New Haven"
  },
  {
    "zip_code": 6409,
    "latitude": 41.349098,
    "longitude": -72.41338,
    "city": "Centerbrook",
    "state": "CT",
    "full_state": "Connecticut",
    "county": "Middlesex"
  },
  {
    "zip_code": 6410,
    "latitude": 41.460167,
    "longitude": -72.97222,
    "city": "Cheshire",
    "state": "CT",
    "full_state": "Connecticut",
    "county": "New Haven"
  },
  {
    "zip_code": 6411,
    "latitude": 41.550097,
    "longitude": -72.922235,
    "city": "Cheshire",
    "state": "CT",
    "full_state": "Connecticut",
    "county": "New Haven"
  },
  {
    "zip_code": 6412,
    "latitude": 41.39027,
    "longitude": -72.461805,
    "city": "Chester",
    "state": "CT",
    "full_state": "Connecticut",
    "county": "Middlesex"
  },
  {
    "zip_code": 6413,
    "latitude": 41.298201,
    "longitude": -72.532934,
    "city": "Clinton",
    "state": "CT",
    "full_state": "Connecticut",
    "county": "Middlesex"
  },
  {
    "zip_code": 6414,
    "latitude": 41.566668,
    "longitude": -72.558055,
    "city": "Cobalt",
    "state": "CT",
    "full_state": "Connecticut",
    "county": "Middlesex"
  },
  {
    "zip_code": 6415,
    "latitude": 41.546443,
    "longitude": -72.338832,
    "city": "Colchester",
    "state": "CT",
    "full_state": "Connecticut",
    "county": "New London"
  },
  {
    "zip_code": 6416,
    "latitude": 41.608529,
    "longitude": -72.667807,
    "city": "Cromwell",
    "state": "CT",
    "full_state": "Connecticut",
    "county": "Middlesex"
  },
  {
    "zip_code": 6417,
    "latitude": 41.368124,
    "longitude": -72.452284,
    "city": "Deep River",
    "state": "CT",
    "full_state": "Connecticut",
    "county": "Middlesex"
  },
  {
    "zip_code": 6418,
    "latitude": 41.327246,
    "longitude": -73.084252,
    "city": "Derby",
    "state": "CT",
    "full_state": "Connecticut",
    "county": "New Haven"
  },
  {
    "zip_code": 6419,
    "latitude": 41.417962,
    "longitude": -72.493446,
    "city": "Killingworth",
    "state": "CT",
    "full_state": "Connecticut",
    "county": "Middlesex"
  },
  {
    "zip_code": 6420,
    "latitude": 41.527441,
    "longitude": -72.269141,
    "city": "Salem",
    "state": "CT",
    "full_state": "Connecticut",
    "county": "New London"
  },
  {
    "zip_code": 6422,
    "latitude": 41.462468,
    "longitude": -72.682297,
    "city": "Durham",
    "state": "CT",
    "full_state": "Connecticut",
    "county": "Middlesex"
  },
  {
    "zip_code": 6423,
    "latitude": 41.475478,
    "longitude": -72.389729,
    "city": "East Haddam",
    "state": "CT",
    "full_state": "Connecticut",
    "county": "Middlesex"
  },
  {
    "zip_code": 6424,
    "latitude": 41.559841,
    "longitude": -72.494927,
    "city": "East Hampton",
    "state": "CT",
    "full_state": "Connecticut",
    "county": "Middlesex"
  },
  {
    "zip_code": 6426,
    "latitude": 41.448179,
    "longitude": -72.50426,
    "city": "Essex",
    "state": "CT",
    "full_state": "Connecticut",
    "county": "Middlesex"
  },
  {
    "zip_code": 6430,
    "latitude": 41.175173,
    "longitude": -73.282408,
    "city": "Fairfield",
    "state": "CT",
    "full_state": "Connecticut",
    "county": "Fairfield"
  },
  {
    "zip_code": 6431,
    "latitude": 41.219093,
    "longitude": -73.252696,
    "city": "Fairfield",
    "state": "CT",
    "full_state": "Connecticut",
    "county": "Fairfield"
  },
  {
    "zip_code": 6432,
    "latitude": 41.196046,
    "longitude": -73.252802,
    "city": "Fairfield",
    "state": "CT",
    "full_state": "Connecticut",
    "county": "Fairfield"
  },
  {
    "zip_code": 6436,
    "latitude": 41.308873,
    "longitude": -73.363661,
    "city": "Greens Farms",
    "state": "CT",
    "full_state": "Connecticut",
    "county": "Fairfield"
  },
  {
    "zip_code": 6437,
    "latitude": 41.338847,
    "longitude": -72.690089,
    "city": "Guilford",
    "state": "CT",
    "full_state": "Connecticut",
    "county": "New Haven"
  },
  {
    "zip_code": 6438,
    "latitude": 41.471457,
    "longitude": -72.511376,
    "city": "Haddam",
    "state": "CT",
    "full_state": "Connecticut",
    "county": "Middlesex"
  },
  {
    "zip_code": 6439,
    "latitude": 41.421198,
    "longitude": -72.414095,
    "city": "Hadlyme",
    "state": "CT",
    "full_state": "Connecticut",
    "county": "New London"
  },
  {
    "zip_code": 6440,
    "latitude": 41.308873,
    "longitude": -73.363661,
    "city": "Hawleyville",
    "state": "CT",
    "full_state": "Connecticut",
    "county": "Fairfield"
  },
  {
    "zip_code": 6441,
    "latitude": 41.462718,
    "longitude": -72.578971,
    "city": "Higganum",
    "state": "CT",
    "full_state": "Connecticut",
    "county": "Middlesex"
  },
  {
    "zip_code": 6442,
    "latitude": 41.344076,
    "longitude": -72.444369,
    "city": "Ivoryton",
    "state": "CT",
    "full_state": "Connecticut",
    "county": "Middlesex"
  },
  {
    "zip_code": 6443,
    "latitude": 41.350397,
    "longitude": -72.788392,
    "city": "Madison",
    "state": "CT",
    "full_state": "Connecticut",
    "county": "New Haven"
  },
  {
    "zip_code": 6444,
    "latitude": 41.791776,
    "longitude": -72.718832,
    "city": "Marion",
    "state": "CT",
    "full_state": "Connecticut",
    "county": "Hartford"
  },
  {
    "zip_code": 6447,
    "latitude": 41.636949,
    "longitude": -72.463179,
    "city": "Marlborough",
    "state": "CT",
    "full_state": "Connecticut",
    "county": "Hartford"
  },
  {
    "zip_code": 6450,
    "latitude": 41.536498,
    "longitude": -72.801901,
    "city": "Meriden",
    "state": "CT",
    "full_state": "Connecticut",
    "county": "New Haven"
  },
  {
    "zip_code": 6451,
    "latitude": 41.54011,
    "longitude": -72.81888,
    "city": "Meriden",
    "state": "CT",
    "full_state": "Connecticut",
    "county": "New Haven"
  },
  {
    "zip_code": 6454,
    "latitude": 41.365709,
    "longitude": -72.927507,
    "city": "Meriden",
    "state": "CT",
    "full_state": "Connecticut",
    "county": "New Haven"
  },
  {
    "zip_code": 6455,
    "latitude": 41.515346,
    "longitude": -72.712988,
    "city": "Middlefield",
    "state": "CT",
    "full_state": "Connecticut",
    "county": "Middlesex"
  },
  {
    "zip_code": 6456,
    "latitude": 41.538017,
    "longitude": -72.525208,
    "city": "Middle Haddam",
    "state": "CT",
    "full_state": "Connecticut",
    "county": "Middlesex"
  },
  {
    "zip_code": 6457,
    "latitude": 41.550139,
    "longitude": -72.655357,
    "city": "Middletown",
    "state": "CT",
    "full_state": "Connecticut",
    "county": "Middlesex"
  },
  {
    "zip_code": 6459,
    "latitude": 41.556463,
    "longitude": -72.658179,
    "city": "Middletown",
    "state": "CT",
    "full_state": "Connecticut",
    "county": "Middlesex"
  },
  {
    "zip_code": 6460,
    "latitude": 41.343773,
    "longitude": -72.951273,
    "city": "Milford",
    "state": "CT",
    "full_state": "Connecticut",
    "county": "New Haven"
  },
  {
    "zip_code": 6467,
    "latitude": 41.565697,
    "longitude": -72.903746,
    "city": "Milldale",
    "state": "CT",
    "full_state": "Connecticut",
    "county": "Hartford"
  },
  {
    "zip_code": 6468,
    "latitude": 41.341845,
    "longitude": -73.236918,
    "city": "Monroe",
    "state": "CT",
    "full_state": "Connecticut",
    "county": "Fairfield"
  },
  {
    "zip_code": 6469,
    "latitude": 41.508904,
    "longitude": -72.440086,
    "city": "Moodus",
    "state": "CT",
    "full_state": "Connecticut",
    "county": "Middlesex"
  },
  {
    "zip_code": 6470,
    "latitude": 41.396295,
    "longitude": -73.310561,
    "city": "Newtown",
    "state": "CT",
    "full_state": "Connecticut",
    "county": "Fairfield"
  },
  {
    "zip_code": 6471,
    "latitude": 41.332347,
    "longitude": -72.780892,
    "city": "North Branford",
    "state": "CT",
    "full_state": "Connecticut",
    "county": "New Haven"
  },
  {
    "zip_code": 6472,
    "latitude": 41.379797,
    "longitude": -72.772991,
    "city": "Northford",
    "state": "CT",
    "full_state": "Connecticut",
    "county": "New Haven"
  },
  {
    "zip_code": 6473,
    "latitude": 41.384381,
    "longitude": -72.862644,
    "city": "North Haven",
    "state": "CT",
    "full_state": "Connecticut",
    "county": "New Haven"
  },
  {
    "zip_code": 6474,
    "latitude": 41.464758,
    "longitude": -72.127301,
    "city": "North Westchester",
    "state": "CT",
    "full_state": "Connecticut",
    "county": "New London"
  },
  {
    "zip_code": 6475,
    "latitude": 41.300448,
    "longitude": -72.389129,
    "city": "Old Saybrook",
    "state": "CT",
    "full_state": "Connecticut",
    "county": "Middlesex"
  },
  {
    "zip_code": 6477,
    "latitude": 41.279896,
    "longitude": -73.031018,
    "city": "Orange",
    "state": "CT",
    "full_state": "Connecticut",
    "county": "New Haven"
  },
  {
    "zip_code": 6478,
    "latitude": 41.432583,
    "longitude": -73.138379,
    "city": "Oxford",
    "state": "CT",
    "full_state": "Connecticut",
    "county": "New Haven"
  },
  {
    "zip_code": 6479,
    "latitude": 41.577845,
    "longitude": -72.902496,
    "city": "Plantsville",
    "state": "CT",
    "full_state": "Connecticut",
    "county": "Hartford"
  },
  {
    "zip_code": 6480,
    "latitude": 41.598339,
    "longitude": -72.601307,
    "city": "Portland",
    "state": "CT",
    "full_state": "Connecticut",
    "county": "Middlesex"
  },
  {
    "zip_code": 6481,
    "latitude": 41.542105,
    "longitude": -72.666583,
    "city": "Rockfall",
    "state": "CT",
    "full_state": "Connecticut",
    "county": "Middlesex"
  },
  {
    "zip_code": 6482,
    "latitude": 41.408137,
    "longitude": -73.249671,
    "city": "Sandy Hook",
    "state": "CT",
    "full_state": "Connecticut",
    "county": "Fairfield"
  },
  {
    "zip_code": 6483,
    "latitude": 41.417646,
    "longitude": -73.102078,
    "city": "Seymour",
    "state": "CT",
    "full_state": "Connecticut",
    "county": "New Haven"
  },
  {
    "zip_code": 6484,
    "latitude": 41.314347,
    "longitude": -73.137143,
    "city": "Shelton",
    "state": "CT",
    "full_state": "Connecticut",
    "county": "Fairfield"
  },
  {
    "zip_code": 6487,
    "latitude": 41.365709,
    "longitude": -72.927507,
    "city": "South Britain",
    "state": "CT",
    "full_state": "Connecticut",
    "county": "New Haven"
  },
  {
    "zip_code": 6488,
    "latitude": 41.470921,
    "longitude": -73.240839,
    "city": "Southbury",
    "state": "CT",
    "full_state": "Connecticut",
    "county": "New Haven"
  },
  {
    "zip_code": 6489,
    "latitude": 41.604786,
    "longitude": -72.871945,
    "city": "Southington",
    "state": "CT",
    "full_state": "Connecticut",
    "county": "Hartford"
  },
  {
    "zip_code": 6490,
    "latitude": 41.143396,
    "longitude": -73.289859,
    "city": "Southport",
    "state": "CT",
    "full_state": "Connecticut",
    "county": "Fairfield"
  },
  {
    "zip_code": 6491,
    "latitude": 41.386646,
    "longitude": -73.187207,
    "city": "Stevenson",
    "state": "CT",
    "full_state": "Connecticut",
    "county": "Fairfield"
  },
  {
    "zip_code": 6492,
    "latitude": 41.456205,
    "longitude": -72.811047,
    "city": "Wallingford",
    "state": "CT",
    "full_state": "Connecticut",
    "county": "New Haven"
  },
  {
    "zip_code": 6493,
    "latitude": 41.365709,
    "longitude": -72.927507,
    "city": "Wallingford",
    "state": "CT",
    "full_state": "Connecticut",
    "county": "New Haven"
  },
  {
    "zip_code": 6494,
    "latitude": 41.365709,
    "longitude": -72.927507,
    "city": "Wallingford",
    "state": "CT",
    "full_state": "Connecticut",
    "county": "New Haven"
  },
  {
    "zip_code": 6495,
    "latitude": 41.365709,
    "longitude": -72.927507,
    "city": "Wallingford",
    "state": "CT",
    "full_state": "Connecticut",
    "county": "New Haven"
  },
  {
    "zip_code": 6497,
    "latitude": 41.207146,
    "longitude": -73.130503,
    "city": "Stratford",
    "state": "CT",
    "full_state": "Connecticut",
    "county": "Fairfield"
  },
  {
    "zip_code": 6498,
    "latitude": 41.307899,
    "longitude": -72.463381,
    "city": "Westbrook",
    "state": "CT",
    "full_state": "Connecticut",
    "county": "Middlesex"
  },
  {
    "zip_code": 6501,
    "latitude": 41.365709,
    "longitude": -72.927507,
    "city": "New Haven",
    "state": "CT",
    "full_state": "Connecticut",
    "county": "New Haven"
  },
  {
    "zip_code": 6502,
    "latitude": 41.365709,
    "longitude": -72.927507,
    "city": "New Haven",
    "state": "CT",
    "full_state": "Connecticut",
    "county": "New Haven"
  },
  {
    "zip_code": 6503,
    "latitude": 41.365709,
    "longitude": -72.927507,
    "city": "New Haven",
    "state": "CT",
    "full_state": "Connecticut",
    "county": "New Haven"
  },
  {
    "zip_code": 6504,
    "latitude": 41.365709,
    "longitude": -72.927507,
    "city": "New Haven",
    "state": "CT",
    "full_state": "Connecticut",
    "county": "New Haven"
  },
  {
    "zip_code": 6505,
    "latitude": 41.305721,
    "longitude": -72.779901,
    "city": "New Haven",
    "state": "CT",
    "full_state": "Connecticut",
    "county": "New Haven"
  },
  {
    "zip_code": 6506,
    "latitude": 41.365709,
    "longitude": -72.927507,
    "city": "New Haven",
    "state": "CT",
    "full_state": "Connecticut",
    "county": "New Haven"
  },
  {
    "zip_code": 6507,
    "latitude": 41.365709,
    "longitude": -72.927507,
    "city": "New Haven",
    "state": "CT",
    "full_state": "Connecticut",
    "county": "New Haven"
  },
  {
    "zip_code": 6508,
    "latitude": 41.365709,
    "longitude": -72.927507,
    "city": "New Haven",
    "state": "CT",
    "full_state": "Connecticut",
    "county": "New Haven"
  },
  {
    "zip_code": 6509,
    "latitude": 41.365709,
    "longitude": -72.927507,
    "city": "New Haven",
    "state": "CT",
    "full_state": "Connecticut",
    "county": "New Haven"
  },
  {
    "zip_code": 6510,
    "latitude": 41.309797,
    "longitude": -72.922296,
    "city": "New Haven",
    "state": "CT",
    "full_state": "Connecticut",
    "county": "New Haven"
  },
  {
    "zip_code": 6511,
    "latitude": 41.310547,
    "longitude": -72.926046,
    "city": "New Haven",
    "state": "CT",
    "full_state": "Connecticut",
    "county": "New Haven"
  },
  {
    "zip_code": 6512,
    "latitude": 41.290997,
    "longitude": -72.865894,
    "city": "East Haven",
    "state": "CT",
    "full_state": "Connecticut",
    "county": "New Haven"
  },
  {
    "zip_code": 6513,
    "latitude": 41.307197,
    "longitude": -72.865365,
    "city": "New Haven",
    "state": "CT",
    "full_state": "Connecticut",
    "county": "New Haven"
  },
  {
    "zip_code": 6514,
    "latitude": 41.372723,
    "longitude": -72.938747,
    "city": "Hamden",
    "state": "CT",
    "full_state": "Connecticut",
    "county": "New Haven"
  },
  {
    "zip_code": 6515,
    "latitude": 41.328697,
    "longitude": -72.964247,
    "city": "New Haven",
    "state": "CT",
    "full_state": "Connecticut",
    "county": "New Haven"
  },
  {
    "zip_code": 6516,
    "latitude": 41.272452,
    "longitude": -72.940335,
    "city": "West Haven",
    "state": "CT",
    "full_state": "Connecticut",
    "county": "New Haven"
  },
  {
    "zip_code": 6517,
    "latitude": 41.362197,
    "longitude": -72.911396,
    "city": "Hamden",
    "state": "CT",
    "full_state": "Connecticut",
    "county": "New Haven"
  },
  {
    "zip_code": 6518,
    "latitude": 41.416747,
    "longitude": -72.906096,
    "city": "Hamden",
    "state": "CT",
    "full_state": "Connecticut",
    "county": "New Haven"
  },
  {
    "zip_code": 6519,
    "latitude": 41.296897,
    "longitude": -72.938596,
    "city": "New Haven",
    "state": "CT",
    "full_state": "Connecticut",
    "county": "New Haven"
  },
  {
    "zip_code": 6520,
    "latitude": 41.365709,
    "longitude": -72.927507,
    "city": "New Haven",
    "state": "CT",
    "full_state": "Connecticut",
    "county": "New Haven"
  },
  {
    "zip_code": 6521,
    "latitude": 41.365709,
    "longitude": -72.927507,
    "city": "New Haven",
    "state": "CT",
    "full_state": "Connecticut",
    "county": "New Haven"
  },
  {
    "zip_code": 6524,
    "latitude": 41.428088,
    "longitude": -72.996191,
    "city": "Bethany",
    "state": "CT",
    "full_state": "Connecticut",
    "county": "New Haven"
  },
  {
    "zip_code": 6525,
    "latitude": 41.353296,
    "longitude": -73.013981,
    "city": "Woodbridge",
    "state": "CT",
    "full_state": "Connecticut",
    "county": "New Haven"
  },
  {
    "zip_code": 6530,
    "latitude": 41.365709,
    "longitude": -72.927507,
    "city": "New Haven",
    "state": "CT",
    "full_state": "Connecticut",
    "county": "New Haven"
  },
  {
    "zip_code": 6531,
    "latitude": 41.365709,
    "longitude": -72.927507,
    "city": "New Haven",
    "state": "CT",
    "full_state": "Connecticut",
    "county": "New Haven"
  },
  {
    "zip_code": 6532,
    "latitude": 41.365709,
    "longitude": -72.927507,
    "city": "New Haven",
    "state": "CT",
    "full_state": "Connecticut",
    "county": "New Haven"
  },
  {
    "zip_code": 6533,
    "latitude": 41.365709,
    "longitude": -72.927507,
    "city": "New Haven",
    "state": "CT",
    "full_state": "Connecticut",
    "county": "New Haven"
  },
  {
    "zip_code": 6534,
    "latitude": 41.365709,
    "longitude": -72.927507,
    "city": "New Haven",
    "state": "CT",
    "full_state": "Connecticut",
    "county": "New Haven"
  },
  {
    "zip_code": 6535,
    "latitude": 41.365709,
    "longitude": -72.927507,
    "city": "New Haven",
    "state": "CT",
    "full_state": "Connecticut",
    "county": "New Haven"
  },
  {
    "zip_code": 6536,
    "latitude": 41.365709,
    "longitude": -72.927507,
    "city": "New Haven",
    "state": "CT",
    "full_state": "Connecticut",
    "county": "New Haven"
  },
  {
    "zip_code": 6537,
    "latitude": 41.365709,
    "longitude": -72.927507,
    "city": "New Haven",
    "state": "CT",
    "full_state": "Connecticut",
    "county": "New Haven"
  },
  {
    "zip_code": 6538,
    "latitude": 41.365709,
    "longitude": -72.927507,
    "city": "New Haven",
    "state": "CT",
    "full_state": "Connecticut",
    "county": "New Haven"
  },
  {
    "zip_code": 6540,
    "latitude": 41.299647,
    "longitude": -72.918846,
    "city": "New Haven",
    "state": "CT",
    "full_state": "Connecticut",
    "county": "New Haven"
  },
  {
    "zip_code": 6601,
    "latitude": 41.308873,
    "longitude": -73.363661,
    "city": "Bridgeport",
    "state": "CT",
    "full_state": "Connecticut",
    "county": "Fairfield"
  },
  {
    "zip_code": 6602,
    "latitude": 41.179846,
    "longitude": -73.189006,
    "city": "Bridgeport",
    "state": "CT",
    "full_state": "Connecticut",
    "county": "Fairfield"
  },
  {
    "zip_code": 6604,
    "latitude": 41.192746,
    "longitude": -73.213907,
    "city": "Bridgeport",
    "state": "CT",
    "full_state": "Connecticut",
    "county": "Fairfield"
  },
  {
    "zip_code": 6605,
    "latitude": 41.162573,
    "longitude": -73.216557,
    "city": "Bridgeport",
    "state": "CT",
    "full_state": "Connecticut",
    "county": "Fairfield"
  },
  {
    "zip_code": 6606,
    "latitude": 41.208796,
    "longitude": -73.211807,
    "city": "Bridgeport",
    "state": "CT",
    "full_state": "Connecticut",
    "county": "Fairfield"
  },
  {
    "zip_code": 6607,
    "latitude": 41.181596,
    "longitude": -73.165604,
    "city": "Bridgeport",
    "state": "CT",
    "full_state": "Connecticut",
    "county": "Fairfield"
  },
  {
    "zip_code": 6608,
    "latitude": 41.188199,
    "longitude": -73.180005,
    "city": "Bridgeport",
    "state": "CT",
    "full_state": "Connecticut",
    "county": "Fairfield"
  },
  {
    "zip_code": 6610,
    "latitude": 41.219847,
    "longitude": -73.163955,
    "city": "Bridgeport",
    "state": "CT",
    "full_state": "Connecticut",
    "county": "Fairfield"
  },
  {
    "zip_code": 6611,
    "latitude": 41.259996,
    "longitude": -73.206957,
    "city": "Trumbull",
    "state": "CT",
    "full_state": "Connecticut",
    "county": "Fairfield"
  },
  {
    "zip_code": 6612,
    "latitude": 41.273016,
    "longitude": -73.297721,
    "city": "Easton",
    "state": "CT",
    "full_state": "Connecticut",
    "county": "Fairfield"
  },
  {
    "zip_code": 6614,
    "latitude": 41.216006,
    "longitude": -73.130353,
    "city": "Stratford",
    "state": "CT",
    "full_state": "Connecticut",
    "county": "Fairfield"
  },
  {
    "zip_code": 6615,
    "latitude": 41.177046,
    "longitude": -73.133574,
    "city": "Stratford",
    "state": "CT",
    "full_state": "Connecticut",
    "county": "Fairfield"
  },
  {
    "zip_code": 6650,
    "latitude": 41.308873,
    "longitude": -73.363661,
    "city": "Bridgeport",
    "state": "CT",
    "full_state": "Connecticut",
    "county": "Fairfield"
  },
  {
    "zip_code": 6673,
    "latitude": 41.308873,
    "longitude": -73.363661,
    "city": "Bridgeport",
    "state": "CT",
    "full_state": "Connecticut",
    "county": "Fairfield"
  },
  {
    "zip_code": 6699,
    "latitude": 41.308873,
    "longitude": -73.363661,
    "city": "Bridgeport",
    "state": "CT",
    "full_state": "Connecticut",
    "county": "Fairfield"
  },
  {
    "zip_code": 6701,
    "latitude": 41.365709,
    "longitude": -72.927507,
    "city": "Waterbury",
    "state": "CT",
    "full_state": "Connecticut",
    "county": "New Haven"
  },
  {
    "zip_code": 6702,
    "latitude": 41.540696,
    "longitude": -73.071124,
    "city": "Waterbury",
    "state": "CT",
    "full_state": "Connecticut",
    "county": "New Haven"
  },
  {
    "zip_code": 6703,
    "latitude": 41.365709,
    "longitude": -72.927507,
    "city": "Waterbury",
    "state": "CT",
    "full_state": "Connecticut",
    "county": "New Haven"
  },
  {
    "zip_code": 6704,
    "latitude": 41.581797,
    "longitude": -73.034451,
    "city": "Waterbury",
    "state": "CT",
    "full_state": "Connecticut",
    "county": "New Haven"
  },
  {
    "zip_code": 6705,
    "latitude": 41.552893,
    "longitude": -72.992749,
    "city": "Waterbury",
    "state": "CT",
    "full_state": "Connecticut",
    "county": "New Haven"
  },
  {
    "zip_code": 6706,
    "latitude": 41.535346,
    "longitude": -73.026951,
    "city": "Waterbury",
    "state": "CT",
    "full_state": "Connecticut",
    "county": "New Haven"
  },
  {
    "zip_code": 6708,
    "latitude": 41.551496,
    "longitude": -73.064152,
    "city": "Waterbury",
    "state": "CT",
    "full_state": "Connecticut",
    "county": "New Haven"
  },
  {
    "zip_code": 6710,
    "latitude": 41.571496,
    "longitude": -73.044035,
    "city": "Waterbury",
    "state": "CT",
    "full_state": "Connecticut",
    "county": "New Haven"
  },
  {
    "zip_code": 6712,
    "latitude": 41.499097,
    "longitude": -72.975694,
    "city": "Prospect",
    "state": "CT",
    "full_state": "Connecticut",
    "county": "New Haven"
  },
  {
    "zip_code": 6716,
    "latitude": 41.598347,
    "longitude": -72.980578,
    "city": "Wolcott",
    "state": "CT",
    "full_state": "Connecticut",
    "county": "New Haven"
  },
  {
    "zip_code": 6720,
    "latitude": 41.365709,
    "longitude": -72.927507,
    "city": "Waterbury",
    "state": "CT",
    "full_state": "Connecticut",
    "county": "New Haven"
  },
  {
    "zip_code": 6721,
    "latitude": 41.365709,
    "longitude": -72.927507,
    "city": "Waterbury",
    "state": "CT",
    "full_state": "Connecticut",
    "county": "New Haven"
  },
  {
    "zip_code": 6722,
    "latitude": 41.365709,
    "longitude": -72.927507,
    "city": "Waterbury",
    "state": "CT",
    "full_state": "Connecticut",
    "county": "New Haven"
  },
  {
    "zip_code": 6723,
    "latitude": 41.365709,
    "longitude": -72.927507,
    "city": "Waterbury",
    "state": "CT",
    "full_state": "Connecticut",
    "county": "New Haven"
  },
  {
    "zip_code": 6724,
    "latitude": 41.365709,
    "longitude": -72.927507,
    "city": "Waterbury",
    "state": "CT",
    "full_state": "Connecticut",
    "county": "New Haven"
  },
  {
    "zip_code": 6725,
    "latitude": 41.365709,
    "longitude": -72.927507,
    "city": "Waterbury",
    "state": "CT",
    "full_state": "Connecticut",
    "county": "New Haven"
  },
  {
    "zip_code": 6726,
    "latitude": 41.365709,
    "longitude": -72.927507,
    "city": "Waterbury",
    "state": "CT",
    "full_state": "Connecticut",
    "county": "New Haven"
  },
  {
    "zip_code": 6749,
    "latitude": 41.365709,
    "longitude": -72.927507,
    "city": "Waterbury",
    "state": "CT",
    "full_state": "Connecticut",
    "county": "New Haven"
  },
  {
    "zip_code": 6750,
    "latitude": 41.714352,
    "longitude": -73.251598,
    "city": "Bantam",
    "state": "CT",
    "full_state": "Connecticut",
    "county": "Litchfield"
  },
  {
    "zip_code": 6751,
    "latitude": 41.6409,
    "longitude": -73.209685,
    "city": "Bethlehem",
    "state": "CT",
    "full_state": "Connecticut",
    "county": "Litchfield"
  },
  {
    "zip_code": 6752,
    "latitude": 41.520312,
    "longitude": -73.363875,
    "city": "Bridgewater",
    "state": "CT",
    "full_state": "Connecticut",
    "county": "Litchfield"
  },
  {
    "zip_code": 6753,
    "latitude": 41.828067,
    "longitude": -73.332345,
    "city": "Cornwall",
    "state": "CT",
    "full_state": "Connecticut",
    "county": "Litchfield"
  },
  {
    "zip_code": 6754,
    "latitude": 41.744373,
    "longitude": -73.301922,
    "city": "Cornwall Bridge",
    "state": "CT",
    "full_state": "Connecticut",
    "county": "Litchfield"
  },
  {
    "zip_code": 6755,
    "latitude": 41.634686,
    "longitude": -73.472048,
    "city": "Gaylordsville",
    "state": "CT",
    "full_state": "Connecticut",
    "county": "Litchfield"
  },
  {
    "zip_code": 6756,
    "latitude": 41.794278,
    "longitude": -73.239023,
    "city": "Goshen",
    "state": "CT",
    "full_state": "Connecticut",
    "county": "Litchfield"
  },
  {
    "zip_code": 6757,
    "latitude": 41.774725,
    "longitude": -73.401908,
    "city": "Kent",
    "state": "CT",
    "full_state": "Connecticut",
    "county": "Litchfield"
  },
  {
    "zip_code": 6758,
    "latitude": 41.739889,
    "longitude": -73.222981,
    "city": "Lakeside",
    "state": "CT",
    "full_state": "Connecticut",
    "county": "Litchfield"
  },
  {
    "zip_code": 6759,
    "latitude": 41.791598,
    "longitude": -73.229787,
    "city": "Litchfield",
    "state": "CT",
    "full_state": "Connecticut",
    "county": "Litchfield"
  },
  {
    "zip_code": 6762,
    "latitude": 41.528274,
    "longitude": -73.116458,
    "city": "Middlebury",
    "state": "CT",
    "full_state": "Connecticut",
    "county": "New Haven"
  },
  {
    "zip_code": 6763,
    "latitude": 41.689616,
    "longitude": -73.212587,
    "city": "Morris",
    "state": "CT",
    "full_state": "Connecticut",
    "county": "Litchfield"
  },
  {
    "zip_code": 6770,
    "latitude": 41.491016,
    "longitude": -73.052965,
    "city": "Naugatuck",
    "state": "CT",
    "full_state": "Connecticut",
    "county": "New Haven"
  },
  {
    "zip_code": 6776,
    "latitude": 41.658619,
    "longitude": -73.366017,
    "city": "New Milford",
    "state": "CT",
    "full_state": "Connecticut",
    "county": "Litchfield"
  },
  {
    "zip_code": 6777,
    "latitude": 41.690297,
    "longitude": -73.310346,
    "city": "New Preston Marble Dale",
    "state": "CT",
    "full_state": "Connecticut",
    "county": "Litchfield"
  },
  {
    "zip_code": 6778,
    "latitude": 41.707722,
    "longitude": -73.108997,
    "city": "Northfield",
    "state": "CT",
    "full_state": "Connecticut",
    "county": "Litchfield"
  },
  {
    "zip_code": 6779,
    "latitude": 41.604052,
    "longitude": -73.216887,
    "city": "Oakville",
    "state": "CT",
    "full_state": "Connecticut",
    "county": "Litchfield"
  },
  {
    "zip_code": 6781,
    "latitude": 41.669898,
    "longitude": -72.99145,
    "city": "Pequabuck",
    "state": "CT",
    "full_state": "Connecticut",
    "county": "Litchfield"
  },
  {
    "zip_code": 6782,
    "latitude": 41.65873,
    "longitude": -73.044364,
    "city": "Plymouth",
    "state": "CT",
    "full_state": "Connecticut",
    "county": "Litchfield"
  },
  {
    "zip_code": 6783,
    "latitude": 41.578971,
    "longitude": -73.298344,
    "city": "Roxbury",
    "state": "CT",
    "full_state": "Connecticut",
    "county": "Litchfield"
  },
  {
    "zip_code": 6784,
    "latitude": 41.525631,
    "longitude": -73.490891,
    "city": "Sherman",
    "state": "CT",
    "full_state": "Connecticut",
    "county": "Fairfield"
  },
  {
    "zip_code": 6785,
    "latitude": 41.682439,
    "longitude": -73.305256,
    "city": "South Kent",
    "state": "CT",
    "full_state": "Connecticut",
    "county": "Litchfield"
  },
  {
    "zip_code": 6786,
    "latitude": 41.66353,
    "longitude": -73.022449,
    "city": "Terryville",
    "state": "CT",
    "full_state": "Connecticut",
    "county": "Litchfield"
  },
  {
    "zip_code": 6787,
    "latitude": 41.658721,
    "longitude": -73.098657,
    "city": "Thomaston",
    "state": "CT",
    "full_state": "Connecticut",
    "county": "Litchfield"
  },
  {
    "zip_code": 6790,
    "latitude": 41.87484,
    "longitude": -73.126763,
    "city": "Torrington",
    "state": "CT",
    "full_state": "Connecticut",
    "county": "Litchfield"
  },
  {
    "zip_code": 6791,
    "latitude": 41.649639,
    "longitude": -73.176163,
    "city": "Harwinton",
    "state": "CT",
    "full_state": "Connecticut",
    "county": "Litchfield"
  },
  {
    "zip_code": 6793,
    "latitude": 41.718159,
    "longitude": -73.294187,
    "city": "Washington",
    "state": "CT",
    "full_state": "Connecticut",
    "county": "Litchfield"
  },
  {
    "zip_code": 6794,
    "latitude": 41.646347,
    "longitude": -73.316951,
    "city": "Washington Depot",
    "state": "CT",
    "full_state": "Connecticut",
    "county": "Litchfield"
  },
  {
    "zip_code": 6795,
    "latitude": 41.759427,
    "longitude": -73.162003,
    "city": "Watertown",
    "state": "CT",
    "full_state": "Connecticut",
    "county": "Litchfield"
  },
  {
    "zip_code": 6796,
    "latitude": 41.821529,
    "longitude": -73.350384,
    "city": "West Cornwall",
    "state": "CT",
    "full_state": "Connecticut",
    "county": "Litchfield"
  },
  {
    "zip_code": 6798,
    "latitude": 41.733106,
    "longitude": -73.135499,
    "city": "Woodbury",
    "state": "CT",
    "full_state": "Connecticut",
    "county": "Litchfield"
  },
  {
    "zip_code": 6801,
    "latitude": 41.381244,
    "longitude": -73.39908,
    "city": "Bethel",
    "state": "CT",
    "full_state": "Connecticut",
    "county": "Fairfield"
  },
  {
    "zip_code": 6804,
    "latitude": 41.404799,
    "longitude": -73.275562,
    "city": "Brookfield",
    "state": "CT",
    "full_state": "Connecticut",
    "county": "Fairfield"
  },
  {
    "zip_code": 6807,
    "latitude": 41.058646,
    "longitude": -73.587618,
    "city": "Cos Cob",
    "state": "CT",
    "full_state": "Connecticut",
    "county": "Fairfield"
  },
  {
    "zip_code": 6810,
    "latitude": 41.376242,
    "longitude": -73.471416,
    "city": "Danbury",
    "state": "CT",
    "full_state": "Connecticut",
    "county": "Fairfield"
  },
  {
    "zip_code": 6811,
    "latitude": 41.42333,
    "longitude": -73.478717,
    "city": "Danbury",
    "state": "CT",
    "full_state": "Connecticut",
    "county": "Fairfield"
  },
  {
    "zip_code": 6812,
    "latitude": 41.486689,
    "longitude": -73.491042,
    "city": "New Fairfield",
    "state": "CT",
    "full_state": "Connecticut",
    "county": "Fairfield"
  },
  {
    "zip_code": 6813,
    "latitude": 41.308873,
    "longitude": -73.363661,
    "city": "Danbury",
    "state": "CT",
    "full_state": "Connecticut",
    "county": "Fairfield"
  },
  {
    "zip_code": 6814,
    "latitude": 41.308873,
    "longitude": -73.363661,
    "city": "Danbury",
    "state": "CT",
    "full_state": "Connecticut",
    "county": "Fairfield"
  },
  {
    "zip_code": 6816,
    "latitude": 41.308873,
    "longitude": -73.363661,
    "city": "Danbury",
    "state": "CT",
    "full_state": "Connecticut",
    "county": "Fairfield"
  },
  {
    "zip_code": 6817,
    "latitude": 41.308873,
    "longitude": -73.363661,
    "city": "Danbury",
    "state": "CT",
    "full_state": "Connecticut",
    "county": "Fairfield"
  },
  {
    "zip_code": 6820,
    "latitude": 41.075846,
    "longitude": -73.480765,
    "city": "Darien",
    "state": "CT",
    "full_state": "Connecticut",
    "county": "Fairfield"
  },
  {
    "zip_code": 6829,
    "latitude": 41.25553,
    "longitude": -73.427915,
    "city": "Georgetown",
    "state": "CT",
    "full_state": "Connecticut",
    "county": "Fairfield"
  },
  {
    "zip_code": 6830,
    "latitude": 41.042746,
    "longitude": -73.62617,
    "city": "Greenwich",
    "state": "CT",
    "full_state": "Connecticut",
    "county": "Fairfield"
  },
  {
    "zip_code": 6831,
    "latitude": 41.079983,
    "longitude": -73.654472,
    "city": "Greenwich",
    "state": "CT",
    "full_state": "Connecticut",
    "county": "Fairfield"
  },
  {
    "zip_code": 6832,
    "latitude": 41.308873,
    "longitude": -73.363661,
    "city": "Greenwich",
    "state": "CT",
    "full_state": "Connecticut",
    "county": "Fairfield"
  },
  {
    "zip_code": 6836,
    "latitude": 41.308873,
    "longitude": -73.363661,
    "city": "Greenwich",
    "state": "CT",
    "full_state": "Connecticut",
    "county": "Fairfield"
  },
  {
    "zip_code": 6840,
    "latitude": 41.162209,
    "longitude": -73.501267,
    "city": "New Canaan",
    "state": "CT",
    "full_state": "Connecticut",
    "county": "Fairfield"
  },
  {
    "zip_code": 6842,
    "latitude": 41.147096,
    "longitude": -73.495366,
    "city": "New Canaan",
    "state": "CT",
    "full_state": "Connecticut",
    "county": "Fairfield"
  },
  {
    "zip_code": 6850,
    "latitude": 41.126146,
    "longitude": -73.442423,
    "city": "Norwalk",
    "state": "CT",
    "full_state": "Connecticut",
    "county": "Fairfield"
  },
  {
    "zip_code": 6851,
    "latitude": 41.139796,
    "longitude": -73.404963,
    "city": "Norwalk",
    "state": "CT",
    "full_state": "Connecticut",
    "county": "Fairfield"
  },
  {
    "zip_code": 6852,
    "latitude": 41.308873,
    "longitude": -73.363661,
    "city": "Norwalk",
    "state": "CT",
    "full_state": "Connecticut",
    "county": "Fairfield"
  },
  {
    "zip_code": 6853,
    "latitude": 41.070396,
    "longitude": -73.437563,
    "city": "Norwalk",
    "state": "CT",
    "full_state": "Connecticut",
    "county": "Fairfield"
  },
  {
    "zip_code": 6854,
    "latitude": 41.090946,
    "longitude": -73.432313,
    "city": "Norwalk",
    "state": "CT",
    "full_state": "Connecticut",
    "county": "Fairfield"
  },
  {
    "zip_code": 6855,
    "latitude": 41.099196,
    "longitude": -73.398362,
    "city": "Norwalk",
    "state": "CT",
    "full_state": "Connecticut",
    "county": "Fairfield"
  },
  {
    "zip_code": 6856,
    "latitude": 41.111196,
    "longitude": -73.420363,
    "city": "Norwalk",
    "state": "CT",
    "full_state": "Connecticut",
    "county": "Fairfield"
  },
  {
    "zip_code": 6857,
    "latitude": 41.308873,
    "longitude": -73.363661,
    "city": "Norwalk",
    "state": "CT",
    "full_state": "Connecticut",
    "county": "Fairfield"
  },
  {
    "zip_code": 6858,
    "latitude": 41.110496,
    "longitude": -73.416213,
    "city": "Norwalk",
    "state": "CT",
    "full_state": "Connecticut",
    "county": "Fairfield"
  },
  {
    "zip_code": 6859,
    "latitude": 41.308873,
    "longitude": -73.363661,
    "city": "Norwalk",
    "state": "CT",
    "full_state": "Connecticut",
    "county": "Fairfield"
  },
  {
    "zip_code": 6860,
    "latitude": 41.308873,
    "longitude": -73.363661,
    "city": "Norwalk",
    "state": "CT",
    "full_state": "Connecticut",
    "county": "Fairfield"
  },
  {
    "zip_code": 6870,
    "latitude": 41.034946,
    "longitude": -73.566968,
    "city": "Old Greenwich",
    "state": "CT",
    "full_state": "Connecticut",
    "county": "Fairfield"
  },
  {
    "zip_code": 6875,
    "latitude": 41.308873,
    "longitude": -73.363661,
    "city": "Redding Center",
    "state": "CT",
    "full_state": "Connecticut",
    "county": "Fairfield"
  },
  {
    "zip_code": 6876,
    "latitude": 41.032647,
    "longitude": -73.583569,
    "city": "Redding Ridge",
    "state": "CT",
    "full_state": "Connecticut",
    "county": "Fairfield"
  },
  {
    "zip_code": 6877,
    "latitude": 41.308201,
    "longitude": -73.494637,
    "city": "Ridgefield",
    "state": "CT",
    "full_state": "Connecticut",
    "county": "Fairfield"
  },
  {
    "zip_code": 6878,
    "latitude": 41.035596,
    "longitude": -73.580241,
    "city": "Riverside",
    "state": "CT",
    "full_state": "Connecticut",
    "county": "Fairfield"
  },
  {
    "zip_code": 6879,
    "latitude": 41.308873,
    "longitude": -73.363661,
    "city": "Ridgefield",
    "state": "CT",
    "full_state": "Connecticut",
    "county": "Fairfield"
  },
  {
    "zip_code": 6880,
    "latitude": 41.144496,
    "longitude": -73.343261,
    "city": "Westport",
    "state": "CT",
    "full_state": "Connecticut",
    "county": "Fairfield"
  },
  {
    "zip_code": 6881,
    "latitude": 41.308873,
    "longitude": -73.363661,
    "city": "Westport",
    "state": "CT",
    "full_state": "Connecticut",
    "county": "Fairfield"
  },
  {
    "zip_code": 6883,
    "latitude": 41.222945,
    "longitude": -73.376263,
    "city": "Weston",
    "state": "CT",
    "full_state": "Connecticut",
    "county": "Fairfield"
  },
  {
    "zip_code": 6888,
    "latitude": 41.308873,
    "longitude": -73.363661,
    "city": "Westport",
    "state": "CT",
    "full_state": "Connecticut",
    "county": "Fairfield"
  },
  {
    "zip_code": 6889,
    "latitude": 41.141005,
    "longitude": -73.34689,
    "city": "Westport",
    "state": "CT",
    "full_state": "Connecticut",
    "county": "Fairfield"
  },
  {
    "zip_code": 6896,
    "latitude": 41.271095,
    "longitude": -73.38634,
    "city": "Redding",
    "state": "CT",
    "full_state": "Connecticut",
    "county": "Fairfield"
  },
  {
    "zip_code": 6897,
    "latitude": 41.209695,
    "longitude": -73.439165,
    "city": "Wilton",
    "state": "CT",
    "full_state": "Connecticut",
    "county": "Fairfield"
  },
  {
    "zip_code": 6901,
    "latitude": 41.054082,
    "longitude": -73.536216,
    "city": "Stamford",
    "state": "CT",
    "full_state": "Connecticut",
    "county": "Fairfield"
  },
  {
    "zip_code": 6902,
    "latitude": 41.060196,
    "longitude": -73.544477,
    "city": "Stamford",
    "state": "CT",
    "full_state": "Connecticut",
    "county": "Fairfield"
  },
  {
    "zip_code": 6903,
    "latitude": 41.136773,
    "longitude": -73.565919,
    "city": "Stamford",
    "state": "CT",
    "full_state": "Connecticut",
    "county": "Fairfield"
  },
  {
    "zip_code": 6904,
    "latitude": 41.308873,
    "longitude": -73.363661,
    "city": "Stamford",
    "state": "CT",
    "full_state": "Connecticut",
    "county": "Fairfield"
  },
  {
    "zip_code": 6905,
    "latitude": 41.116751,
    "longitude": -73.552752,
    "city": "Stamford",
    "state": "CT",
    "full_state": "Connecticut",
    "county": "Fairfield"
  },
  {
    "zip_code": 6906,
    "latitude": 41.071246,
    "longitude": -73.521416,
    "city": "Stamford",
    "state": "CT",
    "full_state": "Connecticut",
    "county": "Fairfield"
  },
  {
    "zip_code": 6907,
    "latitude": 41.088346,
    "longitude": -73.537217,
    "city": "Stamford",
    "state": "CT",
    "full_state": "Connecticut",
    "county": "Fairfield"
  },
  {
    "zip_code": 6910,
    "latitude": 41.039147,
    "longitude": -73.559118,
    "city": "Stamford",
    "state": "CT",
    "full_state": "Connecticut",
    "county": "Fairfield"
  },
  {
    "zip_code": 6911,
    "latitude": 41.308873,
    "longitude": -73.363661,
    "city": "Stamford",
    "state": "CT",
    "full_state": "Connecticut",
    "county": "Fairfield"
  },
  {
    "zip_code": 6912,
    "latitude": 41.308873,
    "longitude": -73.363661,
    "city": "Stamford",
    "state": "CT",
    "full_state": "Connecticut",
    "county": "Fairfield"
  },
  {
    "zip_code": 6913,
    "latitude": 41.308873,
    "longitude": -73.363661,
    "city": "Stamford",
    "state": "CT",
    "full_state": "Connecticut",
    "county": "Fairfield"
  },
  {
    "zip_code": 6914,
    "latitude": 41.308873,
    "longitude": -73.363661,
    "city": "Stamford",
    "state": "CT",
    "full_state": "Connecticut",
    "county": "Fairfield"
  },
  {
    "zip_code": 6920,
    "latitude": 41.308873,
    "longitude": -73.363661,
    "city": "Stamford",
    "state": "CT",
    "full_state": "Connecticut",
    "county": "Fairfield"
  },
  {
    "zip_code": 6921,
    "latitude": 41.049866,
    "longitude": -73.53796,
    "city": "Stamford",
    "state": "CT",
    "full_state": "Connecticut",
    "county": "Fairfield"
  },
  {
    "zip_code": 6922,
    "latitude": 41.051551,
    "longitude": -73.514344,
    "city": "Stamford",
    "state": "CT",
    "full_state": "Connecticut",
    "county": "Fairfield"
  },
  {
    "zip_code": 6925,
    "latitude": 41.308873,
    "longitude": -73.363661,
    "city": "Stamford",
    "state": "CT",
    "full_state": "Connecticut",
    "county": "Fairfield"
  },
  {
    "zip_code": 6926,
    "latitude": 41.041197,
    "longitude": -73.538567,
    "city": "Stamford",
    "state": "CT",
    "full_state": "Connecticut",
    "county": "Fairfield"
  },
  {
    "zip_code": 6927,
    "latitude": 41.308873,
    "longitude": -73.363661,
    "city": "Stamford",
    "state": "CT",
    "full_state": "Connecticut",
    "county": "Fairfield"
  },