[
  {
    "zip_code": 54765,
    "latitude": 45.142866,
    "longitude": -91.699794,
    "city": "Sand Creek",
    "state": "WI",
    "full_state": "Wisconsin",
    "county": "Dunn"
  },
  {
    "zip_code": 54766,
    "latitude": 45.349548,
    "longitude": -90.887173,
    "city": "Sheldon",
    "state": "WI",
    "full_state": "Wisconsin",
    "county": "Rusk"
  },
  {
    "zip_code": 54767,
    "latitude": 44.781928,
    "longitude": -92.283761,
    "city": "Spring Valley",
    "state": "WI",
    "full_state": "Wisconsin",
    "county": "Pierce"
  },
  {
    "zip_code": 54768,
    "latitude": 44.993395,
    "longitude": -91.069525,
    "city": "Stanley",
    "state": "WI",
    "full_state": "Wisconsin",
    "county": "Chippewa"
  },
  {
    "zip_code": 54769,
    "latitude": 44.508365,
    "longitude": -92.232594,
    "city": "Stockholm",
    "state": "WI",
    "full_state": "Wisconsin",
    "county": "Pepin"
  },
  {
    "zip_code": 54770,
    "latitude": 44.387425,
    "longitude": -91.394415,
    "city": "Strum",
    "state": "WI",
    "full_state": "Wisconsin",
    "county": "Trempealeau"
  },
  {
    "zip_code": 54771,
    "latitude": 44.894112,
    "longitude": -90.790684,
    "city": "Thorp",
    "state": "WI",
    "full_state": "Wisconsin",
    "county": "Clark"
  },
  {
    "zip_code": 54772,
    "latitude": 45.094148,
    "longitude": -91.879257,
    "city": "Wheeler",
    "state": "WI",
    "full_state": "Wisconsin",
    "county": "Dunn"
  },
  {
    "zip_code": 54773,
    "latitude": 44.443778,
    "longitude": -91.285758,
    "city": "Whitehall",
    "state": "WI",
    "full_state": "Wisconsin",
    "county": "Trempealeau"
  },
  {
    "zip_code": 54774,
    "latitude": 45.07413,
    "longitude": -91.294397,
    "city": "Chippewa Falls",
    "state": "WI",
    "full_state": "Wisconsin",
    "county": "Chippewa"
  },
  {
    "zip_code": 54801,
    "latitude": 45.922016,
    "longitude": -91.811707,
    "city": "Spooner",
    "state": "WI",
    "full_state": "Wisconsin",
    "county": "Washburn"
  },
  {
    "zip_code": 54805,
    "latitude": 45.434373,
    "longitude": -91.965942,
    "city": "Almena",
    "state": "WI",
    "full_state": "Wisconsin",
    "county": "Barron"
  },
  {
    "zip_code": 54806,
    "latitude": 46.558577,
    "longitude": -90.738773,
    "city": "Ashland",
    "state": "WI",
    "full_state": "Wisconsin",
    "county": "Ashland"
  },
  {
    "zip_code": 54810,
    "latitude": 45.421648,
    "longitude": -92.378752,
    "city": "Balsam Lake",
    "state": "WI",
    "full_state": "Wisconsin",
    "county": "Polk"
  },
  {
    "zip_code": 54812,
    "latitude": 45.47734,
    "longitude": -91.86779,
    "city": "Barron",
    "state": "WI",
    "full_state": "Wisconsin",
    "county": "Barron"
  },
  {
    "zip_code": 54813,
    "latitude": 45.557393,
    "longitude": -92.016728,
    "city": "Barronett",
    "state": "WI",
    "full_state": "Wisconsin",
    "county": "Barron"
  },
  {
    "zip_code": 54814,
    "latitude": 46.853517,
    "longitude": -90.915934,
    "city": "Bayfield",
    "state": "WI",
    "full_state": "Wisconsin",
    "county": "Bayfield"
  },
  {
    "zip_code": 54816,
    "latitude": 46.682796,
    "longitude": -91.143254,
    "city": "Benoit",
    "state": "WI",
    "full_state": "Wisconsin",
    "county": "Bayfield"
  },
  {
    "zip_code": 54817,
    "latitude": 45.732675,
    "longitude": -91.615044,
    "city": "Birchwood",
    "state": "WI",
    "full_state": "Wisconsin",
    "county": "Washburn"
  },
  {
    "zip_code": 54818,
    "latitude": 45.423409,
    "longitude": -91.848206,
    "city": "Brill",
    "state": "WI",
    "full_state": "Wisconsin",
    "county": "Barron"
  },
  {
    "zip_code": 54819,
    "latitude": 45.469246,
    "longitude": -91.293073,
    "city": "Bruce",
    "state": "WI",
    "full_state": "Wisconsin",
    "county": "Rusk"
  },
  {
    "zip_code": 54820,
    "latitude": 46.555409,
    "longitude": -91.605419,
    "city": "Brule",
    "state": "WI",
    "full_state": "Wisconsin",
    "county": "Douglas"
  },
  {
    "zip_code": 54821,
    "latitude": 46.21018,
    "longitude": -91.189305,
    "city": "Cable",
    "state": "WI",
    "full_state": "Wisconsin",
    "county": "Bayfield"
  },
  {
    "zip_code": 54822,
    "latitude": 45.465645,
    "longitude": -91.68441,
    "city": "Cameron",
    "state": "WI",
    "full_state": "Wisconsin",
    "county": "Barron"
  },
  {
    "zip_code": 54824,
    "latitude": 45.420898,
    "longitude": -92.544088,
    "city": "Centuria",
    "state": "WI",
    "full_state": "Wisconsin",
    "county": "Polk"
  },
  {
    "zip_code": 54826,
    "latitude": 45.495679,
    "longitude": -92.037821,
    "city": "Comstock",
    "state": "WI",
    "full_state": "Wisconsin",
    "county": "Barron"
  },
  {
    "zip_code": 54827,
    "latitude": 46.834502,
    "longitude": -91.092821,
    "city": "Cornucopia",
    "state": "WI",
    "full_state": "Wisconsin",
    "county": "Bayfield"
  },
  {
    "zip_code": 54828,
    "latitude": 45.837967,
    "longitude": -91.291784,
    "city": "Couderay",
    "state": "WI",
    "full_state": "Wisconsin",
    "county": "Sawyer"
  },
  {
    "zip_code": 54829,
    "latitude": 45.42772,
    "longitude": -91.899489,
    "city": "Cumberland",
    "state": "WI",
    "full_state": "Wisconsin",
    "county": "Barron"
  },
  {
    "zip_code": 54830,
    "latitude": 45.972603,
    "longitude": -92.292996,
    "city": "Danbury",
    "state": "WI",
    "full_state": "Wisconsin",
    "county": "Burnett"
  },
  {
    "zip_code": 54832,
    "latitude": 46.682796,
    "longitude": -91.143254,
    "city": "Drummond",
    "state": "WI",
    "full_state": "Wisconsin",
    "county": "Bayfield"
  },
  {
    "zip_code": 54834,
    "latitude": 45.742371,
    "longitude": -91.476541,
    "city": "Edgewater",
    "state": "WI",
    "full_state": "Wisconsin",
    "county": "Sawyer"
  },
  {
    "zip_code": 54835,
    "latitude": 45.780382,
    "longitude": -91.224718,
    "city": "Exeland",
    "state": "WI",
    "full_state": "Wisconsin",
    "county": "Sawyer"
  },
  {
    "zip_code": 54836,
    "latitude": 46.452892,
    "longitude": -92.171445,
    "city": "Foxboro",
    "state": "WI",
    "full_state": "Wisconsin",
    "county": "Douglas"
  },
  {
    "zip_code": 54837,
    "latitude": 45.526263,
    "longitude": -92.429333,
    "city": "Frederic",
    "state": "WI",
    "full_state": "Wisconsin",
    "county": "Polk"
  },
  {
    "zip_code": 54838,
    "latitude": 46.293033,
    "longitude": -91.894633,
    "city": "Gordon",
    "state": "WI",
    "full_state": "Wisconsin",
    "county": "Douglas"
  },
  {
    "zip_code": 54839,
    "latitude": 46.682796,
    "longitude": -91.143254,
    "city": "Grand View",
    "state": "WI",
    "full_state": "Wisconsin",
    "county": "Bayfield"
  },
  {
    "zip_code": 54840,
    "latitude": 45.795342,
    "longitude": -92.693513,
    "city": "Grantsburg",
    "state": "WI",
    "full_state": "Wisconsin",
    "county": "Burnett"
  },
  {
    "zip_code": 54841,
    "latitude": 45.620445,
    "longitude": -91.801751,
    "city": "Haugen",
    "state": "WI",
    "full_state": "Wisconsin",
    "county": "Barron"
  },
  {
    "zip_code": 54842,
    "latitude": 46.514162,
    "longitude": -91.862136,
    "city": "Hawthorne",
    "state": "WI",
    "full_state": "Wisconsin",
    "county": "Douglas"
  },
  {
    "zip_code": 54843,
    "latitude": 45.955223,
    "longitude": -91.278308,
    "city": "Hayward",
    "state": "WI",
    "full_state": "Wisconsin",
    "county": "Sawyer"
  },
  {
    "zip_code": 54844,
    "latitude": 46.682796,
    "longitude": -91.143254,
    "city": "Herbster",
    "state": "WI",
    "full_state": "Wisconsin",
    "county": "Bayfield"
  },
  {
    "zip_code": 54845,
    "latitude": 45.799612,
    "longitude": -92.153743,
    "city": "Hertel",
    "state": "WI",
    "full_state": "Wisconsin",
    "county": "Burnett"
  },
  {
    "zip_code": 54846,
    "latitude": 46.376072,
    "longitude": -90.761153,
    "city": "High Bridge",
    "state": "WI",
    "full_state": "Wisconsin",
    "county": "Ashland"
  },
  {
    "zip_code": 54847,
    "latitude": 46.599552,
    "longitude": -91.437437,
    "city": "Iron River",
    "state": "WI",
    "full_state": "Wisconsin",
    "county": "Bayfield"
  },
  {
    "zip_code": 54848,
    "latitude": 45.490835,
    "longitude": -91.0943,
    "city": "Ladysmith",
    "state": "WI",
    "full_state": "Wisconsin",
    "county": "Rusk"
  },
  {
    "zip_code": 54849,
    "latitude": 46.493011,
    "longitude": -91.71342,
    "city": "Lake Nebagamon",
    "state": "WI",
    "full_state": "Wisconsin",
    "county": "Douglas"
  },
  {
    "zip_code": 54850,
    "latitude": 46.803272,
    "longitude": -90.692287,
    "city": "La Pointe",
    "state": "WI",
    "full_state": "Wisconsin",
    "county": "Ashland"
  },
  {
    "zip_code": 54851,
    "latitude": 45.468941,
    "longitude": -92.521938,
    "city": "Lewis",
    "state": "WI",
    "full_state": "Wisconsin",
    "county": "Polk"
  },
  {
    "zip_code": 54853,
    "latitude": 45.455357,
    "longitude": -92.467658,
    "city": "Luck",
    "state": "WI",
    "full_state": "Wisconsin",
    "county": "Polk"
  },
  {
    "zip_code": 54854,
    "latitude": 46.652638,
    "longitude": -91.733798,
    "city": "Maple",
    "state": "WI",
    "full_state": "Wisconsin",
    "county": "Douglas"
  },
  {
    "zip_code": 54855,
    "latitude": 46.366834,
    "longitude": -90.840821,
    "city": "Marengo",
    "state": "WI",
    "full_state": "Wisconsin",
    "county": "Ashland"
  },
  {
    "zip_code": 54856,
    "latitude": 46.362341,
    "longitude": -91.116899,
    "city": "Mason",
    "state": "WI",
    "full_state": "Wisconsin",
    "county": "Bayfield"
  },
  {
    "zip_code": 54857,
    "latitude": 45.609562,
    "longitude": -91.61965,
    "city": "Mikana",
    "state": "WI",
    "full_state": "Wisconsin",
    "county": "Barron"
  },
  {
    "zip_code": 54858,
    "latitude": 45.51583,
    "longitude": -92.461712,
    "city": "Milltown",
    "state": "WI",
    "full_state": "Wisconsin",
    "county": "Polk"
  },
  {
    "zip_code": 54859,
    "latitude": 46.09709,
    "longitude": -91.859913,
    "city": "Minong",
    "state": "WI",
    "full_state": "Wisconsin",
    "county": "Washburn"
  },
  {
    "zip_code": 54861,
    "latitude": 46.560783,
    "longitude": -90.619716,
    "city": "Odanah",
    "state": "WI",
    "full_state": "Wisconsin",
    "county": "Ashland"
  },
  {
    "zip_code": 54862,
    "latitude": 45.797008,
    "longitude": -91.127234,
    "city": "Ojibwa",
    "state": "WI",
    "full_state": "Wisconsin",
    "county": "Sawyer"
  },
  {
    "zip_code": 54864,
    "latitude": 46.594249,
    "longitude": -91.815333,
    "city": "Poplar",
    "state": "WI",
    "full_state": "Wisconsin",
    "county": "Douglas"
  },
  {
    "zip_code": 54865,
    "latitude": 46.715564,
    "longitude": -91.353195,
    "city": "Port Wing",
    "state": "WI",
    "full_state": "Wisconsin",
    "county": "Bayfield"
  },
  {
    "zip_code": 54867,
    "latitude": 45.800649,
    "longitude": -91.268979,
    "city": "Radisson",
    "state": "WI",
    "full_state": "Wisconsin",
    "county": "Sawyer"
  },
  {
    "zip_code": 54868,
    "latitude": 45.519692,
    "longitude": -91.826575,
    "city": "Rice Lake",
    "state": "WI",
    "full_state": "Wisconsin",
    "county": "Barron"
  },
  {
    "zip_code": 54870,
    "latitude": 45.73714,
    "longitude": -91.775875,
    "city": "Sarona",
    "state": "WI",
    "full_state": "Wisconsin",
    "county": "Washburn"
  },
  {
    "zip_code": 54871,
    "latitude": 45.878356,
    "longitude": -91.79215,
    "city": "Shell Lake",
    "state": "WI",
    "full_state": "Wisconsin",
    "county": "Washburn"
  },
  {
    "zip_code": 54872,
    "latitude": 45.782741,
    "longitude": -92.385751,
    "city": "Siren",
    "state": "WI",
    "full_state": "Wisconsin",
    "county": "Burnett"
  },
  {
    "zip_code": 54873,
    "latitude": 46.417261,
    "longitude": -91.810992,
    "city": "Solon Springs",
    "state": "WI",
    "full_state": "Wisconsin",
    "county": "Douglas"
  },
  {
    "zip_code": 54874,
    "latitude": 46.568809,
    "longitude": -91.935156,
    "city": "South Range",
    "state": "WI",
    "full_state": "Wisconsin",
    "county": "Douglas"
  },
  {
    "zip_code": 54875,
    "latitude": 45.945201,
    "longitude": -91.675448,
    "city": "Springbrook",
    "state": "WI",
    "full_state": "Wisconsin",
    "county": "Washburn"
  },
  {
    "zip_code": 54876,
    "latitude": 45.821216,
    "longitude": -91.462771,
    "city": "Stone Lake",
    "state": "WI",
    "full_state": "Wisconsin",
    "county": "Sawyer"
  },
  {
    "zip_code": 54880,
    "latitude": 46.574982,
    "longitude": -92.117578,
    "city": "Superior",
    "state": "WI",
    "full_state": "Wisconsin",
    "county": "Douglas"
  },
  {
    "zip_code": 54888,
    "latitude": 45.966368,
    "longitude": -91.886372,
    "city": "Trego",
    "state": "WI",
    "full_state": "Wisconsin",
    "county": "Washburn"
  },
  {
    "zip_code": 54889,
    "latitude": 45.400115,
    "longitude": -92.074695,
    "city": "Turtle Lake",
    "state": "WI",
    "full_state": "Wisconsin",
    "county": "Barron"
  },
  {
    "zip_code": 54890,
    "latitude": 46.525129,
    "longitude": -91.921631,
    "city": "Wascott",
    "state": "WI",
    "full_state": "Wisconsin",
    "county": "Douglas"
  },
  {
    "zip_code": 54891,
    "latitude": 46.697289,
    "longitude": -90.904151,
    "city": "Washburn",
    "state": "WI",
    "full_state": "Wisconsin",
    "county": "Bayfield"
  },
  {
    "zip_code": 54893,
    "latitude": 45.869606,
    "longitude": -92.30286,
    "city": "Webster",
    "state": "WI",
    "full_state": "Wisconsin",
    "county": "Burnett"
  },
  {
    "zip_code": 54895,
    "latitude": 45.40913,
    "longitude": -91.423051,
    "city": "Weyerhaeuser",
    "state": "WI",
    "full_state": "Wisconsin",
    "county": "Rusk"
  },
  {
    "zip_code": 54896,
    "latitude": 45.832746,
    "longitude": -91.014362,
    "city": "Winter",
    "state": "WI",
    "full_state": "Wisconsin",
    "county": "Sawyer"
  },
  {
    "zip_code": 54901,
    "latitude": 44.005661,
    "longitude": -88.55756,
    "city": "Oshkosh",
    "state": "WI",
    "full_state": "Wisconsin",
    "county": "Winnebago"
  },
  {
    "zip_code": 54902,
    "latitude": 43.99461,
    "longitude": -88.526025,
    "city": "Oshkosh",
    "state": "WI",
    "full_state": "Wisconsin",
    "county": "Winnebago"
  },
  {
    "zip_code": 54903,
    "latitude": 44.06858,
    "longitude": -88.644873,
    "city": "Oshkosh",
    "state": "WI",
    "full_state": "Wisconsin",
    "county": "Winnebago"
  },
  {
    "zip_code": 54904,
    "latitude": 44.062366,
    "longitude": -88.623779,
    "city": "Oshkosh",
    "state": "WI",
    "full_state": "Wisconsin",
    "county": "Winnebago"
  },
  {
    "zip_code": 54906,
    "latitude": 44.06858,
    "longitude": -88.644873,
    "city": "Oshkosh",
    "state": "WI",
    "full_state": "Wisconsin",
    "county": "Winnebago"
  },
  {
    "zip_code": 54909,
    "latitude": 44.379544,
    "longitude": -89.356552,
    "city": "Almond",
    "state": "WI",
    "full_state": "Wisconsin",
    "county": "Portage"
  },
  {
    "zip_code": 54911,
    "latitude": 44.275702,
    "longitude": -88.370856,
    "city": "Appleton",
    "state": "WI",
    "full_state": "Wisconsin",
    "county": "Outagamie"
  },
  {
    "zip_code": 54912,
    "latitude": 44.416326,
    "longitude": -88.464873,
    "city": "Appleton",
    "state": "WI",
    "full_state": "Wisconsin",
    "county": "Outagamie"
  },
  {
    "zip_code": 54913,
    "latitude": 44.345553,
    "longitude": -88.434297,
    "city": "Appleton",
    "state": "WI",
    "full_state": "Wisconsin",
    "county": "Outagamie"
  },
  {
    "zip_code": 54914,
    "latitude": 44.271285,
    "longitude": -88.486307,
    "city": "Appleton",
    "state": "WI",
    "full_state": "Wisconsin",
    "county": "Outagamie"
  },
  {
    "zip_code": 54915,
    "latitude": 44.373778,
    "longitude": -88.444396,
    "city": "Appleton",
    "state": "WI",
    "full_state": "Wisconsin",
    "county": "Outagamie"
  },
  {
    "zip_code": 54919,
    "latitude": 44.416326,
    "longitude": -88.464873,
    "city": "Appleton",
    "state": "WI",
    "full_state": "Wisconsin",
    "county": "Outagamie"
  },
  {
    "zip_code": 54921,
    "latitude": 44.341602,
    "longitude": -89.526303,
    "city": "Bancroft",
    "state": "WI",
    "full_state": "Wisconsin",
    "county": "Portage"
  },
  {
    "zip_code": 54922,
    "latitude": 44.432373,
    "longitude": -88.559628,
    "city": "Bear Creek",
    "state": "WI",
    "full_state": "Wisconsin",
    "county": "Outagamie"
  },
  {
    "zip_code": 54923,
    "latitude": 43.915726,
    "longitude": -89.027124,
    "city": "Berlin",
    "state": "WI",
    "full_state": "Wisconsin",
    "county": "Green Lake"
  },
  {
    "zip_code": 54926,
    "latitude": 44.617819,
    "longitude": -89.016622,
    "city": "Big Falls",
    "state": "WI",
    "full_state": "Wisconsin",
    "county": "Waupaca"
  },
  {
    "zip_code": 54927,
    "latitude": 44.103137,
    "longitude": -88.653949,
    "city": "Butte Des Morts",
    "state": "WI",
    "full_state": "Wisconsin",
    "county": "Winnebago"
  },
  {
    "zip_code": 54928,
    "latitude": 44.735836,
    "longitude": -88.876673,
    "city": "Caroline",
    "state": "WI",
    "full_state": "Wisconsin",
    "county": "Shawano"
  },
  {
    "zip_code": 54929,
    "latitude": 44.593386,
    "longitude": -88.868093,
    "city": "Clintonville",
    "state": "WI",
    "full_state": "Wisconsin",
    "county": "Waupaca"
  },
  {
    "zip_code": 54930,
    "latitude": 44.026085,
    "longitude": -89.486854,
    "city": "Coloma",
    "state": "WI",
    "full_state": "Wisconsin",
    "county": "Waushara"
  },
  {
    "zip_code": 54931,
    "latitude": 44.416326,
    "longitude": -88.464873,
    "city": "Dale",
    "state": "WI",
    "full_state": "Wisconsin",
    "county": "Outagamie"
  },
  {
    "zip_code": 54932,
    "latitude": 43.832253,
    "longitude": -88.582166,
    "city": "Eldorado",
    "state": "WI",
    "full_state": "Wisconsin",
    "county": "Fond Du Lac"
  },
  {
    "zip_code": 54933,
    "latitude": 44.668605,
    "longitude": -88.704318,
    "city": "Embarrass",
    "state": "WI",
    "full_state": "Wisconsin",
    "county": "Waupaca"
  },
  {
    "zip_code": 54934,
    "latitude": 44.003153,
    "longitude": -88.839692,
    "city": "Eureka",
    "state": "WI",
    "full_state": "Wisconsin",
    "county": "Winnebago"
  },
  {
    "zip_code": 54935,
    "latitude": 43.734724,
    "longitude": -88.523176,
    "city": "Fond Du Lac",
    "state": "WI",
    "full_state": "Wisconsin",
    "county": "Fond Du Lac"
  },
  {
    "zip_code": 54936,
    "latitude": 43.740559,
    "longitude": -88.522984,
    "city": "Fond Du Lac",
    "state": "WI",
    "full_state": "Wisconsin",
    "county": "Fond Du Lac"
  },
  {
    "zip_code": 54937,
    "latitude": 43.765009,
    "longitude": -88.605657,
    "city": "Fond Du Lac",
    "state": "WI",
    "full_state": "Wisconsin",
    "county": "Fond Du Lac"
  },
  {
    "zip_code": 54940,
    "latitude": 44.272779,
    "longitude": -88.833282,
    "city": "Fremont",
    "state": "WI",
    "full_state": "Wisconsin",
    "county": "Waupaca"
  },
  {
    "zip_code": 54941,
    "latitude": 43.85627,
    "longitude": -88.985883,
    "city": "Green Lake",
    "state": "WI",
    "full_state": "Wisconsin",
    "county": "Green Lake"
  },
  {
    "zip_code": 54942,
    "latitude": 44.286983,
    "longitude": -88.556406,
    "city": "Greenville",
    "state": "WI",
    "full_state": "Wisconsin",
    "county": "Outagamie"
  },
  {
    "zip_code": 54943,
    "latitude": 44.103548,
    "longitude": -89.491566,
    "city": "Hancock",
    "state": "WI",
    "full_state": "Wisconsin",
    "county": "Waushara"
  },
  {
    "zip_code": 54944,
    "latitude": 44.342058,
    "longitude": -88.588244,
    "city": "Hortonville",
    "state": "WI",
    "full_state": "Wisconsin",
    "county": "Outagamie"
  },
  {
    "zip_code": 54945,
    "latitude": 44.572209,
    "longitude": -89.071142,
    "city": "Iola",
    "state": "WI",
    "full_state": "Wisconsin",
    "county": "Waupaca"
  },
  {
    "zip_code": 54946,
    "latitude": 44.336537,
    "longitude": -89.146258,
    "city": "King",
    "state": "WI",
    "full_state": "Wisconsin",
    "county": "Waupaca"
  },
  {
    "zip_code": 54947,
    "latitude": 44.194993,
    "longitude": -88.688629,
    "city": "Larsen",
    "state": "WI",
    "full_state": "Wisconsin",
    "county": "Winnebago"
  },
  {
    "zip_code": 54948,
    "latitude": 44.781006,
    "longitude": -88.890714,
    "city": "Leopolis",
    "state": "WI",
    "full_state": "Wisconsin",
    "county": "Shawano"
  },
  {
    "zip_code": 54949,
    "latitude": 44.488057,
    "longitude": -88.926954,
    "city": "Manawa",
    "state": "WI",
    "full_state": "Wisconsin",
    "county": "Waupaca"
  },
  {
    "zip_code": 54950,
    "latitude": 44.546623,
    "longitude": -88.937717,
    "city": "Marion",
    "state": "WI",
    "full_state": "Wisconsin",
    "county": "Waupaca"
  },
  {
    "zip_code": 54951,
    "latitude": 44.416326,
    "longitude": -88.464873,
    "city": "Medina",
    "state": "WI",
    "full_state": "Wisconsin",
    "county": "Outagamie"
  },
  {
    "zip_code": 54952,
    "latitude": 44.141025,
    "longitude": -88.569088,
    "city": "Menasha",
    "state": "WI",
    "full_state": "Wisconsin",
    "county": "Winnebago"
  },
  {
    "zip_code": 54956,
    "latitude": 44.170785,
    "longitude": -88.658087,
    "city": "Neenah",
    "state": "WI",
    "full_state": "Wisconsin",
    "county": "Winnebago"
  },
  {
    "zip_code": 54957,
    "latitude": 44.198944,
    "longitude": -88.678863,
    "city": "Neenah",
    "state": "WI",
    "full_state": "Wisconsin",
    "county": "Winnebago"
  },
  {
    "zip_code": 54960,
    "latitude": 43.922097,
    "longitude": -89.310982,
    "city": "Neshkoro",
    "state": "WI",
    "full_state": "Wisconsin",
    "county": "Marquette"
  },
  {
    "zip_code": 54961,
    "latitude": 44.405595,
    "longitude": -88.859107,
    "city": "New London",
    "state": "WI",
    "full_state": "Wisconsin",
    "county": "Waupaca"
  },
  {
    "zip_code": 54962,
    "latitude": 44.426783,
    "longitude": -88.993214,
    "city": "Ogdensburg",
    "state": "WI",
    "full_state": "Wisconsin",
    "county": "Waupaca"
  },
  {
    "zip_code": 54963,
    "latitude": 44.050782,
    "longitude": -88.754887,
    "city": "Omro",
    "state": "WI",
    "full_state": "Wisconsin",
    "county": "Winnebago"
  },
  {
    "zip_code": 54964,
    "latitude": 43.956653,
    "longitude": -88.71918,
    "city": "Pickett",
    "state": "WI",
    "full_state": "Wisconsin",
    "county": "Winnebago"
  },
  {
    "zip_code": 54965,
    "latitude": 44.155967,
    "longitude": -89.02096,
    "city": "Pine River",
    "state": "WI",
    "full_state": "Wisconsin",
    "county": "Waushara"
  },
  {
    "zip_code": 54966,
    "latitude": 44.191887,
    "longitude": -89.297481,
    "city": "Plainfield",
    "state": "WI",
    "full_state": "Wisconsin",
    "county": "Waushara"
  },
  {
    "zip_code": 54967,
    "latitude": 44.134044,
    "longitude": -88.986361,
    "city": "Poy Sippi",
    "state": "WI",
    "full_state": "Wisconsin",
    "county": "Waushara"
  },
  {
    "zip_code": 54968,
    "latitude": 43.832741,
    "longitude": -89.122651,
    "city": "Princeton",
    "state": "WI",
    "full_state": "Wisconsin",
    "county": "Green Lake"
  },
  {
    "zip_code": 54969,
    "latitude": 44.269991,
    "longitude": -88.775457,
    "city": "Readfield",
    "state": "WI",
    "full_state": "Wisconsin",
    "county": "Waupaca"
  },
  {
    "zip_code": 54970,
    "latitude": 44.080217,
    "longitude": -89.217031,
    "city": "Redgranite",
    "state": "WI",
    "full_state": "Wisconsin",
    "county": "Waushara"
  },
  {
    "zip_code": 54971,
    "latitude": 43.782526,
    "longitude": -88.533445,
    "city": "Ripon",
    "state": "WI",
    "full_state": "Wisconsin",
    "county": "Fond Du Lac"
  },
  {
    "zip_code": 54974,
    "latitude": 43.775697,
    "longitude": -88.659504,
    "city": "Rosendale",
    "state": "WI",
    "full_state": "Wisconsin",
    "county": "Fond Du Lac"
  },
  {
    "zip_code": 54975,
    "latitude": 44.461926,
    "longitude": -88.915027,
    "city": "Royalton",
    "state": "WI",
    "full_state": "Wisconsin",
    "county": "Waupaca"
  },
  {
    "zip_code": 54976,
    "latitude": 44.209313,
    "longitude": -89.096856,
    "city": "Saxeville",
    "state": "WI",
    "full_state": "Wisconsin",
    "county": "Waushara"
  },
  {
    "zip_code": 54977,
    "latitude": 44.451051,
    "longitude": -89.146915,
    "city": "Scandinavia",
    "state": "WI",
    "full_state": "Wisconsin",
    "county": "Waupaca"
  },
  {
    "zip_code": 54978,
    "latitude": 44.79604,
    "longitude": -88.898362,
    "city": "Tilleda",
    "state": "WI",
    "full_state": "Wisconsin",
    "county": "Shawano"
  },
  {
    "zip_code": 54979,
    "latitude": 43.839613,
    "longitude": -88.543924,
    "city": "Van Dyne",
    "state": "WI",
    "full_state": "Wisconsin",
    "county": "Fond Du Lac"
  },
  {
    "zip_code": 54980,
    "latitude": 43.988578,
    "longitude": -88.771167,
    "city": "Waukau",
    "state": "WI",
    "full_state": "Wisconsin",
    "county": "Winnebago"
  },
  {
    "zip_code": 54981,
    "latitude": 44.429163,
    "longitude": -89.04668,
    "city": "Waupaca",
    "state": "WI",
    "full_state": "Wisconsin",
    "county": "Waupaca"
  },
  {
    "zip_code": 54982,
    "latitude": 44.075321,
    "longitude": -89.271177,
    "city": "Wautoma",
    "state": "WI",
    "full_state": "Wisconsin",
    "county": "Waushara"
  },
  {
    "zip_code": 54983,
    "latitude": 44.332498,
    "longitude": -88.922821,
    "city": "Weyauwega",
    "state": "WI",
    "full_state": "Wisconsin",
    "county": "Waupaca"
  },
  {
    "zip_code": 54984,
    "latitude": 44.168882,
    "longitude": -89.223228,
    "city": "Wild Rose",
    "state": "WI",
    "full_state": "Wisconsin",
    "county": "Waushara"
  },
  {
    "zip_code": 54985,
    "latitude": 44.070584,
    "longitude": -88.517762,
    "city": "Winnebago",
    "state": "WI",
    "full_state": "Wisconsin",
    "county": "Winnebago"
  },
  {
    "zip_code": 54986,
    "latitude": 44.124886,
    "longitude": -88.745129,
    "city": "Winneconne",
    "state": "WI",
    "full_state": "Wisconsin",
    "county": "Winnebago"
  },
  {
    "zip_code": 54990,
    "latitude": 44.461926,
    "longitude": -88.915027,
    "city": "Iola",
    "state": "WI",
    "full_state": "Wisconsin",
    "county": "Waupaca"
  },
  {
    "zip_code": 55001,
    "latitude": 44.90717,
    "longitude": -92.816193,
    "city": "Afton",
    "state": "MN",
    "full_state": "Minnesota",
    "county": "Washington"
  },
  {
    "zip_code": 55002,
    "latitude": 45.513447,
    "longitude": -92.894239,
    "city": "Almelund",
    "state": "MN",
    "full_state": "Minnesota",
    "county": "Chisago"
  },
  {
    "zip_code": 55003,
    "latitude": 45.013918,
    "longitude": -92.781055,
    "city": "Bayport",
    "state": "MN",
    "full_state": "Minnesota",
    "county": "Washington"
  },
  {
    "zip_code": 55005,
    "latitude": 45.388716,
    "longitude": -93.231538,
    "city": "Bethel",
    "state": "MN",
    "full_state": "Minnesota",
    "county": "Anoka"
  },
  {
    "zip_code": 55006,
    "latitude": 45.69146,
    "longitude": -93.278348,
    "city": "Braham",
    "state": "MN",
    "full_state": "Minnesota",
    "county": "Isanti"
  },
  {
    "zip_code": 55007,
    "latitude": 45.947444,
    "longitude": -93.073628,
    "city": "Brook Park",
    "state": "MN",
    "full_state": "Minnesota",
    "county": "Pine"
  },
  {
    "zip_code": 55008,
    "latitude": 45.602457,
    "longitude": -93.263457,
    "city": "Cambridge",
    "state": "MN",
    "full_state": "Minnesota",
    "county": "Isanti"
  },
  {
    "zip_code": 55009,
    "latitude": 44.483189,
    "longitude": -92.885609,
    "city": "Cannon Falls",
    "state": "MN",
    "full_state": "Minnesota",
    "county": "Goodhue"
  },
  {
    "zip_code": 55010,
    "latitude": 44.547215,
    "longitude": -93.153115,
    "city": "Castle Rock",
    "state": "MN",
    "full_state": "Minnesota",
    "county": "Dakota"
  },
  {
    "zip_code": 55011,
    "latitude": 45.341448,
    "longitude": -93.235026,
    "city": "Cedar",
    "state": "MN",
    "full_state": "Minnesota",
    "county": "Anoka"
  },
  {
    "zip_code": 55012,
    "latitude": 45.448211,
    "longitude": -92.789369,
    "city": "Center City",
    "state": "MN",
    "full_state": "Minnesota",
    "county": "Chisago"
  },
  {
    "zip_code": 55013,
    "latitude": 45.362621,
    "longitude": -92.902261,
    "city": "Chisago City",
    "state": "MN",
    "full_state": "Minnesota",
    "county": "Chisago"
  },
  {
    "zip_code": 55014,
    "latitude": 45.185565,
    "longitude": -93.129272,
    "city": "Circle Pines",
    "state": "MN",
    "full_state": "Minnesota",
    "county": "Anoka"
  },
  {
    "zip_code": 55016,
    "latitude": 44.818216,
    "longitude": -92.92861,
    "city": "Cottage Grove",
    "state": "MN",
    "full_state": "Minnesota",
    "county": "Washington"
  },
  {
    "zip_code": 55017,
    "latitude": 45.660954,
    "longitude": -93.430806,
    "city": "Dalbo",
    "state": "MN",
    "full_state": "Minnesota",
    "county": "Isanti"
  },
  {
    "zip_code": 55018,
    "latitude": 44.426537,
    "longitude": -92.955359,
    "city": "Dennison",
    "state": "MN",
    "full_state": "Minnesota",
    "county": "Goodhue"
  },
  {
    "zip_code": 55019,
    "latitude": 44.398613,
    "longitude": -93.194444,
    "city": "Dundas",
    "state": "MN",
    "full_state": "Minnesota",
    "county": "Rice"
  },
  {
    "zip_code": 55020,
    "latitude": 44.588963,
    "longitude": -93.369473,
    "city": "Elko",
    "state": "MN",
    "full_state": "Minnesota",
    "county": "Scott"
  },
  {
    "zip_code": 55021,
    "latitude": 44.36287,
    "longitude": -93.267456,
    "city": "Faribault",
    "state": "MN",
    "full_state": "Minnesota",
    "county": "Rice"
  },
  {
    "zip_code": 55024,
    "latitude": 44.640515,
    "longitude": -93.14196,
    "city": "Farmington",
    "state": "MN",
    "full_state": "Minnesota",
    "county": "Dakota"
  },
  {
    "zip_code": 55025,
    "latitude": 45.246466,
    "longitude": -92.949266,
    "city": "Forest Lake",
    "state": "MN",
    "full_state": "Minnesota",
    "county": "Washington"
  },
  {
    "zip_code": 55026,
    "latitude": 44.520038,
    "longitude": -92.358158,
    "city": "Frontenac",
    "state": "MN",
    "full_state": "Minnesota",
    "county": "Goodhue"
  },
  {
    "zip_code": 55027,
    "latitude": 44.427157,
    "longitude": -92.620355,
    "city": "Goodhue",
    "state": "MN",
    "full_state": "Minnesota",
    "county": "Goodhue"
  },
  {
    "zip_code": 55029,
    "latitude": 45.642235,
    "longitude": -93.201107,
    "city": "Grandy",
    "state": "MN",
    "full_state": "Minnesota",
    "county": "Isanti"
  },
  {
    "zip_code": 55030,
    "latitude": 45.856598,
    "longitude": -93.081255,
    "city": "Grasston",
    "state": "MN",
    "full_state": "Minnesota",
    "county": "Pine"
  },
  {
    "zip_code": 55031,
    "latitude": 44.608467,
    "longitude": -92.955479,
    "city": "Hampton",
    "state": "MN",
    "full_state": "Minnesota",
    "county": "Dakota"
  },
  {
    "zip_code": 55032,
    "latitude": 45.593629,
    "longitude": -92.998865,
    "city": "Harris",
    "state": "MN",
    "full_state": "Minnesota",
    "county": "Chisago"
  },
  {
    "zip_code": 55033,
    "latitude": 44.737166,
    "longitude": -93.032909,
    "city": "Hastings",
    "state": "MN",
    "full_state": "Minnesota",
    "county": "Dakota"
  },
  {
    "zip_code": 55036,
    "latitude": 45.854335,
    "longitude": -93.124235,
    "city": "Henriette",
    "state": "MN",
    "full_state": "Minnesota",
    "county": "Pine"
  },
  {
    "zip_code": 55037,
    "latitude": 46.014689,
    "longitude": -92.938103,
    "city": "Hinckley",
    "state": "MN",
    "full_state": "Minnesota",
    "county": "Pine"
  },
  {
    "zip_code": 55038,
    "latitude": 45.182366,
    "longitude": -92.945218,
    "city": "Hugo",
    "state": "MN",
    "full_state": "Minnesota",
    "county": "Washington"
  },
  {
    "zip_code": 55040,
    "latitude": 45.565289,
    "longitude": -93.287101,
    "city": "Isanti",
    "state": "MN",
    "full_state": "Minnesota",
    "county": "Isanti"
  },
  {
    "zip_code": 55041,
    "latitude": 44.421753,
    "longitude": -92.232221,
    "city": "Lake City",
    "state": "MN",
    "full_state": "Minnesota",
    "county": "Wabasha"
  },
  {
    "zip_code": 55042,
    "latitude": 44.992866,
    "longitude": -92.898177,
    "city": "Lake Elmo",
    "state": "MN",
    "full_state": "Minnesota",
    "county": "Washington"
  },
  {
    "zip_code": 55043,
    "latitude": 44.940859,
    "longitude": -92.789447,
    "city": "Lakeland",
    "state": "MN",
    "full_state": "Minnesota",
    "county": "Washington"
  },
  {
    "zip_code": 55044,
    "latitude": 44.633421,
    "longitude": -93.25812,
    "city": "Lakeville",
    "state": "MN",
    "full_state": "Minnesota",
    "county": "Dakota"
  },
  {
    "zip_code": 55045,
    "latitude": 45.404477,
    "longitude": -92.823088,
    "city": "Lindstrom",
    "state": "MN",
    "full_state": "Minnesota",
    "county": "Chisago"
  },
  {
    "zip_code": 55046,
    "latitude": 44.447704,
    "longitude": -93.425156,
    "city": "Lonsdale",
    "state": "MN",
    "full_state": "Minnesota",
    "county": "Rice"
  },
  {
    "zip_code": 55047,
    "latitude": 45.198774,
    "longitude": -92.825767,
    "city": "Marine On Saint Croix",
    "state": "MN",
    "full_state": "Minnesota",
    "county": "Washington"
  },
  {
    "zip_code": 55049,
    "latitude": 44.160283,
    "longitude": -93.246471,
    "city": "Medford",
    "state": "MN",
    "full_state": "Minnesota",
    "county": "Steele"
  },
  {
    "zip_code": 55051,
    "latitude": 45.918782,
    "longitude": -93.297792,
    "city": "Mora",
    "state": "MN",
    "full_state": "Minnesota",
    "county": "Kanabec"
  },
  {
    "zip_code": 55052,
    "latitude": 44.328365,
    "longitude": -93.342652,
    "city": "Morristown",
    "state": "MN",
    "full_state": "Minnesota",
    "county": "Rice"
  },
  {
    "zip_code": 55053,
    "latitude": 44.32738,
    "longitude": -93.242155,
    "city": "Nerstrand",
    "state": "MN",
    "full_state": "Minnesota",
    "county": "Rice"
  },
  {
    "zip_code": 55054,
    "latitude": 44.571056,
    "longitude": -93.354267,
    "city": "New Market",
    "state": "MN",
    "full_state": "Minnesota",
    "county": "Scott"
  },
  {
    "zip_code": 55055,
    "latitude": 44.872395,
    "longitude": -92.993263,
    "city": "Newport",
    "state": "MN",
    "full_state": "Minnesota",
    "county": "Washington"
  },
  {
    "zip_code": 55056,
    "latitude": 45.556522,
    "longitude": -92.885433,
    "city": "North Branch",
    "state": "MN",
    "full_state": "Minnesota",
    "county": "Chisago"
  },
  {
    "zip_code": 55057,
    "latitude": 44.376816,
    "longitude": -93.241838,
    "city": "Northfield",
    "state": "MN",
    "full_state": "Minnesota",
    "county": "Rice"
  },
  {
    "zip_code": 55060,
    "latitude": 44.047613,
    "longitude": -93.223724,
    "city": "Owatonna",
    "state": "MN",
    "full_state": "Minnesota",
    "county": "Steele"
  },
  {
    "zip_code": 55063,
    "latitude": 45.949599,
    "longitude": -92.892997,
    "city": "Pine City",
    "state": "MN",
    "full_state": "Minnesota",
    "county": "Pine"
  },
  {
    "zip_code": 55065,
    "latitude": 44.545066,
    "longitude": -93.02496,
    "city": "Randolph",
    "state": "MN",
    "full_state": "Minnesota",
    "county": "Dakota"
  },
  {
    "zip_code": 55066,
    "latitude": 44.521909,
    "longitude": -92.537774,
    "city": "Red Wing",
    "state": "MN",
    "full_state": "Minnesota",
    "county": "Goodhue"
  },
  {
    "zip_code": 55067,
    "latitude": 46.074687,
    "longitude": -92.718004,
    "city": "Rock Creek",
    "state": "MN",
    "full_state": "Minnesota",
    "county": "Pine"
  },
  {
    "zip_code": 55068,
    "latitude": 44.661216,
    "longitude": -93.076163,
    "city": "Rosemount",
    "state": "MN",
    "full_state": "Minnesota",
    "county": "Dakota"
  },
  {
    "zip_code": 55069,
    "latitude": 45.67987,
    "longitude": -92.978158,
    "city": "Rush City",
    "state": "MN",
    "full_state": "Minnesota",
    "county": "Chisago"
  },
  {
    "zip_code": 55070,
    "latitude": 45.393554,
    "longitude": -93.357614,
    "city": "Saint Francis",
    "state": "MN",
    "full_state": "Minnesota",
    "county": "Anoka"
  },
  {
    "zip_code": 55071,
    "latitude": 44.822826,
    "longitude": -92.989204,
    "city": "Saint Paul Park",
    "state": "MN",
    "full_state": "Minnesota",
    "county": "Washington"
  },
  {
    "zip_code": 55072,
    "latitude": 46.132453,
    "longitude": -92.588959,
    "city": "Sandstone",
    "state": "MN",
    "full_state": "Minnesota",
    "county": "Pine"
  },
  {
    "zip_code": 55073,
    "latitude": 45.253166,
    "longitude": -92.837344,
    "city": "Scandia",
    "state": "MN",
    "full_state": "Minnesota",
    "county": "Washington"
  },
  {
    "zip_code": 55074,
    "latitude": 45.382835,
    "longitude": -92.726135,
    "city": "Shafer",
    "state": "MN",
    "full_state": "Minnesota",
    "county": "Chisago"
  },
  {
    "zip_code": 55075,
    "latitude": 44.890315,
    "longitude": -93.049879,
    "city": "South Saint Paul",
    "state": "MN",
    "full_state": "Minnesota",
    "county": "Dakota"
  },
  {
    "zip_code": 55076,
    "latitude": 44.828816,
    "longitude": -93.039064,
    "city": "Inver Grove Heights",
    "state": "MN",
    "full_state": "Minnesota",
    "county": "Dakota"
  },
  {
    "zip_code": 55077,
    "latitude": 44.828265,
    "longitude": -93.093969,
    "city": "Inver Grove Heights",
    "state": "MN",
    "full_state": "Minnesota",
    "county": "Dakota"
  },
  {
    "zip_code": 55078,
    "latitude": 45.513447,
    "longitude": -92.894239,
    "city": "Stacy",
    "state": "MN",
    "full_state": "Minnesota",
    "county": "Chisago"
  },
  {
    "zip_code": 55079,
    "latitude": 45.405278,
    "longitude": -92.969118,
    "city": "Stacy",
    "state": "MN",
    "full_state": "Minnesota",
    "county": "Chisago"
  },
  {
    "zip_code": 55080,
    "latitude": 45.651313,
    "longitude": -93.275622,
    "city": "Stanchfield",
    "state": "MN",
    "full_state": "Minnesota",
    "county": "Isanti"
  },
  {
    "zip_code": 55082,
    "latitude": 45.061416,
    "longitude": -92.84736,
    "city": "Stillwater",
    "state": "MN",
    "full_state": "Minnesota",
    "county": "Washington"
  },
  {
    "zip_code": 55083,
    "latitude": 45.021016,
    "longitude": -92.983726,
    "city": "Stillwater",
    "state": "MN",
    "full_state": "Minnesota",
    "county": "Washington"
  },
  {
    "zip_code": 55084,
    "latitude": 45.457557,
    "longitude": -92.733042,
    "city": "Taylors Falls",
    "state": "MN",
    "full_state": "Minnesota",
    "county": "Chisago"
  },
  {
    "zip_code": 55085,
    "latitude": 44.674799,
    "longitude": -92.968309,
    "city": "Vermillion",
    "state": "MN",
    "full_state": "Minnesota",
    "county": "Dakota"
  },
  {
    "zip_code": 55087,
    "latitude": 44.239946,
    "longitude": -93.397354,
    "city": "Warsaw",
    "state": "MN",
    "full_state": "Minnesota",
    "county": "Rice"
  },
  {
    "zip_code": 55088,
    "latitude": 44.500341,
    "longitude": -93.382574,
    "city": "Webster",
    "state": "MN",
    "full_state": "Minnesota",
    "county": "Rice"
  },
  {
    "zip_code": 55089,
    "latitude": 44.575372,
    "longitude": -92.704731,
    "city": "Welch",
    "state": "MN",
    "full_state": "Minnesota",
    "county": "Goodhue"
  },
  {
    "zip_code": 55090,
    "latitude": 45.053466,
    "longitude": -92.957034,
    "city": "Willernie",
    "state": "MN",
    "full_state": "Minnesota",
    "county": "Washington"
  },
  {
    "zip_code": 55092,
    "latitude": 45.336417,
    "longitude": -92.967517,
    "city": "Wyoming",
    "state": "MN",
    "full_state": "Minnesota",
    "county": "Chisago"
  },
  {
    "zip_code": 55101,
    "latitude": 44.967965,
    "longitude": -93.092168,
    "city": "Saint Paul",
    "state": "MN",
    "full_state": "Minnesota",
    "county": "Ramsey"
  },
  {
    "zip_code": 55102,
    "latitude": 44.932929,
    "longitude": -93.118968,
    "city": "Saint Paul",
    "state": "MN",
    "full_state": "Minnesota",
    "county": "Ramsey"
  },
  {
    "zip_code": 55103,
    "latitude": 44.967215,
    "longitude": -93.125319,
    "city": "Saint Paul",
    "state": "MN",
    "full_state": "Minnesota",
    "county": "Ramsey"
  },
  {
    "zip_code": 55104,
    "latitude": 44.955615,
    "longitude": -93.16702,
    "city": "Saint Paul",
    "state": "MN",
    "full_state": "Minnesota",
    "county": "Ramsey"
  },
  {
    "zip_code": 55105,
    "latitude": 44.934515,
    "longitude": -93.16097,
    "city": "Saint Paul",
    "state": "MN",
    "full_state": "Minnesota",
    "county": "Ramsey"
  },
  {
    "zip_code": 55106,
    "latitude": 44.957065,
    "longitude": -93.041616,
    "city": "Saint Paul",
    "state": "MN",
    "full_state": "Minnesota",
    "county": "Ramsey"
  },
  {
    "zip_code": 55107,
    "latitude": 44.932465,
    "longitude": -93.087967,
    "city": "Saint Paul",
    "state": "MN",
    "full_state": "Minnesota",
    "county": "Ramsey"
  },
  {
    "zip_code": 55108,
    "latitude": 44.980614,
    "longitude": -93.177122,
    "city": "Saint Paul",
    "state": "MN",
    "full_state": "Minnesota",
    "county": "Ramsey"
  },
  {
    "zip_code": 55109,
    "latitude": 45.013234,
    "longitude": -93.029667,
    "city": "Saint Paul",
    "state": "MN",
    "full_state": "Minnesota",
    "county": "Ramsey"
  },
  {
    "zip_code": 55110,
    "latitude": 45.079965,
    "longitude": -93.022317,
    "city": "Saint Paul",
    "state": "MN",
    "full_state": "Minnesota",
    "county": "Ramsey"
  },
  {
    "zip_code": 55111,
    "latitude": 44.882838,
    "longitude": -93.200671,
    "city": "Saint Paul",
    "state": "MN",
    "full_state": "Minnesota",
    "county": "Hennepin"
  },
  {
    "zip_code": 55112,
    "latitude": 45.078815,
    "longitude": -93.187223,
    "city": "Saint Paul",
    "state": "MN",
    "full_state": "Minnesota",
    "county": "Ramsey"
  },
  {
    "zip_code": 55113,
    "latitude": 45.013895,
    "longitude": -93.157071,
    "city": "Saint Paul",
    "state": "MN",
    "full_state": "Minnesota",
    "county": "Ramsey"
  },
  {
    "zip_code": 55114,
    "latitude": 44.964115,
    "longitude": -93.194872,
    "city": "Saint Paul",
    "state": "MN",
    "full_state": "Minnesota",
    "county": "Ramsey"
  },
  {
    "zip_code": 55115,
    "latitude": 45.070951,
    "longitude": -92.939113,
    "city": "Saint Paul",
    "state": "MN",
    "full_state": "Minnesota",
    "county": "Washington"
  },
  {
    "zip_code": 55116,
    "latitude": 44.911215,
    "longitude": -93.165356,
    "city": "Saint Paul",
    "state": "MN",
    "full_state": "Minnesota",
    "county": "Ramsey"
  },
  {
    "zip_code": 55117,
    "latitude": 45.002115,
    "longitude": -93.106269,
    "city": "Saint Paul",
    "state": "MN",
    "full_state": "Minnesota",
    "county": "Ramsey"
  },
  {
    "zip_code": 55118,
    "latitude": 44.856615,
    "longitude": -93.113028,
    "city": "Saint Paul",
    "state": "MN",
    "full_state": "Minnesota",
    "county": "Dakota"
  },
  {
    "zip_code": 55119,
    "latitude": 44.941415,
    "longitude": -93.010714,
    "city": "Saint Paul",
    "state": "MN",
    "full_state": "Minnesota",
    "county": "Ramsey"
  },
  {
    "zip_code": 55120,
    "latitude": 44.870365,
    "longitude": -93.143369,
    "city": "Saint Paul",
    "state": "MN",
    "full_state": "Minnesota",
    "county": "Dakota"
  },
  {
    "zip_code": 55121,
    "latitude": 44.822093,
    "longitude": -93.15908,
    "city": "Saint Paul",
    "state": "MN",
    "full_state": "Minnesota",
    "county": "Dakota"
  },
  {
    "zip_code": 55122,
    "latitude": 44.786018,
    "longitude": -93.220205,
    "city": "Saint Paul",
    "state": "MN",
    "full_state": "Minnesota",
    "county": "Dakota"
  },
  {
    "zip_code": 55123,
    "latitude": 44.805989,
    "longitude": -93.140878,
    "city": "Saint Paul",
    "state": "MN",
    "full_state": "Minnesota",
    "county": "Dakota"
  },
  {
    "zip_code": 55124,
    "latitude": 44.749701,
    "longitude": -93.202881,
    "city": "Saint Paul",
    "state": "MN",
    "full_state": "Minnesota",
    "county": "Dakota"
  },
  {
    "zip_code": 55125,
    "latitude": 44.919716,
    "longitude": -92.943876,
    "city": "Saint Paul",
    "state": "MN",
    "full_state": "Minnesota",
    "county": "Washington"
  },
  {
    "zip_code": 55126,
    "latitude": 45.073561,
    "longitude": -93.138022,
    "city": "Saint Paul",
    "state": "MN",
    "full_state": "Minnesota",
    "county": "Ramsey"
  },
  {
    "zip_code": 55127,
    "latitude": 45.080265,
    "longitude": -93.08752,
    "city": "Saint Paul",
    "state": "MN",
    "full_state": "Minnesota",
    "county": "Ramsey"
  },
  {
    "zip_code": 55128,
    "latitude": 44.991316,
    "longitude": -92.948738,
    "city": "Saint Paul",
    "state": "MN",
    "full_state": "Minnesota",
    "county": "Washington"
  },
  {
    "zip_code": 55129,
    "latitude": 44.898516,
    "longitude": -92.92301,
    "city": "Saint Paul",
    "state": "MN",
    "full_state": "Minnesota",
    "county": "Washington"
  },
  {
    "zip_code": 55133,
    "latitude": 45.005902,
    "longitude": -93.105869,
    "city": "Saint Paul",
    "state": "MN",
    "full_state": "Minnesota",
    "county": "Ramsey"
  },
  {
    "zip_code": 55144,
    "latitude": 45.005902,
    "longitude": -93.105869,
    "city": "Saint Paul",
    "state": "MN",
    "full_state": "Minnesota",
    "county": "Ramsey"
  },
  {
    "zip_code": 55145,
    "latitude": 45.005902,
    "longitude": -93.105869,
    "city": "Saint Paul",
    "state": "MN",
    "full_state": "Minnesota",
    "county": "Ramsey"
  },
  {
    "zip_code": 55146,
    "latitude": 44.942656,
    "longitude": -93.082793,
    "city": "Saint Paul",
    "state": "MN",
    "full_state": "Minnesota",
    "county": "Ramsey"
  },
  {
    "zip_code": 55150,
    "latitude": 44.886554,
    "longitude": -93.161258,
    "city": "Mendota",
    "state": "MN",
    "full_state": "Minnesota",
    "county": "Dakota"
  },
  {
    "zip_code": 55155,
    "latitude": 44.952165,
    "longitude": -93.095518,
    "city": "Saint Paul",
    "state": "MN",
    "full_state": "Minnesota",
    "county": "Ramsey"
  },
  {
    "zip_code": 55161,
    "latitude": 45.005902,
    "longitude": -93.105869,
    "city": "Saint Paul",
    "state": "MN",
    "full_state": "Minnesota",
    "county": "Ramsey"
  },
  {
    "zip_code": 55164,
    "latitude": 44.990915,
    "longitude": -93.106593,
    "city": "Saint Paul",
    "state": "MN",
    "full_state": "Minnesota",
    "county": "Ramsey"
  },
  {
    "zip_code": 55165,
    "latitude": 45.005902,
    "longitude": -93.105869,
    "city": "Saint Paul",
    "state": "MN",
    "full_state": "Minnesota",
    "county": "Ramsey"
  },
  {
    "zip_code": 55166,
    "latitude": 45.005902,
    "longitude": -93.105869,
    "city": "Saint Paul",
    "state": "MN",
    "full_state": "Minnesota",
    "county": "Ramsey"
  },
  {
    "zip_code": 55168,
    "latitude": 45.005902,
    "longitude": -93.105869,
    "city": "Saint Paul",
    "state": "MN",
    "full_state": "Minnesota",
    "county": "Ramsey"
  },
  {
    "zip_code": 55169,
    "latitude": 45.005902,
    "longitude": -93.105869,
    "city": "Saint Paul",
    "state": "MN",
    "full_state": "Minnesota",
    "county": "Ramsey"
  },
  {
    "zip_code": 55170,
    "latitude": 45.005902,
    "longitude": -93.105869,
    "city": "Saint Paul",
    "state": "MN",
    "full_state": "Minnesota",
    "county": "Ramsey"
  },
  {
    "zip_code": 55171,
    "latitude": 45.005902,
    "longitude": -93.105869,
    "city": "Saint Paul",
    "state": "MN",
    "full_state": "Minnesota",
    "county": "Ramsey"
  },
  {
    "zip_code": 55172,
    "latitude": 45.005902,
    "longitude": -93.105869,
    "city": "Saint Paul",
    "state": "MN",
    "full_state": "Minnesota",
    "county": "Ramsey"
  },
  {
    "zip_code": 55175,
    "latitude": 45.005902,
    "longitude": -93.105869,
    "city": "Saint Paul",
    "state": "MN",
    "full_state": "Minnesota",
    "county": "Ramsey"
  },
  {
    "zip_code": 55177,
    "latitude": 45.005902,
    "longitude": -93.105869,
    "city": "Saint Paul",
    "state": "MN",
    "full_state": "Minnesota",
    "county": "Ramsey"
  },
  {
    "zip_code": 55182,
    "latitude": 45.005902,
    "longitude": -93.105869,
    "city": "Saint Paul",
    "state": "MN",
    "full_state": "Minnesota",
    "county": "Ramsey"
  },
  {
    "zip_code": 55187,
    "latitude": 45.005902,
    "longitude": -93.105869,
    "city": "Saint Paul",
    "state": "MN",
    "full_state": "Minnesota",
    "county": "Ramsey"
  },
  {
    "zip_code": 55188,
    "latitude": 45.005902,
    "longitude": -93.105869,
    "city": "Saint Paul",
    "state": "MN",
    "full_state": "Minnesota",
    "county": "Ramsey"
  },
  {
    "zip_code": 55190,
    "latitude": 45.005902,
    "longitude": -93.105869,
    "city": "Saint Paul",
    "state": "MN",
    "full_state": "Minnesota",
    "county": "Ramsey"
  },
  {
    "zip_code": 55191,
    "latitude": 45.005902,
    "longitude": -93.105869,
    "city": "Saint Paul",
    "state": "MN",
    "full_state": "Minnesota",
    "county": "Ramsey"
  },
  {
    "zip_code": 55301,
    "latitude": 45.258673,
    "longitude": -93.664342,
    "city": "Albertville",
    "state": "MN",
    "full_state": "Minnesota",
    "county": "Wright"
  },
  {
    "zip_code": 55302,
    "latitude": 45.218652,
    "longitude": -94.105948,
    "city": "Annandale",
    "state": "MN",
    "full_state": "Minnesota",
    "county": "Wright"
  },
  {
    "zip_code": 55303,
    "latitude": 45.282482,
    "longitude": -93.418574,
    "city": "Anoka",
    "state": "MN",
    "full_state": "Minnesota",
    "county": "Anoka"
  },
  {
    "zip_code": 55304,
    "latitude": 45.237661,
    "longitude": -93.272428,
    "city": "Andover",
    "state": "MN",
    "full_state": "Minnesota",
    "county": "Anoka"
  },
  {
    "zip_code": 55305,
    "latitude": 44.952763,
    "longitude": -93.43723,
    "city": "Hopkins",
    "state": "MN",
    "full_state": "Minnesota",
    "county": "Hennepin"
  },
  {
    "zip_code": 55306,
    "latitude": 44.762208,
    "longitude": -93.221535,
    "city": "Burnsville",
    "state": "MN",
    "full_state": "Minnesota",
    "county": "Dakota"
  },
  {
    "zip_code": 55307,
    "latitude": 44.597449,
    "longitude": -94.105481,
    "city": "Arlington",
    "state": "MN",
    "full_state": "Minnesota",
    "county": "Sibley"
  },
  {
    "zip_code": 55308,
    "latitude": 45.451864,
    "longitude": -93.842187,
    "city": "Becker",
    "state": "MN",
    "full_state": "Minnesota",
    "county": "Sherburne"
  },
  {
    "zip_code": 55309,
    "latitude": 45.367294,
    "longitude": -93.686916,
    "city": "Big Lake",
    "state": "MN",
    "full_state": "Minnesota",
    "county": "Sherburne"
  },
  {
    "zip_code": 55310,
    "latitude": 44.753182,
    "longitude": -94.848215,
    "city": "Bird Island",
    "state": "MN",
    "full_state": "Minnesota",
    "county": "Renville"
  },
  {
    "zip_code": 55311,
    "latitude": 45.124263,
    "longitude": -93.499583,
    "city": "Osseo",
    "state": "MN",
    "full_state": "Minnesota",
    "county": "Hennepin"
  },
  {
    "zip_code": 55312,
    "latitude": 44.758102,
    "longitude": -94.251718,
    "city": "Brownton",
    "state": "MN",
    "full_state": "Minnesota",
    "county": "Mcleod"
  },
  {
    "zip_code": 55313,
    "latitude": 45.180732,
    "longitude": -93.927556,
    "city": "Buffalo",
    "state": "MN",
    "full_state": "Minnesota",
    "county": "Wright"
  },
  {
    "zip_code": 55314,
    "latitude": 44.71031,
    "longitude": -94.752767,
    "city": "Buffalo Lake",
    "state": "MN",
    "full_state": "Minnesota",
    "county": "Renville"
  },
  {
    "zip_code": 55315,
    "latitude": 44.723162,
    "longitude": -93.701637,
    "city": "Carver",
    "state": "MN",
    "full_state": "Minnesota",
    "county": "Carver"
  },
  {
    "zip_code": 55316,
    "latitude": 45.176914,
    "longitude": -93.397481,
    "city": "Champlin",
    "state": "MN",
    "full_state": "Minnesota",
    "county": "Hennepin"
  },
  {
    "zip_code": 55317,
    "latitude": 44.853364,
    "longitude": -93.572584,
    "city": "Chanhassen",
    "state": "MN",
    "full_state": "Minnesota",
    "county": "Carver"
  },
  {
    "zip_code": 55318,
    "latitude": 44.810062,
    "longitude": -93.653336,
    "city": "Chaska",
    "state": "MN",
    "full_state": "Minnesota",
    "county": "Carver"
  },
  {
    "zip_code": 55319,
    "latitude": 45.466197,
    "longitude": -93.952504,
    "city": "Clear Lake",
    "state": "MN",
    "full_state": "Minnesota",
    "county": "Sherburne"
  },
  {
    "zip_code": 55320,
    "latitude": 45.226627,
    "longitude": -93.92441,
    "city": "Clearwater",
    "state": "MN",
    "full_state": "Minnesota",
    "county": "Wright"
  },
  {
    "zip_code": 55321,
    "latitude": 45.086044,
    "longitude": -94.185096,
    "city": "Cokato",
    "state": "MN",
    "full_state": "Minnesota",
    "county": "Wright"
  },
  {
    "zip_code": 55322,
    "latitude": 44.768262,
    "longitude": -93.787041,
    "city": "Cologne",
    "state": "MN",
    "full_state": "Minnesota",
    "county": "Carver"
  },
  {
    "zip_code": 55323,
    "latitude": 45.015914,
    "longitude": -93.47188,
    "city": "Crystal Bay",
    "state": "MN",
    "full_state": "Minnesota",
    "county": "Hennepin"
  },
  {
    "zip_code": 55324,
    "latitude": 45.070558,
    "longitude": -94.420292,
    "city": "Darwin",
    "state": "MN",
    "full_state": "Minnesota",
    "county": "Meeker"
  },
  {
    "zip_code": 55325,
    "latitude": 45.102011,
    "longitude": -94.368691,
    "city": "Dassel",
    "state": "MN",
    "full_state": "Minnesota",
    "county": "Meeker"
  },
  {
    "zip_code": 55327,
    "latitude": 45.201514,
    "longitude": -93.482833,
    "city": "Dayton",
    "state": "MN",
    "full_state": "Minnesota",
    "county": "Hennepin"
  },
  {
    "zip_code": 55328,
    "latitude": 45.041472,
    "longitude": -93.97792,
    "city": "Delano",
    "state": "MN",
    "full_state": "Minnesota",
    "county": "Wright"
  },
  {
    "zip_code": 55329,
    "latitude": 45.282592,
    "longitude": -94.524712,
    "city": "Eden Valley",
    "state": "MN",
    "full_state": "Minnesota",
    "county": "Meeker"
  },
  {
    "zip_code": 55330,
    "latitude": 45.403289,
    "longitude": -93.644522,
    "city": "Elk River",
    "state": "MN",
    "full_state": "Minnesota",
    "county": "Sherburne"
  },
  {
    "zip_code": 55331,
    "latitude": 44.912712,
    "longitude": -93.623186,
    "city": "Excelsior",
    "state": "MN",
    "full_state": "Minnesota",
    "county": "Hennepin"
  },
  {
    "zip_code": 55332,
    "latitude": 44.595338,
    "longitude": -94.726284,
    "city": "Fairfax",
    "state": "MN",
    "full_state": "Minnesota",
    "county": "Renville"
  },
  {
    "zip_code": 55333,
    "latitude": 44.564953,
    "longitude": -94.891273,
    "city": "Franklin",
    "state": "MN",
    "full_state": "Minnesota",
    "county": "Renville"
  },
  {
    "zip_code": 55334,
    "latitude": 44.572583,
    "longitude": -94.191699,
    "city": "Gaylord",
    "state": "MN",
    "full_state": "Minnesota",
    "county": "Sibley"
  },
  {
    "zip_code": 55335,
    "latitude": 44.55017,
    "longitude": -94.543258,
    "city": "Gibbon",
    "state": "MN",
    "full_state": "Minnesota",
    "county": "Sibley"
  },
  {
    "zip_code": 55336,
    "latitude": 44.770238,
    "longitude": -94.195685,
    "city": "Glencoe",
    "state": "MN",
    "full_state": "Minnesota",
    "county": "Mcleod"
  },
  {
    "zip_code": 55337,
    "latitude": 44.771547,
    "longitude": -93.226258,
    "city": "Burnsville",
    "state": "MN",
    "full_state": "Minnesota",
    "county": "Dakota"
  },
  {
    "zip_code": 55338,
    "latitude": 44.63575,
    "longitude": -94.057781,
    "city": "Green Isle",
    "state": "MN",
    "full_state": "Minnesota",
    "county": "Sibley"
  },
  {
    "zip_code": 55339,
    "latitude": 44.785812,
    "longitude": -93.837873,
    "city": "Hamburg",
    "state": "MN",
    "full_state": "Minnesota",
    "county": "Carver"
  },
  {
    "zip_code": 55340,
    "latitude": 45.073663,
    "longitude": -93.568735,
    "city": "Hamel",
    "state": "MN",
    "full_state": "Minnesota",
    "county": "Hennepin"
  },
  {
    "zip_code": 55341,
    "latitude": 45.160196,
    "longitude": -93.673418,
    "city": "Hanover",
    "state": "MN",
    "full_state": "Minnesota",
    "county": "Wright"
  },
  {
    "zip_code": 55342,
    "latitude": 44.70976,
    "longitude": -94.756704,
    "city": "Hector",
    "state": "MN",
    "full_state": "Minnesota",
    "county": "Renville"
  },
  {
    "zip_code": 55343,
    "latitude": 44.913969,
    "longitude": -93.44813,
    "city": "Hopkins",
    "state": "MN",
    "full_state": "Minnesota",
    "county": "Hennepin"
  },
  {
    "zip_code": 55344,
    "latitude": 44.850563,
    "longitude": -93.440429,
    "city": "Eden Prairie",
    "state": "MN",
    "full_state": "Minnesota",
    "county": "Hennepin"
  },
  {
    "zip_code": 55345,
    "latitude": 44.916963,
    "longitude": -93.481749,
    "city": "Minnetonka",
    "state": "MN",
    "full_state": "Minnesota",
    "county": "Hennepin"
  },
  {
    "zip_code": 55346,
    "latitude": 44.875463,
    "longitude": -93.47808,
    "city": "Eden Prairie",
    "state": "MN",
    "full_state": "Minnesota",
    "county": "Hennepin"
  },
  {
    "zip_code": 55347,
    "latitude": 44.841713,
    "longitude": -93.459829,
    "city": "Eden Prairie",
    "state": "MN",
    "full_state": "Minnesota",
    "county": "Hennepin"
  },
  {
    "zip_code": 55348,
    "latitude": 44.848263,
    "longitude": -93.398727,
    "city": "Maple Plain",
    "state": "MN",
    "full_state": "Minnesota",
    "county": "Hennepin"
  },
  {
    "zip_code": 55349,
    "latitude": 45.101679,
    "longitude": -94.047497,
    "city": "Howard Lake",
    "state": "MN",
    "full_state": "Minnesota",
    "county": "Wright"
  },
  {
    "zip_code": 55350,
    "latitude": 44.875565,
    "longitude": -94.266332,
    "city": "Hutchinson",
    "state": "MN",
    "full_state": "Minnesota",
    "county": "Mcleod"
  },
  {
    "zip_code": 55352,
    "latitude": 44.658362,
    "longitude": -93.601183,
    "city": "Jordan",
    "state": "MN",
    "full_state": "Minnesota",
    "county": "Scott"
  },
  {
    "zip_code": 55353,
    "latitude": 45.36261,
    "longitude": -94.309928,
    "city": "Kimball",
    "state": "MN",
    "full_state": "Minnesota",
    "county": "Stearns"
  },
  {
    "zip_code": 55354,
    "latitude": 44.880454,
    "longitude": -94.100616,
    "city": "Lester Prairie",
    "state": "MN",
    "full_state": "Minnesota",
    "county": "Mcleod"
  },
  {
    "zip_code": 55355,
    "latitude": 45.122737,
    "longitude": -94.529861,
    "city": "Litchfield",
    "state": "MN",
    "full_state": "Minnesota",
    "county": "Meeker"
  },
  {
    "zip_code": 55356,
    "latitude": 44.995129,
    "longitude": -93.593836,
    "city": "Long Lake",
    "state": "MN",
    "full_state": "Minnesota",
    "county": "Hennepin"
  },
  {
    "zip_code": 55357,
    "latitude": 45.100098,
    "longitude": -93.657256,
    "city": "Loretto",
    "state": "MN",
    "full_state": "Minnesota",
    "county": "Hennepin"
  },
  {
    "zip_code": 55358,
    "latitude": 45.214072,
    "longitude": -94.060149,
    "city": "Maple Lake",
    "state": "MN",
    "full_state": "Minnesota",
    "county": "Wright"
  },
  {
    "zip_code": 55359,
    "latitude": 44.983312,
    "longitude": -93.689162,
    "city": "Maple Plain",
    "state": "MN",
    "full_state": "Minnesota",
    "county": "Hennepin"
  },
  {
    "zip_code": 55360,
    "latitude": 44.905962,
    "longitude": -93.913561,
    "city": "Mayer",
    "state": "MN",
    "full_state": "Minnesota",
    "county": "Carver"
  },
  {
    "zip_code": 55361,
    "latitude": 44.940212,
    "longitude": -93.592735,
    "city": "Minnetonka Beach",
    "state": "MN",
    "full_state": "Minnesota",
    "county": "Hennepin"
  },
  {
    "zip_code": 55362,
    "latitude": 45.249636,
    "longitude": -93.851533,
    "city": "Monticello",
    "state": "MN",
    "full_state": "Minnesota",
    "county": "Wright"
  },
  {
    "zip_code": 55363,
    "latitude": 45.048202,
    "longitude": -94.056543,
    "city": "Montrose",
    "state": "MN",
    "full_state": "Minnesota",
    "county": "Wright"
  },
  {
    "zip_code": 55364,
    "latitude": 44.935062,
    "longitude": -93.662938,
    "city": "Mound",
    "state": "MN",
    "full_state": "Minnesota",
    "county": "Hennepin"
  },
  {
    "zip_code": 55365,
    "latitude": 45.200875,
    "longitude": -93.888099,
    "city": "Monticello",
    "state": "MN",
    "full_state": "Minnesota",
    "county": "Wright"
  },
  {
    "zip_code": 55366,
    "latitude": 44.673454,
    "longitude": -94.229311,
    "city": "New Auburn",
    "state": "MN",
    "full_state": "Minnesota",
    "county": "Sibley"
  },
  {
    "zip_code": 55367,
    "latitude": 44.899612,
    "longitude": -93.970832,
    "city": "New Germany",
    "state": "MN",
    "full_state": "Minnesota",
    "county": "Carver"
  },
  {
    "zip_code": 55368,
    "latitude": 44.738862,
    "longitude": -93.89995,
    "city": "Norwood",
    "state": "MN",
    "full_state": "Minnesota",
    "county": "Carver"
  },
  {
    "zip_code": 55369,
    "latitude": 45.128414,
    "longitude": -93.458932,
    "city": "Osseo",
    "state": "MN",
    "full_state": "Minnesota",
    "county": "Hennepin"
  },
  {
    "zip_code": 55370,
    "latitude": 44.839939,
    "longitude": -94.050518,
    "city": "Plato",
    "state": "MN",
    "full_state": "Minnesota",
    "county": "Mcleod"
  },
  {
    "zip_code": 55371,
    "latitude": 45.740703,
    "longitude": -93.63663,
    "city": "Princeton",
    "state": "MN",
    "full_state": "Minnesota",
    "county": "Mille Lacs"
  },
  {
    "zip_code": 55372,
    "latitude": 44.682763,
    "longitude": -93.464428,
    "city": "Prior Lake",
    "state": "MN",
    "full_state": "Minnesota",
    "county": "Scott"
  },
  {
    "zip_code": 55373,
    "latitude": 45.155019,
    "longitude": -93.865168,
    "city": "Rockford",
    "state": "MN",
    "full_state": "Minnesota",
    "county": "Wright"
  },
  {
    "zip_code": 55374,
    "latitude": 45.168896,
    "longitude": -93.574586,
    "city": "Rogers",
    "state": "MN",
    "full_state": "Minnesota",
    "county": "Hennepin"
  },
  {
    "zip_code": 55375,
    "latitude": 44.904062,
    "longitude": -93.74904,
    "city": "Saint Bonifacius",
    "state": "MN",
    "full_state": "Minnesota",
    "county": "Hennepin"
  },
  {
    "zip_code": 55376,
    "latitude": 45.16826,
    "longitude": -93.893628,
    "city": "Saint Michael",
    "state": "MN",
    "full_state": "Minnesota",
    "county": "Wright"
  },
  {
    "zip_code": 55377,
    "latitude": 45.540181,
    "longitude": -93.815434,
    "city": "Santiago",
    "state": "MN",
    "full_state": "Minnesota",
    "county": "Sherburne"
  },
  {
    "zip_code": 55378,
    "latitude": 44.751113,
    "longitude": -93.367975,
    "city": "Savage",
    "state": "MN",
    "full_state": "Minnesota",
    "county": "Scott"
  },
  {
    "zip_code": 55379,
    "latitude": 44.731113,
    "longitude": -93.474144,
    "city": "Shakopee",
    "state": "MN",
    "full_state": "Minnesota",
    "county": "Scott"
  },
  {
    "zip_code": 55380,
    "latitude": 45.315823,
    "longitude": -93.979766,
    "city": "Silver Creek",
    "state": "MN",
    "full_state": "Minnesota",
    "county": "Wright"
  },
  {
    "zip_code": 55381,
    "latitude": 44.921134,
    "longitude": -94.195425,
    "city": "Silver Lake",
    "state": "MN",
    "full_state": "Minnesota",
    "county": "Mcleod"
  },
  {
    "zip_code": 55382,
    "latitude": 45.265248,
    "longitude": -94.165984,
    "city": "South Haven",
    "state": "MN",
    "full_state": "Minnesota",
    "county": "Wright"
  },
  {
    "zip_code": 55383,
    "latitude": 44.805487,
    "longitude": -93.766524,
    "city": "Norwood",
    "state": "MN",
    "full_state": "Minnesota",
    "county": "Carver"
  },
  {
    "zip_code": 55384,
    "latitude": 44.936862,
    "longitude": -93.630286,
    "city": "Spring Park",
    "state": "MN",
    "full_state": "Minnesota",
    "county": "Hennepin"
  },
  {
    "zip_code": 55385,
    "latitude": 44.766671,
    "longitude": -94.344376,
    "city": "Stewart",
    "state": "MN",
    "full_state": "Minnesota",
    "county": "Mcleod"
  },
  {
    "zip_code": 55386,
    "latitude": 44.846645,
    "longitude": -93.661737,
    "city": "Victoria",
    "state": "MN",
    "full_state": "Minnesota",
    "county": "Carver"
  },
  {
    "zip_code": 55387,
    "latitude": 44.844847,
    "longitude": -93.746148,
    "city": "Waconia",
    "state": "MN",
    "full_state": "Minnesota",
    "county": "Carver"
  },
  {
    "zip_code": 55388,
    "latitude": 44.924416,
    "longitude": -93.853894,
    "city": "Watertown",
    "state": "MN",
    "full_state": "Minnesota",
    "county": "Carver"
  },
  {
    "zip_code": 55389,
    "latitude": 45.268619,
    "longitude": -94.444561,
    "city": "Watkins",
    "state": "MN",
    "full_state": "Minnesota",
    "county": "Meeker"
  },
  {
    "zip_code": 55390,
    "latitude": 45.060676,
    "longitude": -93.974555,
    "city": "Waverly",
    "state": "MN",
    "full_state": "Minnesota",
    "county": "Wright"
  },
  {
    "zip_code": 55391,
    "latitude": 44.984663,
    "longitude": -93.542233,
    "city": "Wayzata",
    "state": "MN",
    "full_state": "Minnesota",
    "county": "Hennepin"
  },
  {
    "zip_code": 55392,
    "latitude": 45.015914,
    "longitude": -93.47188,
    "city": "Navarre",
    "state": "MN",
    "full_state": "Minnesota",
    "county": "Hennepin"
  },
  {
    "zip_code": 55393,
    "latitude": 45.200875,
    "longitude": -93.888099,
    "city": "Maple Plain",
    "state": "MN",
    "full_state": "Minnesota",
    "county": "Wright"
  },
  {
    "zip_code": 55394,
    "latitude": 44.805487,
    "longitude": -93.766524,
    "city": "Young America",
    "state": "MN",
    "full_state": "Minnesota",
    "county": "Carver"
  },
  {
    "zip_code": 55395,
    "latitude": 44.946121,
    "longitude": -94.07572,
    "city": "Winsted",
    "state": "MN",
    "full_state": "Minnesota",
    "county": "Mcleod"
  },
  {
    "zip_code": 55396,
    "latitude": 44.550833,
    "longitude": -94.347525,
    "city": "Winthrop",
    "state": "MN",
    "full_state": "Minnesota",
    "county": "Sibley"
  },
  {
    "zip_code": 55397,
    "latitude": 44.800912,
    "longitude": -93.919675,
    "city": "Young America",
    "state": "MN",
    "full_state": "Minnesota",
    "county": "Carver"
  },
  {
    "zip_code": 55398,
    "latitude": 45.467503,
    "longitude": -93.602475,
    "city": "Zimmerman",
    "state": "MN",
    "full_state": "Minnesota",
    "county": "Sherburne"
  },
  {
    "zip_code": 55399,
    "latitude": 44.805487,
    "longitude": -93.766524,
    "city": "Young America",
    "state": "MN",
    "full_state": "Minnesota",
    "county": "Carver"
  },
  {
    "zip_code": 55401,
    "latitude": 44.979265,
    "longitude": -93.273024,
    "city": "Minneapolis",
    "state": "MN",
    "full_state": "Minnesota",
    "county": "Hennepin"
  },
  {
    "zip_code": 55402,
    "latitude": 44.975915,
    "longitude": -93.271825,
    "city": "Minneapolis",
    "state": "MN",
    "full_state": "Minnesota",
    "county": "Hennepin"
  },
  {
    "zip_code": 55403,
    "latitude": 44.972615,
    "longitude": -93.287275,
    "city": "Minneapolis",
    "state": "MN",
    "full_state": "Minnesota",
    "county": "Hennepin"
  },
  {
    "zip_code": 55404,
    "latitude": 44.948614,
    "longitude": -93.329926,
    "city": "Minneapolis",
    "state": "MN",
    "full_state": "Minnesota",
    "county": "Hennepin"
  },
  {
    "zip_code": 55405,
    "latitude": 44.970114,
    "longitude": -93.300275,
    "city": "Minneapolis",
    "state": "MN",
    "full_state": "Minnesota",
    "county": "Hennepin"
  },
  {
    "zip_code": 55406,
    "latitude": 44.976015,
    "longitude": -93.278975,
    "city": "Minneapolis",
    "state": "MN",
    "full_state": "Minnesota",
    "county": "Hennepin"
  },
  {
    "zip_code": 55407,
    "latitude": 44.935465,
    "longitude": -93.254023,
    "city": "Minneapolis",
    "state": "MN",
    "full_state": "Minnesota",
    "county": "Hennepin"
  },
  {
    "zip_code": 55408,
    "latitude": 44.947515,
    "longitude": -93.288975,
    "city": "Minneapolis",
    "state": "MN",
    "full_state": "Minnesota",
    "county": "Hennepin"
  },
  {
    "zip_code": 55409,
    "latitude": 44.925014,
    "longitude": -93.289224,
    "city": "Minneapolis",
    "state": "MN",
    "full_state": "Minnesota",
    "county": "Hennepin"
  },
  {
    "zip_code": 55410,
    "latitude": 44.912364,
    "longitude": -93.318825,
    "city": "Minneapolis",
    "state": "MN",
    "full_state": "Minnesota",
    "county": "Hennepin"
  },
  {
    "zip_code": 55411,
    "latitude": 44.999514,
    "longitude": -93.297393,
    "city": "Minneapolis",
    "state": "MN",
    "full_state": "Minnesota",
    "county": "Hennepin"
  },
  {
    "zip_code": 55412,
    "latitude": 45.025115,
    "longitude": -93.298876,
    "city": "Minneapolis",
    "state": "MN",
    "full_state": "Minnesota",
    "county": "Hennepin"
  },
  {
    "zip_code": 55413,
    "latitude": 44.994365,
    "longitude": -93.240774,
    "city": "Minneapolis",
    "state": "MN",
    "full_state": "Minnesota",
    "county": "Hennepin"
  },
  {
    "zip_code": 55414,
    "latitude": 44.974515,
    "longitude": -93.234173,
    "city": "Minneapolis",
    "state": "MN",
    "full_state": "Minnesota",
    "county": "Hennepin"
  },
  {
    "zip_code": 55415,
    "latitude": 44.974215,
    "longitude": -93.258474,
    "city": "Minneapolis",
    "state": "MN",
    "full_state": "Minnesota",
    "county": "Hennepin"
  },
  {
    "zip_code": 55416,
    "latitude": 44.949714,
    "longitude": -93.337326,
    "city": "Minneapolis",
    "state": "MN",
    "full_state": "Minnesota",
    "county": "Hennepin"
  },
  {
    "zip_code": 55417,
    "latitude": 44.962965,
    "longitude": -93.253624,
    "city": "Minneapolis",
    "state": "MN",
    "full_state": "Minnesota",
    "county": "Hennepin"
  },
  {
    "zip_code": 55418,
    "latitude": 45.017765,
    "longitude": -93.244524,
    "city": "Minneapolis",
    "state": "MN",
    "full_state": "Minnesota",
    "county": "Hennepin"
  },
  {
    "zip_code": 55419,
    "latitude": 44.890914,
    "longitude": -93.282724,
    "city": "Minneapolis",
    "state": "MN",
    "full_state": "Minnesota",
    "county": "Hennepin"
  },
  {
    "zip_code": 55420,
    "latitude": 44.835164,
    "longitude": -93.255222,
    "city": "Minneapolis",
    "state": "MN",
    "full_state": "Minnesota",
    "county": "Hennepin"
  },
  {
    "zip_code": 55421,
    "latitude": 45.052315,
    "longitude": -93.254075,
    "city": "Minneapolis",
    "state": "MN",
    "full_state": "Minnesota",
    "county": "Anoka"
  },
  {
    "zip_code": 55422,
    "latitude": 45.009601,
    "longitude": -93.342428,
    "city": "Minneapolis",
    "state": "MN",
    "full_state": "Minnesota",
    "county": "Hennepin"
  },
  {
    "zip_code": 55423,
    "latitude": 44.875614,
    "longitude": -93.255272,
    "city": "Minneapolis",
    "state": "MN",
    "full_state": "Minnesota",
    "county": "Hennepin"
  },
  {
    "zip_code": 55424,
    "latitude": 44.905164,
    "longitude": -93.340326,
    "city": "Minneapolis",
    "state": "MN",
    "full_state": "Minnesota",
    "county": "Hennepin"
  },
  {
    "zip_code": 55425,
    "latitude": 44.842664,
    "longitude": -93.236286,
    "city": "Minneapolis",
    "state": "MN",
    "full_state": "Minnesota",
    "county": "Hennepin"
  },
  {
    "zip_code": 55426,
    "latitude": 44.955014,
    "longitude": -93.382928,
    "city": "Minneapolis",
    "state": "MN",
    "full_state": "Minnesota",
    "county": "Hennepin"
  },
  {
    "zip_code": 55427,
    "latitude": 44.999964,
    "longitude": -93.390979,
    "city": "Minneapolis",
    "state": "MN",
    "full_state": "Minnesota",
    "county": "Hennepin"
  },
  {
    "zip_code": 55428,
    "latitude": 44.981413,
    "longitude": -93.372979,
    "city": "Minneapolis",
    "state": "MN",
    "full_state": "Minnesota",
    "county": "Hennepin"
  },
  {
    "zip_code": 55429,
    "latitude": 44.975664,
    "longitude": -93.336926,
    "city": "Minneapolis",
    "state": "MN",
    "full_state": "Minnesota",
    "county": "Hennepin"
  },
  {
    "zip_code": 55430,
    "latitude": 45.063923,
    "longitude": -93.302227,
    "city": "Minneapolis",
    "state": "MN",
    "full_state": "Minnesota",
    "county": "Hennepin"
  },
  {
    "zip_code": 55431,
    "latitude": 44.828764,
    "longitude": -93.311823,
    "city": "Minneapolis",
    "state": "MN",
    "full_state": "Minnesota",
    "county": "Hennepin"
  },
  {
    "zip_code": 55432,
    "latitude": 45.094965,
    "longitude": -93.23957,
    "city": "Minneapolis",
    "state": "MN",
    "full_state": "Minnesota",
    "county": "Anoka"
  },
  {
    "zip_code": 55433,
    "latitude": 45.164263,
    "longitude": -93.319278,
    "city": "Minneapolis",
    "state": "MN",
    "full_state": "Minnesota",
    "county": "Anoka"
  },
  {
    "zip_code": 55434,
    "latitude": 45.170399,
    "longitude": -93.226925,
    "city": "Minneapolis",
    "state": "MN",
    "full_state": "Minnesota",
    "county": "Anoka"
  },
  {
    "zip_code": 55435,
    "latitude": 44.932864,
    "longitude": -93.367327,
    "city": "Minneapolis",
    "state": "MN",
    "full_state": "Minnesota",
    "county": "Hennepin"
  },
  {
    "zip_code": 55436,
    "latitude": 44.901163,
    "longitude": -93.42267,
    "city": "Minneapolis",
    "state": "MN",
    "full_state": "Minnesota",
    "county": "Hennepin"
  },
  {
    "zip_code": 55437,
    "latitude": 44.826064,
    "longitude": -93.353791,
    "city": "Minneapolis",
    "state": "MN",
    "full_state": "Minnesota",
    "county": "Hennepin"
  },
  {
    "zip_code": 55438,
    "latitude": 44.826613,
    "longitude": -93.375027,
    "city": "Minneapolis",
    "state": "MN",
    "full_state": "Minnesota",
    "county": "Hennepin"
  },
  {
    "zip_code": 55439,
    "latitude": 44.874414,
    "longitude": -93.375277,
    "city": "Minneapolis",
    "state": "MN",
    "full_state": "Minnesota",
    "county": "Hennepin"
  },
  {
    "zip_code": 55440,
    "latitude": 45.015914,
    "longitude": -93.47188,
    "city": "Minneapolis",
    "state": "MN",
    "full_state": "Minnesota",
    "county": "Hennepin"
  },
  {
    "zip_code": 55441,
    "latitude": 45.005804,
    "longitude": -93.419323,
    "city": "Minneapolis",
    "state": "MN",
    "full_state": "Minnesota",
    "county": "Hennepin"
  },
  {
    "zip_code": 55442,
    "latitude": 45.04674,
    "longitude": -93.431047,
    "city": "Minneapolis",
    "state": "MN",
    "full_state": "Minnesota",
    "county": "Hennepin"
  },
  {
    "zip_code": 55443,
    "latitude": 45.119364,
    "longitude": -93.34312,
    "city": "Minneapolis",
    "state": "MN",
    "full_state": "Minnesota",
    "county": "Hennepin"
  },
  {
    "zip_code": 55444,
    "latitude": 45.117765,
    "longitude": -93.305378,
    "city": "Minneapolis",
    "state": "MN",
    "full_state": "Minnesota",
    "county": "Hennepin"
  },
  {
    "zip_code": 55445,
    "latitude": 45.123064,
    "longitude": -93.352439,
    "city": "Minneapolis",
    "state": "MN",
    "full_state": "Minnesota",
    "county": "Hennepin"
  },
  {
    "zip_code": 55446,
    "latitude": 45.040013,
    "longitude": -93.486482,
    "city": "Minneapolis",
    "state": "MN",
    "full_state": "Minnesota",
    "county": "Hennepin"
  },
  {
    "zip_code": 55447,
    "latitude": 45.003335,
    "longitude": -93.487482,
    "city": "Minneapolis",
    "state": "MN",
    "full_state": "Minnesota",
    "county": "Hennepin"
  },
  {
    "zip_code": 55448,
    "latitude": 45.174056,
    "longitude": -93.313274,
    "city": "Minneapolis",
    "state": "MN",
    "full_state": "Minnesota",
    "county": "Anoka"
  },
  {
    "zip_code": 55449,
    "latitude": 45.169739,
    "longitude": -93.188924,
    "city": "Minneapolis",
    "state": "MN",
    "full_state": "Minnesota",
    "county": "Anoka"
  },
  {
    "zip_code": 55450,
    "latitude": 44.881113,
    "longitude": -93.220658,
    "city": "Minneapolis",
    "state": "MN",
    "full_state": "Minnesota",
    "county": "Hennepin"
  },
  {
    "zip_code": 55454,
    "latitude": 44.980859,
    "longitude": -93.252524,
    "city": "Minneapolis",
    "state": "MN",
    "full_state": "Minnesota",
    "county": "Hennepin"
  },
  {
    "zip_code": 55455,
    "latitude": 45.038364,
    "longitude": -93.298376,
    "city": "Minneapolis",
    "state": "MN",
    "full_state": "Minnesota",
    "county": "Hennepin"
  },
  {
    "zip_code": 55458,
    "latitude": 45.015914,
    "longitude": -93.47188,
    "city": "Minneapolis",
    "state": "MN",
    "full_state": "Minnesota",
    "county": "Hennepin"
  },
  {
    "zip_code": 55459,
    "latitude": 45.015914,
    "longitude": -93.47188,
    "city": "Minneapolis",
    "state": "MN",
    "full_state": "Minnesota",
    "county": "Hennepin"
  },
  {
    "zip_code": 55460,
    "latitude": 45.015914,
    "longitude": -93.47188,
    "city": "Minneapolis",
    "state": "MN",
    "full_state": "Minnesota",
    "county": "Hennepin"
  },
  {
    "zip_code": 55468,
    "latitude": 45.015914,
    "longitude": -93.47188,
    "city": "Minneapolis",
    "state": "MN",
    "full_state": "Minnesota",
    "county": "Hennepin"
  },
  {
    "zip_code": 55470,
    "latitude": 45.015914,
    "longitude": -93.47188,
    "city": "Minneapolis",
    "state": "MN",
    "full_state": "Minnesota",
    "county": "Hennepin"
  },
  {
    "zip_code": 55472,
    "latitude": 45.015914,
    "longitude": -93.47188,
    "city": "Minneapolis",
    "state": "MN",
    "full_state": "Minnesota",
    "county": "Hennepin"
  },
  {
    "zip_code": 55473,
    "latitude": 44.805487,
    "longitude": -93.766524,
    "city": "Minneapolis",
    "state": "MN",
    "full_state": "Minnesota",
    "county": "Carver"
  },
  {
    "zip_code": 55474,
    "latitude": 45.015914,
    "longitude": -93.47188,
    "city": "Minneapolis",
    "state": "MN",
    "full_state": "Minnesota",
    "county": "Hennepin"
  },
  {
    "zip_code": 55478,
    "latitude": 45.015914,
    "longitude": -93.47188,
    "city": "Minneapolis",
    "state": "MN",
    "full_state": "Minnesota",
    "county": "Hennepin"
  },
  {
    "zip_code": 55479,
    "latitude": 45.015914,
    "longitude": -93.47188,
    "city": "Minneapolis",
    "state": "MN",
    "full_state": "Minnesota",
    "county": "Hennepin"
  },
  {
    "zip_code": 55480,
    "latitude": 45.015914,
    "longitude": -93.47188,
    "city": "Minneapolis",
    "state": "MN",
    "full_state": "Minnesota",
    "county": "Hennepin"
  },
  {
    "zip_code": 55483,
    "latitude": 45.015914,
    "longitude": -93.47188,
    "city": "Minneapolis",
    "state": "MN",
    "full_state": "Minnesota",
    "county": "Hennepin"
  },
  {
    "zip_code": 55484,
    "latitude": 45.015914,
    "longitude": -93.47188,
    "city": "Minneapolis",
    "state": "MN",
    "full_state": "Minnesota",
    "county": "Hennepin"
  },
  {
    "zip_code": 55485,
    "latitude": 45.015914,
    "longitude": -93.47188,
    "city": "Minneapolis",
    "state": "MN",
    "full_state": "Minnesota",
    "county": "Hennepin"
  },
  {
    "zip_code": 55486,
    "latitude": 45.015914,
    "longitude": -93.47188,
    "city": "Minneapolis",
    "state": "MN",
    "full_state": "Minnesota",
    "county": "Hennepin"
  },
  {
    "zip_code": 55487,
    "latitude": 45.015914,
    "longitude": -93.47188,
    "city": "Minneapolis",
    "state": "MN",
    "full_state": "Minnesota",
    "county": "Hennepin"
  },
  {
    "zip_code": 55488,
    "latitude": 45.015914,
    "longitude": -93.47188,
    "city": "Minneapolis",
    "state": "MN",
    "full_state": "Minnesota",
    "county": "Hennepin"
  },
  {
    "zip_code": 55550,
    "latitude": 44.805487,
    "longitude": -93.766524,
    "city": "Young America",
    "state": "MN",
    "full_state": "Minnesota",
    "county": "Carver"
  },
  {
    "zip_code": 55551,
    "latitude": 44.805487,
    "longitude": -93.766524,
    "city": "Young America",
    "state": "MN",
    "full_state": "Minnesota",
    "county": "Carver"
  },
  {
    "zip_code": 55552,
    "latitude": 44.805487,
    "longitude": -93.766524,
    "city": "Young America",
    "state": "MN",
    "full_state": "Minnesota",
    "county": "Carver"
  },
  {
    "zip_code": 55553,
    "latitude": 44.805487,
    "longitude": -93.766524,
    "city": "Young America",
    "state": "MN",
    "full_state": "Minnesota",
    "county": "Carver"
  },
  {
    "zip_code": 55554,
    "latitude": 44.805487,
    "longitude": -93.766524,
    "city": "Norwood",
    "state": "MN",
    "full_state": "Minnesota",
    "county": "Carver"
  },
  {
    "zip_code": 55555,
    "latitude": 44.805487,
    "longitude": -93.766524,
    "city": "Young America",
    "state": "MN",
    "full_state": "Minnesota",
    "county": "Carver"
  },
  {
    "zip_code": 55556,
    "latitude": 44.805487,
    "longitude": -93.766524,
    "city": "Young America",
    "state": "MN",
    "full_state": "Minnesota",
    "county": "Carver"
  },
  {
    "zip_code": 55557,
    "latitude": 44.805487,
    "longitude": -93.766524,
    "city": "Young America",
    "state": "MN",
    "full_state": "Minnesota",
    "county": "Carver"
  },
  {
    "zip_code": 55558,
    "latitude": 44.805487,
    "longitude": -93.766524,
    "city": "Young America",
    "state": "MN",
    "full_state": "Minnesota",
    "county": "Carver"
  },
  {
    "zip_code": 55559,
    "latitude": 44.805487,
    "longitude": -93.766524,
    "city": "Young America",
    "state": "MN",
    "full_state": "Minnesota",
    "county": "Carver"
  },
  {
    "zip_code": 55560,
    "latitude": 44.805487,
    "longitude": -93.766524,
    "city": "Young America",
    "state": "MN",
    "full_state": "Minnesota",
    "county": "Carver"
  },
  {
    "zip_code": 55561,
    "latitude": 44.805487,
    "longitude": -93.766524,
    "city": "Monticello",
    "state": "MN",
    "full_state": "Minnesota",
    "county": "Carver"
  },
  {
    "zip_code": 55562,
    "latitude": 44.805487,
    "longitude": -93.766524,
    "city": "Young America",
    "state": "MN",
    "full_state": "Minnesota",
    "county": "Carver"
  },
  {
    "zip_code": 55563,
    "latitude": 44.805487,
    "longitude": -93.766524,
    "city": "Monticello",
    "state": "MN",
    "full_state": "Minnesota",
    "county": "Carver"
  },
  {
    "zip_code": 55564,
    "latitude": 44.805487,
    "longitude": -93.766524,
    "city": "Young America",
    "state": "MN",
    "full_state": "Minnesota",
    "county": "Carver"
  },
  {
    "zip_code": 55565,
    "latitude": 45.200875,
    "longitude": -93.888099,
    "city": "Monticello",
    "state": "MN",
    "full_state": "Minnesota",
    "county": "Wright"
  },
  {
    "zip_code": 55566,
    "latitude": 44.805487,
    "longitude": -93.766524,
    "city": "Young America",
    "state": "MN",
    "full_state": "Minnesota",
    "county": "Carver"
  },
  {
    "zip_code": 55567,
    "latitude": 44.805487,
    "longitude": -93.766524,
    "city": "Young America",
    "state": "MN",
    "full_state": "Minnesota",
    "county": "Carver"
  },
  {
    "zip_code": 55568,
    "latitude": 44.805487,
    "longitude": -93.766524,
    "city": "Young America",
    "state": "MN",
    "full_state": "Minnesota",
    "county": "Carver"
  },
  {
    "zip_code": 55569,
    "latitude": 45.015914,
    "longitude": -93.47188,
    "city": "Osseo",
    "state": "MN",
    "full_state": "Minnesota",
    "county": "Hennepin"
  },
  {
    "zip_code": 55570,
    "latitude": 45.015914,
    "longitude": -93.47188,
    "city": "Maple Plain",
    "state": "MN",
    "full_state": "Minnesota",
    "county": "Hennepin"
  },
  {
    "zip_code": 55571,
    "latitude": 45.015914,
    "longitude": -93.47188,
    "city": "Maple Plain",
    "state": "MN",
    "full_state": "Minnesota",
    "county": "Hennepin"
  },
  {
    "zip_code": 55572,
    "latitude": 45.015914,
    "longitude": -93.47188,
    "city": "Maple Plain",
    "state": "MN",
    "full_state": "Minnesota",
    "county": "Hennepin"
  },
  {
    "zip_code": 55573,
    "latitude": 45.015914,
    "longitude": -93.47188,
    "city": "Young America",
    "state": "MN",
    "full_state": "Minnesota",
    "county": "Hennepin"
  },
  {
    "zip_code": 55574,
    "latitude": 45.015914,
    "longitude": -93.47188,
    "city": "Maple Plain",
    "state": "MN",
    "full_state": "Minnesota",
    "county": "Hennepin"
  },
  {
    "zip_code": 55575,
    "latitude": 45.015914,
    "longitude": -93.47188,
    "city": "Howard Lake",
    "state": "MN",
    "full_state": "Minnesota",
    "county": "Hennepin"
  },
  {
    "zip_code": 55576,
    "latitude": 45.015914,
    "longitude": -93.47188,
    "city": "Maple Plain",
    "state": "MN",
    "full_state": "Minnesota",
    "county": "Hennepin"
  },
  {
    "zip_code": 55577,
    "latitude": 45.015914,
    "longitude": -93.47188,
    "city": "Maple Plain",
    "state": "MN",
    "full_state": "Minnesota",
    "county": "Hennepin"
  },
  {
    "zip_code": 55578,
    "latitude": 45.015914,
    "longitude": -93.47188,
    "city": "Maple Plain",
    "state": "MN",
    "full_state": "Minnesota",
    "county": "Hennepin"
  },
  {
    "zip_code": 55579,
    "latitude": 45.015914,
    "longitude": -93.47188,
    "city": "Maple Plain",
    "state": "MN",
    "full_state": "Minnesota",
    "county": "Hennepin"
  },
  {
    "zip_code": 55580,
    "latitude": 45.200875,
    "longitude": -93.888099,
    "city": "Monticello",
    "state": "MN",
    "full_state": "Minnesota",
    "county": "Wright"
  },
  {
    "zip_code": 55581,
    "latitude": 45.200875,
    "longitude": -93.888099,
    "city": "Monticello",
    "state": "MN",
    "full_state": "Minnesota",
    "county": "Wright"
  },
  {
    "zip_code": 55582,
    "latitude": 45.200875,
    "longitude": -93.888099,
    "city": "Monticello",
    "state": "MN",
    "full_state": "Minnesota",
    "county": "Wright"
  },
  {
    "zip_code": 55583,
    "latitude": 44.805487,
    "longitude": -93.766524,
    "city": "Norwood",
    "state": "MN",
    "full_state": "Minnesota",
    "county": "Carver"
  },
  {
    "zip_code": 55584,
    "latitude": 45.200875,
    "longitude": -93.888099,
    "city": "Monticello",
    "state": "MN",
    "full_state": "Minnesota",
    "county": "Wright"
  },
  {
    "zip_code": 55585,
    "latitude": 45.200875,
    "longitude": -93.888099,
    "city": "Monticello",
    "state": "MN",
    "full_state": "Minnesota",
    "county": "Wright"
  },
  {
    "zip_code": 55586,
    "latitude": 45.200875,
    "longitude": -93.888099,
    "city": "Monticello",
    "state": "MN",
    "full_state": "Minnesota",
    "county": "Wright"
  },
  {
    "zip_code": 55587,
    "latitude": 45.200875,
    "longitude": -93.888099,
    "city": "Monticello",
    "state": "MN",
    "full_state": "Minnesota",
    "county": "Wright"
  },
  {
    "zip_code": 55588,
    "latitude": 44.989512,
    "longitude": -93.880245,
    "city": "Monticello",
    "state": "MN",
    "full_state": "Minnesota",
    "county": "Wright"
  },
  {
    "zip_code": 55589,
    "latitude": 45.200875,
    "longitude": -93.888099,
    "city": "Monticello",
    "state": "MN",
    "full_state": "Minnesota",
    "county": "Wright"
  },
  {
    "zip_code": 55590,
    "latitude": 45.200875,
    "longitude": -93.888099,
    "city": "Monticello",
    "state": "MN",
    "full_state": "Minnesota",
    "county": "Wright"
  },
  {
    "zip_code": 55591,
    "latitude": 45.200875,
    "longitude": -93.888099,
    "city": "Monticello",
    "state": "MN",
    "full_state": "Minnesota",
    "county": "Wright"
  },
  {
    "zip_code": 55592,
    "latitude": 45.200875,
    "longitude": -93.888099,
    "city": "Maple Plain",
    "state": "MN",
    "full_state": "Minnesota",
    "county": "Wright"
  },
  {
    "zip_code": 55593,
    "latitude": 45.015914,
    "longitude": -93.47188,
    "city": "Maple Plain",
    "state": "MN",
    "full_state": "Minnesota",
    "county": "Hennepin"
  },
  {
    "zip_code": 55594,
    "latitude": 44.805487,
    "longitude": -93.766524,
    "city": "Young America",
    "state": "MN",
    "full_state": "Minnesota",
    "county": "Carver"
  },
  {
    "zip_code": 55595,
    "latitude": 45.015914,
    "longitude": -93.47188,
    "city": "Loretto",
    "state": "MN",
    "full_state": "Minnesota",
    "county": "Hennepin"
  },
  {
    "zip_code": 55596,
    "latitude": 45.015914,
    "longitude": -93.47188,
    "city": "Loretto",
    "state": "MN",
    "full_state": "Minnesota",
    "county": "Hennepin"
  },
  {
    "zip_code": 55597,
    "latitude": 45.015914,
    "longitude": -93.47188,
    "city": "Loretto",
    "state": "MN",
    "full_state": "Minnesota",
    "county": "Hennepin"
  },
  {
    "zip_code": 55598,
    "latitude": 45.015914,
    "longitude": -93.47188,
    "city": "Loretto",
    "state": "MN",
    "full_state": "Minnesota",
    "county": "Hennepin"
  },
  {
    "zip_code": 55599,
    "latitude": 45.015914,
    "longitude": -93.47188,
    "city": "Loretto",
    "state": "MN",
    "full_state": "Minnesota",
    "county": "Hennepin"
  },
  {
    "zip_code": 55601,
    "latitude": 47.256021,
    "longitude": -91.356586,
    "city": "Beaver Bay",
    "state": "MN",
    "full_state": "Minnesota",
    "county": "Lake"
  },
  {
    "zip_code": 55602,
    "latitude": 47.256933,
    "longitude": -92.00427,
    "city": "Brimson",
    "state": "MN",
    "full_state": "Minnesota",
    "county": "Saint Louis"
  },
  {
    "zip_code": 55603,
    "latitude": 47.497114,
    "longitude": -91.320571,
    "city": "Finland",
    "state": "MN",
    "full_state": "Minnesota",
    "county": "Lake"
  },
  {
    "zip_code": 55604,
    "latitude": 47.872285,
    "longitude": -90.42294,
    "city": "Grand Marais",
    "state": "MN",
    "full_state": "Minnesota",
    "county": "Cook"
  },
  {
    "zip_code": 55605,
    "latitude": 47.923022,
    "longitude": -89.851983,
    "city": "Grand Portage",
    "state": "MN",
    "full_state": "Minnesota",
    "county": "Cook"
  },
  {
    "zip_code": 55606,
    "latitude": 47.851669,
    "longitude": -90.001214,
    "city": "Hovland",
    "state": "MN",
    "full_state": "Minnesota",
    "county": "Cook"
  },
  {
    "zip_code": 55607,
    "latitude": 47.660406,
    "longitude": -91.498861,
    "city": "Isabella",
    "state": "MN",
    "full_state": "Minnesota",
    "county": "Lake"
  },
  {
    "zip_code": 55609,
    "latitude": 46.95388,
    "longitude": -91.777997,
    "city": "Knife River",
    "state": "MN",
    "full_state": "Minnesota",
    "county": "Lake"
  },
  {
    "zip_code": 55612,
    "latitude": 47.7059,
    "longitude": -90.682372,
    "city": "Lutsen",
    "state": "MN",
    "full_state": "Minnesota",
    "county": "Cook"
  },
  {
    "zip_code": 55613,
    "latitude": 47.518552,
    "longitude": -90.949997,
    "city": "Schroeder",
    "state": "MN",
    "full_state": "Minnesota",
    "county": "Cook"
  },
  {
    "zip_code": 55614,
    "latitude": 47.358488,
    "longitude": -91.220483,
    "city": "Silver Bay",
    "state": "MN",
    "full_state": "Minnesota",
    "county": "Lake"
  },
  {
    "zip_code": 55615,
    "latitude": 47.648636,
    "longitude": -90.801861,
    "city": "Tofte",
    "state": "MN",
    "full_state": "Minnesota",
    "county": "Cook"
  },
  {
    "zip_code": 55616,
    "latitude": 47.134891,
    "longitude": -91.545363,
    "city": "Two Harbors",
    "state": "MN",
    "full_state": "Minnesota",
    "county": "Lake"
  },
  {
    "zip_code": 55701,
    "latitude": 47.640367,
    "longitude": -92.442797,
    "city": "Adolph",
    "state": "MN",
    "full_state": "Minnesota",
    "county": "Saint Louis"
  },
  {
    "zip_code": 55702,
    "latitude": 47.014861,
    "longitude": -92.612312,
    "city": "Alborn",
    "state": "MN",
    "full_state": "Minnesota",
    "county": "Saint Louis"
  },
  {
    "zip_code": 55703,
    "latitude": 47.753747,
    "longitude": -92.756769,
    "city": "Angora",
    "state": "MN",
    "full_state": "Minnesota",
    "county": "Saint Louis"
  },
  {
    "zip_code": 55704,
    "latitude": 46.215511,
    "longitude": -92.759076,
    "city": "Askov",
    "state": "MN",
    "full_state": "Minnesota",
    "county": "Pine"
  },
  {
    "zip_code": 55705,
    "latitude": 47.634557,
    "longitude": -92.071317,
    "city": "Aurora",
    "state": "MN",
    "full_state": "Minnesota",
    "county": "Saint Louis"
  },
  {
    "zip_code": 55706,
    "latitude": 47.742305,
    "longitude": -91.953532,
    "city": "Babbitt",
    "state": "MN",
    "full_state": "Minnesota",
    "county": "Saint Louis"
  },
  {
    "zip_code": 55707,
    "latitude": 46.556833,
    "longitude": -92.720097,
    "city": "Barnum",
    "state": "MN",
    "full_state": "Minnesota",
    "county": "Carlton"
  },
  {
    "zip_code": 55708,
    "latitude": 47.532826,
    "longitude": -92.340774,
    "city": "Biwabik",
    "state": "MN",
    "full_state": "Minnesota",
    "county": "Saint Louis"
  },
  {
    "zip_code": 55709,
    "latitude": 47.347269,
    "longitude": -93.388826,
    "city": "Bovey",
    "state": "MN",
    "full_state": "Minnesota",
    "county": "Itasca"
  },
  {
    "zip_code": 55710,
    "latitude": 47.645047,
    "longitude": -92.651923,
    "city": "Britt",
    "state": "MN",
    "full_state": "Minnesota",
    "county": "Saint Louis"
  },
  {
    "zip_code": 55711,
    "latitude": 46.837747,
    "longitude": -92.680451,
    "city": "Brookston",
    "state": "MN",
    "full_state": "Minnesota",
    "county": "Saint Louis"
  },
  {
    "zip_code": 55712,
    "latitude": 46.2263,
    "longitude": -92.705581,
    "city": "Bruno",
    "state": "MN",
    "full_state": "Minnesota",
    "county": "Pine"
  },
  {
    "zip_code": 55713,
    "latitude": 47.493197,
    "longitude": -92.764262,
    "city": "Buhl",
    "state": "MN",
    "full_state": "Minnesota",
    "county": "Saint Louis"
  },
  {
    "zip_code": 55716,
    "latitude": 47.322883,
    "longitude": -93.276267,
    "city": "Calumet",
    "state": "MN",
    "full_state": "Minnesota",
    "county": "Itasca"
  },
  {
    "zip_code": 55717,
    "latitude": 47.0686,
    "longitude": -92.442794,
    "city": "Canyon",
    "state": "MN",
    "full_state": "Minnesota",
    "county": "Saint Louis"
  },
  {
    "zip_code": 55718,
    "latitude": 46.622795,
    "longitude": -92.675569,
    "city": "Carlton",
    "state": "MN",
    "full_state": "Minnesota",
    "county": "Carlton"
  },
  {
    "zip_code": 55719,
    "latitude": 47.563308,
    "longitude": -92.443251,
    "city": "Chisholm",
    "state": "MN",
    "full_state": "Minnesota",
    "county": "Saint Louis"
  },
  {
    "zip_code": 55720,
    "latitude": 46.592512,
    "longitude": -92.549564,
    "city": "Cloquet",
    "state": "MN",
    "full_state": "Minnesota",
    "county": "Carlton"
  },
  {
    "zip_code": 55721,
    "latitude": 47.238241,
    "longitude": -93.516501,
    "city": "Cohasset",
    "state": "MN",
    "full_state": "Minnesota",
    "county": "Itasca"
  },
  {
    "zip_code": 55722,
    "latitude": 47.377503,
    "longitude": -93.385597,
    "city": "Coleraine",
    "state": "MN",
    "full_state": "Minnesota",
    "county": "Itasca"
  },
  {
    "zip_code": 55723,
    "latitude": 47.877563,
    "longitude": -92.768568,
    "city": "Cook",
    "state": "MN",
    "full_state": "Minnesota",
    "county": "Saint Louis"
  },
  {
    "zip_code": 55724,
    "latitude": 47.152067,
    "longitude": -92.435223,
    "city": "Cotton",
    "state": "MN",
    "full_state": "Minnesota",
    "county": "Saint Louis"
  },
  {
    "zip_code": 55725,
    "latitude": 48.241245,
    "longitude": -92.525385,
    "city": "Crane Lake",
    "state": "MN",
    "full_state": "Minnesota",
    "county": "Saint Louis"
  },
  {
    "zip_code": 55726,
    "latitude": 46.654061,
    "longitude": -92.836499,
    "city": "Cromwell",
    "state": "MN",
    "full_state": "Minnesota",
    "county": "Carlton"
  },
  {
    "zip_code": 55730,
    "latitude": 47.087782,
    "longitude": -93.921429,
    "city": "Grand Rapids",
    "state": "MN",
    "full_state": "Minnesota",
    "county": "Itasca"
  },
  {
    "zip_code": 55731,
    "latitude": 47.918943,
    "longitude": -92.020778,
    "city": "Ely",
    "state": "MN",
    "full_state": "Minnesota",
    "county": "Saint Louis"
  },
  {
    "zip_code": 55732,
    "latitude": 47.662641,
    "longitude": -92.228145,
    "city": "Embarrass",
    "state": "MN",
    "full_state": "Minnesota",
    "county": "Saint Louis"
  },
  {
    "zip_code": 55733,
    "latitude": 46.712582,
    "longitude": -92.364896,
    "city": "Esko",
    "state": "MN",
    "full_state": "Minnesota",
    "county": "Carlton"
  },
  {
    "zip_code": 55734,
    "latitude": 47.386893,
    "longitude": -92.452058,
    "city": "Eveleth",
    "state": "MN",
    "full_state": "Minnesota",
    "county": "Saint Louis"
  },
  {
    "zip_code": 55735,
    "latitude": 46.23792,
    "longitude": -92.950358,
    "city": "Finlayson",
    "state": "MN",
    "full_state": "Minnesota",
    "county": "Pine"
  },
  {
    "zip_code": 55736,
    "latitude": 46.937895,
    "longitude": -92.837735,
    "city": "Floodwood",
    "state": "MN",
    "full_state": "Minnesota",
    "county": "Saint Louis"
  },
  {
    "zip_code": 55738,
    "latitude": 47.273191,
    "longitude": -92.675563,
    "city": "Forbes",
    "state": "MN",
    "full_state": "Minnesota",
    "county": "Saint Louis"
  },
  {
    "zip_code": 55741,
    "latitude": 47.447686,
    "longitude": -92.366335,
    "city": "Gilbert",
    "state": "MN",
    "full_state": "Minnesota",
    "county": "Saint Louis"
  },
  {
    "zip_code": 55742,
    "latitude": 47.167838,
    "longitude": -93.132367,
    "city": "Goodland",
    "state": "MN",
    "full_state": "Minnesota",
    "county": "Itasca"
  },
  {
    "zip_code": 55744,
    "latitude": 47.232889,
    "longitude": -93.393555,
    "city": "Grand Rapids",
    "state": "MN",
    "full_state": "Minnesota",
    "county": "Itasca"
  },
  {
    "zip_code": 55745,
    "latitude": 47.087782,
    "longitude": -93.921429,
    "city": "Grand Rapids",
    "state": "MN",
    "full_state": "Minnesota",
    "county": "Itasca"
  },