[
  {
    "zip_code": 56474,
    "latitude": 46.712158,
    "longitude": -94.251126,
    "city": "Pine River",
    "state": "MN",
    "full_state": "Minnesota",
    "county": "Cass"
  },
  {
    "zip_code": 56475,
    "latitude": 46.105236,
    "longitude": -94.531738,
    "city": "Randall",
    "state": "MN",
    "full_state": "Minnesota",
    "county": "Morrison"
  },
  {
    "zip_code": 56477,
    "latitude": 46.652292,
    "longitude": -94.974942,
    "city": "Sebeka",
    "state": "MN",
    "full_state": "Minnesota",
    "county": "Wadena"
  },
  {
    "zip_code": 56478,
    "latitude": 46.605266,
    "longitude": -94.900729,
    "city": "Nimrod",
    "state": "MN",
    "full_state": "Minnesota",
    "county": "Wadena"
  },
  {
    "zip_code": 56479,
    "latitude": 46.250882,
    "longitude": -94.934361,
    "city": "Staples",
    "state": "MN",
    "full_state": "Minnesota",
    "county": "Todd"
  },
  {
    "zip_code": 56481,
    "latitude": 46.506528,
    "longitude": -94.967564,
    "city": "Verndale",
    "state": "MN",
    "full_state": "Minnesota",
    "county": "Wadena"
  },
  {
    "zip_code": 56482,
    "latitude": 46.564002,
    "longitude": -95.082796,
    "city": "Wadena",
    "state": "MN",
    "full_state": "Minnesota",
    "county": "Wadena"
  },
  {
    "zip_code": 56484,
    "latitude": 47.067057,
    "longitude": -94.489824,
    "city": "Walker",
    "state": "MN",
    "full_state": "Minnesota",
    "county": "Cass"
  },
  {
    "zip_code": 56501,
    "latitude": 46.834262,
    "longitude": -95.746871,
    "city": "Detroit Lakes",
    "state": "MN",
    "full_state": "Minnesota",
    "county": "Becker"
  },
  {
    "zip_code": 56502,
    "latitude": 46.933961,
    "longitude": -95.678375,
    "city": "Detroit Lakes",
    "state": "MN",
    "full_state": "Minnesota",
    "county": "Becker"
  },
  {
    "zip_code": 56510,
    "latitude": 47.325283,
    "longitude": -96.597259,
    "city": "Ada",
    "state": "MN",
    "full_state": "Minnesota",
    "county": "Norman"
  },
  {
    "zip_code": 56511,
    "latitude": 46.850852,
    "longitude": -95.995824,
    "city": "Audubon",
    "state": "MN",
    "full_state": "Minnesota",
    "county": "Becker"
  },
  {
    "zip_code": 56513,
    "latitude": 46.890034,
    "longitude": -96.506156,
    "city": "Baker",
    "state": "MN",
    "full_state": "Minnesota",
    "county": "Clay"
  },
  {
    "zip_code": 56514,
    "latitude": 46.649467,
    "longitude": -96.391637,
    "city": "Barnesville",
    "state": "MN",
    "full_state": "Minnesota",
    "county": "Clay"
  },
  {
    "zip_code": 56515,
    "latitude": 46.294519,
    "longitude": -95.707485,
    "city": "Battle Lake",
    "state": "MN",
    "full_state": "Minnesota",
    "county": "Otter Tail"
  },
  {
    "zip_code": 56516,
    "latitude": 47.325198,
    "longitude": -95.80918,
    "city": "Bejou",
    "state": "MN",
    "full_state": "Minnesota",
    "county": "Mahnomen"
  },
  {
    "zip_code": 56517,
    "latitude": 47.801705,
    "longitude": -96.43368,
    "city": "Beltrami",
    "state": "MN",
    "full_state": "Minnesota",
    "county": "Polk"
  },
  {
    "zip_code": 56518,
    "latitude": 46.412413,
    "longitude": -95.713452,
    "city": "Bluffton",
    "state": "MN",
    "full_state": "Minnesota",
    "county": "Otter Tail"
  },
  {
    "zip_code": 56519,
    "latitude": 47.201971,
    "longitude": -96.500374,
    "city": "Borup",
    "state": "MN",
    "full_state": "Minnesota",
    "county": "Norman"
  },
  {
    "zip_code": 56520,
    "latitude": 46.191367,
    "longitude": -96.500224,
    "city": "Breckenridge",
    "state": "MN",
    "full_state": "Minnesota",
    "county": "Wilkin"
  },
  {
    "zip_code": 56521,
    "latitude": 46.979328,
    "longitude": -95.912192,
    "city": "Callaway",
    "state": "MN",
    "full_state": "Minnesota",
    "county": "Becker"
  },
  {
    "zip_code": 56522,
    "latitude": 46.140224,
    "longitude": -96.443327,
    "city": "Campbell",
    "state": "MN",
    "full_state": "Minnesota",
    "county": "Wilkin"
  },
  {
    "zip_code": 56523,
    "latitude": 47.683698,
    "longitude": -96.87154,
    "city": "Climax",
    "state": "MN",
    "full_state": "Minnesota",
    "county": "Polk"
  },
  {
    "zip_code": 56524,
    "latitude": 46.275667,
    "longitude": -95.630788,
    "city": "Clitherall",
    "state": "MN",
    "full_state": "Minnesota",
    "county": "Otter Tail"
  },
  {
    "zip_code": 56525,
    "latitude": 46.890034,
    "longitude": -96.506156,
    "city": "Comstock",
    "state": "MN",
    "full_state": "Minnesota",
    "county": "Clay"
  },
  {
    "zip_code": 56527,
    "latitude": 46.392933,
    "longitude": -95.318951,
    "city": "Deer Creek",
    "state": "MN",
    "full_state": "Minnesota",
    "county": "Otter Tail"
  },
  {
    "zip_code": 56528,
    "latitude": 46.57101,
    "longitude": -95.728629,
    "city": "Dent",
    "state": "MN",
    "full_state": "Minnesota",
    "county": "Otter Tail"
  },
  {
    "zip_code": 56529,
    "latitude": 46.877143,
    "longitude": -96.709806,
    "city": "Dilworth",
    "state": "MN",
    "full_state": "Minnesota",
    "county": "Clay"
  },
  {
    "zip_code": 56531,
    "latitude": 45.997662,
    "longitude": -95.963007,
    "city": "Elbow Lake",
    "state": "MN",
    "full_state": "Minnesota",
    "county": "Grant"
  },
  {
    "zip_code": 56533,
    "latitude": 46.380324,
    "longitude": -96.132614,
    "city": "Elizabeth",
    "state": "MN",
    "full_state": "Minnesota",
    "county": "Otter Tail"
  },
  {
    "zip_code": 56534,
    "latitude": 46.483858,
    "longitude": -96.097914,
    "city": "Erhard",
    "state": "MN",
    "full_state": "Minnesota",
    "county": "Otter Tail"
  },
  {
    "zip_code": 56535,
    "latitude": 47.665688,
    "longitude": -95.99807,
    "city": "Erskine",
    "state": "MN",
    "full_state": "Minnesota",
    "county": "Polk"
  },
  {
    "zip_code": 56536,
    "latitude": 47.077246,
    "longitude": -96.503987,
    "city": "Felton",
    "state": "MN",
    "full_state": "Minnesota",
    "county": "Clay"
  },
  {
    "zip_code": 56537,
    "latitude": 46.3194,
    "longitude": -95.657003,
    "city": "Fergus Falls",
    "state": "MN",
    "full_state": "Minnesota",
    "county": "Otter Tail"
  },
  {
    "zip_code": 56538,
    "latitude": 46.412413,
    "longitude": -95.713452,
    "city": "Fergus Falls",
    "state": "MN",
    "full_state": "Minnesota",
    "county": "Otter Tail"
  },
  {
    "zip_code": 56540,
    "latitude": 47.534788,
    "longitude": -96.285663,
    "city": "Fertile",
    "state": "MN",
    "full_state": "Minnesota",
    "county": "Polk"
  },
  {
    "zip_code": 56541,
    "latitude": 47.325074,
    "longitude": -96.469194,
    "city": "Flom",
    "state": "MN",
    "full_state": "Minnesota",
    "county": "Norman"
  },
  {
    "zip_code": 56542,
    "latitude": 47.597727,
    "longitude": -96.270444,
    "city": "Fosston",
    "state": "MN",
    "full_state": "Minnesota",
    "county": "Polk"
  },
  {
    "zip_code": 56543,
    "latitude": 46.326166,
    "longitude": -96.528032,
    "city": "Foxhome",
    "state": "MN",
    "full_state": "Minnesota",
    "county": "Wilkin"
  },
  {
    "zip_code": 56544,
    "latitude": 46.803165,
    "longitude": -95.579405,
    "city": "Frazee",
    "state": "MN",
    "full_state": "Minnesota",
    "county": "Becker"
  },
  {
    "zip_code": 56545,
    "latitude": 47.372863,
    "longitude": -96.264276,
    "city": "Gary",
    "state": "MN",
    "full_state": "Minnesota",
    "county": "Norman"
  },
  {
    "zip_code": 56546,
    "latitude": 46.890034,
    "longitude": -96.506156,
    "city": "Georgetown",
    "state": "MN",
    "full_state": "Minnesota",
    "county": "Clay"
  },
  {
    "zip_code": 56547,
    "latitude": 46.870695,
    "longitude": -96.576425,
    "city": "Glyndon",
    "state": "MN",
    "full_state": "Minnesota",
    "county": "Clay"
  },
  {
    "zip_code": 56548,
    "latitude": 47.350668,
    "longitude": -96.82368,
    "city": "Halstad",
    "state": "MN",
    "full_state": "Minnesota",
    "county": "Norman"
  },
  {
    "zip_code": 56549,
    "latitude": 46.977738,
    "longitude": -96.409155,
    "city": "Hawley",
    "state": "MN",
    "full_state": "Minnesota",
    "county": "Clay"
  },
  {
    "zip_code": 56550,
    "latitude": 47.263731,
    "longitude": -96.811279,
    "city": "Hendrum",
    "state": "MN",
    "full_state": "Minnesota",
    "county": "Norman"
  },
  {
    "zip_code": 56551,
    "latitude": 46.293243,
    "longitude": -95.483624,
    "city": "Henning",
    "state": "MN",
    "full_state": "Minnesota",
    "county": "Otter Tail"
  },
  {
    "zip_code": 56552,
    "latitude": 46.972026,
    "longitude": -96.25589,
    "city": "Hitterdal",
    "state": "MN",
    "full_state": "Minnesota",
    "county": "Clay"
  },
  {
    "zip_code": 56553,
    "latitude": 46.326166,
    "longitude": -96.528032,
    "city": "Kent",
    "state": "MN",
    "full_state": "Minnesota",
    "county": "Wilkin"
  },
  {
    "zip_code": 56554,
    "latitude": 46.891231,
    "longitude": -96.102425,
    "city": "Lake Park",
    "state": "MN",
    "full_state": "Minnesota",
    "county": "Becker"
  },
  {
    "zip_code": 56556,
    "latitude": 47.637117,
    "longitude": -95.884768,
    "city": "Mcintosh",
    "state": "MN",
    "full_state": "Minnesota",
    "county": "Polk"
  },
  {
    "zip_code": 56557,
    "latitude": 47.287889,
    "longitude": -95.939586,
    "city": "Mahnomen",
    "state": "MN",
    "full_state": "Minnesota",
    "county": "Mahnomen"
  },
  {
    "zip_code": 56560,
    "latitude": 46.803546,
    "longitude": -96.557389,
    "city": "Moorhead",
    "state": "MN",
    "full_state": "Minnesota",
    "county": "Clay"
  },
  {
    "zip_code": 56561,
    "latitude": 46.890034,
    "longitude": -96.506156,
    "city": "Moorhead",
    "state": "MN",
    "full_state": "Minnesota",
    "county": "Clay"
  },
  {
    "zip_code": 56562,
    "latitude": 46.890034,
    "longitude": -96.506156,
    "city": "Moorhead",
    "state": "MN",
    "full_state": "Minnesota",
    "county": "Clay"
  },
  {
    "zip_code": 56563,
    "latitude": 46.890034,
    "longitude": -96.506156,
    "city": "Moorhead",
    "state": "MN",
    "full_state": "Minnesota",
    "county": "Clay"
  },
  {
    "zip_code": 56565,
    "latitude": 46.326166,
    "longitude": -96.528032,
    "city": "Nashua",
    "state": "MN",
    "full_state": "Minnesota",
    "county": "Wilkin"
  },
  {
    "zip_code": 56566,
    "latitude": 47.325198,
    "longitude": -95.80918,
    "city": "Naytahwaush",
    "state": "MN",
    "full_state": "Minnesota",
    "county": "Mahnomen"
  },
  {
    "zip_code": 56567,
    "latitude": 46.491294,
    "longitude": -95.366068,
    "city": "New York Mills",
    "state": "MN",
    "full_state": "Minnesota",
    "county": "Otter Tail"
  },
  {
    "zip_code": 56568,
    "latitude": 47.836367,
    "longitude": -96.3504,
    "city": "Nielsville",
    "state": "MN",
    "full_state": "Minnesota",
    "county": "Polk"
  },
  {
    "zip_code": 56569,
    "latitude": 47.10914,
    "longitude": -95.782254,
    "city": "Ogema",
    "state": "MN",
    "full_state": "Minnesota",
    "county": "Becker"
  },
  {
    "zip_code": 56570,
    "latitude": 46.923974,
    "longitude": -95.362298,
    "city": "Osage",
    "state": "MN",
    "full_state": "Minnesota",
    "county": "Becker"
  },
  {
    "zip_code": 56571,
    "latitude": 46.465546,
    "longitude": -95.564365,
    "city": "Ottertail",
    "state": "MN",
    "full_state": "Minnesota",
    "county": "Otter Tail"
  },
  {
    "zip_code": 56572,
    "latitude": 46.611549,
    "longitude": -96.059669,
    "city": "Pelican Rapids",
    "state": "MN",
    "full_state": "Minnesota",
    "county": "Otter Tail"
  },
  {
    "zip_code": 56573,
    "latitude": 46.597093,
    "longitude": -95.822634,
    "city": "Perham",
    "state": "MN",
    "full_state": "Minnesota",
    "county": "Otter Tail"
  },
  {
    "zip_code": 56574,
    "latitude": 47.177615,
    "longitude": -96.804613,
    "city": "Perley",
    "state": "MN",
    "full_state": "Minnesota",
    "county": "Norman"
  },
  {
    "zip_code": 56575,
    "latitude": 47.061724,
    "longitude": -95.429915,
    "city": "Ponsford",
    "state": "MN",
    "full_state": "Minnesota",
    "county": "Becker"
  },
  {
    "zip_code": 56576,
    "latitude": 46.443365,
    "longitude": -95.792367,
    "city": "Richville",
    "state": "MN",
    "full_state": "Minnesota",
    "county": "Otter Tail"
  },
  {
    "zip_code": 56577,
    "latitude": 46.933961,
    "longitude": -95.678375,
    "city": "Richwood",
    "state": "MN",
    "full_state": "Minnesota",
    "county": "Becker"
  },
  {
    "zip_code": 56578,
    "latitude": 46.886152,
    "longitude": -95.724599,
    "city": "Rochert",
    "state": "MN",
    "full_state": "Minnesota",
    "county": "Becker"
  },
  {
    "zip_code": 56579,
    "latitude": 46.529553,
    "longitude": -96.349085,
    "city": "Rothsay",
    "state": "MN",
    "full_state": "Minnesota",
    "county": "Wilkin"
  },
  {
    "zip_code": 56580,
    "latitude": 46.779487,
    "longitude": -96.651185,
    "city": "Sabin",
    "state": "MN",
    "full_state": "Minnesota",
    "county": "Clay"
  },
  {
    "zip_code": 56581,
    "latitude": 47.320042,
    "longitude": -96.54441,
    "city": "Shelly",
    "state": "MN",
    "full_state": "Minnesota",
    "county": "Norman"
  },
  {
    "zip_code": 56583,
    "latitude": 46.007415,
    "longitude": -96.359342,
    "city": "Tintah",
    "state": "MN",
    "full_state": "Minnesota",
    "county": "Traverse"
  },
  {
    "zip_code": 56584,
    "latitude": 47.271463,
    "longitude": -96.182441,
    "city": "Twin Valley",
    "state": "MN",
    "full_state": "Minnesota",
    "county": "Norman"
  },
  {
    "zip_code": 56585,
    "latitude": 47.0663,
    "longitude": -96.258706,
    "city": "Ulen",
    "state": "MN",
    "full_state": "Minnesota",
    "county": "Clay"
  },
  {
    "zip_code": 56586,
    "latitude": 46.285081,
    "longitude": -95.874117,
    "city": "Underwood",
    "state": "MN",
    "full_state": "Minnesota",
    "county": "Otter Tail"
  },
  {
    "zip_code": 56587,
    "latitude": 46.457968,
    "longitude": -95.919355,
    "city": "Vergas",
    "state": "MN",
    "full_state": "Minnesota",
    "county": "Otter Tail"
  },
  {
    "zip_code": 56588,
    "latitude": 46.412413,
    "longitude": -95.713452,
    "city": "Vining",
    "state": "MN",
    "full_state": "Minnesota",
    "county": "Otter Tail"
  },
  {
    "zip_code": 56589,
    "latitude": 47.184343,
    "longitude": -95.939849,
    "city": "Waubun",
    "state": "MN",
    "full_state": "Minnesota",
    "county": "Mahnomen"
  },
  {
    "zip_code": 56590,
    "latitude": 45.934055,
    "longitude": -96.012359,
    "city": "Wendell",
    "state": "MN",
    "full_state": "Minnesota",
    "county": "Grant"
  },
  {
    "zip_code": 56591,
    "latitude": 46.933961,
    "longitude": -95.678375,
    "city": "White Earth",
    "state": "MN",
    "full_state": "Minnesota",
    "county": "Becker"
  },
  {
    "zip_code": 56592,
    "latitude": 47.631462,
    "longitude": -95.889453,
    "city": "Winger",
    "state": "MN",
    "full_state": "Minnesota",
    "county": "Polk"
  },
  {
    "zip_code": 56593,
    "latitude": 46.821648,
    "longitude": -95.391968,
    "city": "Wolf Lake",
    "state": "MN",
    "full_state": "Minnesota",
    "county": "Becker"
  },
  {
    "zip_code": 56594,
    "latitude": 46.326166,
    "longitude": -96.528032,
    "city": "Wolverton",
    "state": "MN",
    "full_state": "Minnesota",
    "county": "Wilkin"
  },
  {
    "zip_code": 56601,
    "latitude": 47.571964,
    "longitude": -94.801272,
    "city": "Bemidji",
    "state": "MN",
    "full_state": "Minnesota",
    "county": "Beltrami"
  },
  {
    "zip_code": 56619,
    "latitude": 47.625699,
    "longitude": -94.822154,
    "city": "Bemidji",
    "state": "MN",
    "full_state": "Minnesota",
    "county": "Beltrami"
  },
  {
    "zip_code": 56621,
    "latitude": 47.531644,
    "longitude": -95.377949,
    "city": "Bagley",
    "state": "MN",
    "full_state": "Minnesota",
    "county": "Clearwater"
  },
  {
    "zip_code": 56623,
    "latitude": 48.750473,
    "longitude": -94.84626,
    "city": "Baudette",
    "state": "MN",
    "full_state": "Minnesota",
    "county": "Lake Of The Woods"
  },
  {
    "zip_code": 56626,
    "latitude": 47.370372,
    "longitude": -94.251376,
    "city": "Bena",
    "state": "MN",
    "full_state": "Minnesota",
    "county": "Cass"
  },
  {
    "zip_code": 56627,
    "latitude": 48.091615,
    "longitude": -93.81606,
    "city": "Big Falls",
    "state": "MN",
    "full_state": "Minnesota",
    "county": "Koochiching"
  },
  {
    "zip_code": 56628,
    "latitude": 47.710353,
    "longitude": -93.612694,
    "city": "Bigfork",
    "state": "MN",
    "full_state": "Minnesota",
    "county": "Itasca"
  },
  {
    "zip_code": 56629,
    "latitude": 48.642546,
    "longitude": -94.06358,
    "city": "Birchdale",
    "state": "MN",
    "full_state": "Minnesota",
    "county": "Koochiching"
  },
  {
    "zip_code": 56630,
    "latitude": 47.804493,
    "longitude": -94.575871,
    "city": "Blackduck",
    "state": "MN",
    "full_state": "Minnesota",
    "county": "Beltrami"
  },
  {
    "zip_code": 56631,
    "latitude": 47.087782,
    "longitude": -93.921429,
    "city": "Bowstring",
    "state": "MN",
    "full_state": "Minnesota",
    "county": "Itasca"
  },
  {
    "zip_code": 56633,
    "latitude": 47.327719,
    "longitude": -94.476853,
    "city": "Cass Lake",
    "state": "MN",
    "full_state": "Minnesota",
    "county": "Cass"
  },
  {
    "zip_code": 56634,
    "latitude": 47.610498,
    "longitude": -95.421104,
    "city": "Clearbrook",
    "state": "MN",
    "full_state": "Minnesota",
    "county": "Clearwater"
  },
  {
    "zip_code": 56636,
    "latitude": 47.46843,
    "longitude": -93.810949,
    "city": "Deer River",
    "state": "MN",
    "full_state": "Minnesota",
    "county": "Itasca"
  },
  {
    "zip_code": 56637,
    "latitude": 47.615375,
    "longitude": -93.837811,
    "city": "Talmoon",
    "state": "MN",
    "full_state": "Minnesota",
    "county": "Itasca"
  },
  {
    "zip_code": 56639,
    "latitude": 47.852226,
    "longitude": -93.524252,
    "city": "Effie",
    "state": "MN",
    "full_state": "Minnesota",
    "county": "Itasca"
  },
  {
    "zip_code": 56641,
    "latitude": 47.206552,
    "longitude": -94.263384,
    "city": "Federal Dam",
    "state": "MN",
    "full_state": "Minnesota",
    "county": "Cass"
  },
  {
    "zip_code": 56644,
    "latitude": 47.715406,
    "longitude": -95.470782,
    "city": "Gonvick",
    "state": "MN",
    "full_state": "Minnesota",
    "county": "Clearwater"
  },
  {
    "zip_code": 56646,
    "latitude": 47.836367,
    "longitude": -96.3504,
    "city": "Gully",
    "state": "MN",
    "full_state": "Minnesota",
    "county": "Polk"
  },
  {
    "zip_code": 56647,
    "latitude": 47.974989,
    "longitude": -95.008708,
    "city": "Hines",
    "state": "MN",
    "full_state": "Minnesota",
    "county": "Beltrami"
  },
  {
    "zip_code": 56649,
    "latitude": 48.232494,
    "longitude": -93.640382,
    "city": "International Falls",
    "state": "MN",
    "full_state": "Minnesota",
    "county": "Koochiching"
  },
  {
    "zip_code": 56650,
    "latitude": 47.940789,
    "longitude": -94.45001,
    "city": "Kelliher",
    "state": "MN",
    "full_state": "Minnesota",
    "county": "Beltrami"
  },
  {
    "zip_code": 56651,
    "latitude": 47.836367,
    "longitude": -96.3504,
    "city": "Lengby",
    "state": "MN",
    "full_state": "Minnesota",
    "county": "Polk"
  },
  {
    "zip_code": 56652,
    "latitude": 47.585873,
    "longitude": -95.375974,
    "city": "Leonard",
    "state": "MN",
    "full_state": "Minnesota",
    "county": "Clearwater"
  },
  {
    "zip_code": 56653,
    "latitude": 48.357144,
    "longitude": -93.612836,
    "city": "Littlefork",
    "state": "MN",
    "full_state": "Minnesota",
    "county": "Koochiching"
  },
  {
    "zip_code": 56654,
    "latitude": 48.538803,
    "longitude": -93.840769,
    "city": "Loman",
    "state": "MN",
    "full_state": "Minnesota",
    "county": "Koochiching"
  },
  {
    "zip_code": 56655,
    "latitude": 46.994097,
    "longitude": -94.243551,
    "city": "Longville",
    "state": "MN",
    "full_state": "Minnesota",
    "county": "Cass"
  },
  {
    "zip_code": 56657,
    "latitude": 47.548518,
    "longitude": -93.62356,
    "city": "Marcell",
    "state": "MN",
    "full_state": "Minnesota",
    "county": "Itasca"
  },
  {
    "zip_code": 56658,
    "latitude": 48.27888,
    "longitude": -93.755536,
    "city": "Margie",
    "state": "MN",
    "full_state": "Minnesota",
    "county": "Koochiching"
  },
  {
    "zip_code": 56659,
    "latitude": 47.661759,
    "longitude": -94.015607,
    "city": "Max",
    "state": "MN",
    "full_state": "Minnesota",
    "county": "Itasca"
  },
  {
    "zip_code": 56660,
    "latitude": 47.933964,
    "longitude": -94.23693,
    "city": "Mizpah",
    "state": "MN",
    "full_state": "Minnesota",
    "county": "Koochiching"
  },
  {
    "zip_code": 56661,
    "latitude": 47.919215,
    "longitude": -94.097415,
    "city": "Northome",
    "state": "MN",
    "full_state": "Minnesota",
    "county": "Koochiching"
  },
  {
    "zip_code": 56662,
    "latitude": 46.879043,
    "longitude": -93.918172,
    "city": "Outing",
    "state": "MN",
    "full_state": "Minnesota",
    "county": "Cass"
  },
  {
    "zip_code": 56663,
    "latitude": 47.448274,
    "longitude": -94.471485,
    "city": "Pennington",
    "state": "MN",
    "full_state": "Minnesota",
    "county": "Beltrami"
  },
  {
    "zip_code": 56666,
    "latitude": 47.974989,
    "longitude": -95.008708,
    "city": "Ponemah",
    "state": "MN",
    "full_state": "Minnesota",
    "county": "Beltrami"
  },
  {
    "zip_code": 56667,
    "latitude": 47.974989,
    "longitude": -95.008708,
    "city": "Puposky",
    "state": "MN",
    "full_state": "Minnesota",
    "county": "Beltrami"
  },
  {
    "zip_code": 56668,
    "latitude": 48.603143,
    "longitude": -93.29771,
    "city": "Ranier",
    "state": "MN",
    "full_state": "Minnesota",
    "county": "Koochiching"
  },
  {
    "zip_code": 56669,
    "latitude": 48.394721,
    "longitude": -93.310667,
    "city": "Ray",
    "state": "MN",
    "full_state": "Minnesota",
    "county": "Koochiching"
  },
  {
    "zip_code": 56670,
    "latitude": 47.974989,
    "longitude": -95.008708,
    "city": "Redby",
    "state": "MN",
    "full_state": "Minnesota",
    "county": "Beltrami"
  },
  {
    "zip_code": 56671,
    "latitude": 47.974989,
    "longitude": -95.008708,
    "city": "Redlake",
    "state": "MN",
    "full_state": "Minnesota",
    "county": "Beltrami"
  },
  {
    "zip_code": 56672,
    "latitude": 47.095793,
    "longitude": -94.021032,
    "city": "Remer",
    "state": "MN",
    "full_state": "Minnesota",
    "county": "Cass"
  },
  {
    "zip_code": 56673,
    "latitude": 48.769244,
    "longitude": -95.747559,
    "city": "Roosevelt",
    "state": "MN",
    "full_state": "Minnesota",
    "county": "Roseau"
  },
  {
    "zip_code": 56676,
    "latitude": 47.585873,
    "longitude": -95.375974,
    "city": "Shevlin",
    "state": "MN",
    "full_state": "Minnesota",
    "county": "Clearwater"
  },
  {
    "zip_code": 56678,
    "latitude": 47.974989,
    "longitude": -95.008708,
    "city": "Solway",
    "state": "MN",
    "full_state": "Minnesota",
    "county": "Beltrami"
  },
  {
    "zip_code": 56679,
    "latitude": 48.27888,
    "longitude": -93.755536,
    "city": "South International Falls",
    "state": "MN",
    "full_state": "Minnesota",
    "county": "Koochiching"
  },
  {
    "zip_code": 56680,
    "latitude": 47.635946,
    "longitude": -93.922032,
    "city": "Spring Lake",
    "state": "MN",
    "full_state": "Minnesota",
    "county": "Itasca"
  },
  {
    "zip_code": 56681,
    "latitude": 47.624415,
    "longitude": -94.187735,
    "city": "Squaw Lake",
    "state": "MN",
    "full_state": "Minnesota",
    "county": "Itasca"
  },
  {
    "zip_code": 56682,
    "latitude": 48.769244,
    "longitude": -95.747559,
    "city": "Swift",
    "state": "MN",
    "full_state": "Minnesota",
    "county": "Roseau"
  },
  {
    "zip_code": 56683,
    "latitude": 47.974989,
    "longitude": -95.008708,
    "city": "Tenstrike",
    "state": "MN",
    "full_state": "Minnesota",
    "county": "Beltrami"
  },
  {
    "zip_code": 56684,
    "latitude": 47.836367,
    "longitude": -96.3504,
    "city": "Trail",
    "state": "MN",
    "full_state": "Minnesota",
    "county": "Polk"
  },
  {
    "zip_code": 56685,
    "latitude": 47.974989,
    "longitude": -95.008708,
    "city": "Waskish",
    "state": "MN",
    "full_state": "Minnesota",
    "county": "Beltrami"
  },
  {
    "zip_code": 56686,
    "latitude": 48.820843,
    "longitude": -94.933138,
    "city": "Williams",
    "state": "MN",
    "full_state": "Minnesota",
    "county": "Lake Of The Woods"
  },
  {
    "zip_code": 56687,
    "latitude": 47.974989,
    "longitude": -95.008708,
    "city": "Wilton",
    "state": "MN",
    "full_state": "Minnesota",
    "county": "Beltrami"
  },
  {
    "zip_code": 56688,
    "latitude": 47.746177,
    "longitude": -93.962961,
    "city": "Wirt",
    "state": "MN",
    "full_state": "Minnesota",
    "county": "Itasca"
  },
  {
    "zip_code": 56701,
    "latitude": 48.076333,
    "longitude": -96.149002,
    "city": "Thief River Falls",
    "state": "MN",
    "full_state": "Minnesota",
    "county": "Pennington"
  },
  {
    "zip_code": 56710,
    "latitude": 48.191085,
    "longitude": -96.998433,
    "city": "Alvarado",
    "state": "MN",
    "full_state": "Minnesota",
    "county": "Marshall"
  },
  {
    "zip_code": 56711,
    "latitude": 48.875164,
    "longitude": -94.885668,
    "city": "Angle Inlet",
    "state": "MN",
    "full_state": "Minnesota",
    "county": "Lake Of The Woods"
  },
  {
    "zip_code": 56712,
    "latitude": 47.836367,
    "longitude": -96.3504,
    "city": "Angus",
    "state": "MN",
    "full_state": "Minnesota",
    "county": "Polk"
  },
  {
    "zip_code": 56713,
    "latitude": 48.331455,
    "longitude": -96.816197,
    "city": "Argyle",
    "state": "MN",
    "full_state": "Minnesota",
    "county": "Marshall"
  },
  {
    "zip_code": 56714,
    "latitude": 48.774428,
    "longitude": -96.020334,
    "city": "Badger",
    "state": "MN",
    "full_state": "Minnesota",
    "county": "Roseau"
  },
  {
    "zip_code": 56715,
    "latitude": 47.814152,
    "longitude": -96.005263,
    "city": "Brooks",
    "state": "MN",
    "full_state": "Minnesota",
    "county": "Red Lake"
  },
  {
    "zip_code": 56716,
    "latitude": 47.705082,
    "longitude": -96.412,
    "city": "Crookston",
    "state": "MN",
    "full_state": "Minnesota",
    "county": "Polk"
  },
  {
    "zip_code": 56720,
    "latitude": 48.771938,
    "longitude": -96.812921,
    "city": "Donaldson",
    "state": "MN",
    "full_state": "Minnesota",
    "county": "Kittson"
  },
  {
    "zip_code": 56721,
    "latitude": 47.874048,
    "longitude": -96.924085,
    "city": "East Grand Forks",
    "state": "MN",
    "full_state": "Minnesota",
    "county": "Polk"
  },
  {
    "zip_code": 56722,
    "latitude": 47.836367,
    "longitude": -96.3504,
    "city": "Euclid",
    "state": "MN",
    "full_state": "Minnesota",
    "county": "Polk"
  },
  {
    "zip_code": 56723,
    "latitude": 47.799949,
    "longitude": -96.798532,
    "city": "Fisher",
    "state": "MN",
    "full_state": "Minnesota",
    "county": "Polk"
  },
  {
    "zip_code": 56724,
    "latitude": 48.358371,
    "longitude": -96.378062,
    "city": "Gatzke",
    "state": "MN",
    "full_state": "Minnesota",
    "county": "Marshall"
  },
  {
    "zip_code": 56725,
    "latitude": 48.144158,
    "longitude": -95.804345,
    "city": "Goodridge",
    "state": "MN",
    "full_state": "Minnesota",
    "county": "Pennington"
  },
  {
    "zip_code": 56726,
    "latitude": 48.834783,
    "longitude": -96.286287,
    "city": "Greenbush",
    "state": "MN",
    "full_state": "Minnesota",
    "county": "Roseau"
  },
  {
    "zip_code": 56727,
    "latitude": 48.358371,
    "longitude": -96.378062,
    "city": "Grygla",
    "state": "MN",
    "full_state": "Minnesota",
    "county": "Marshall"
  },
  {
    "zip_code": 56728,
    "latitude": 48.774787,
    "longitude": -96.942022,
    "city": "Hallock",
    "state": "MN",
    "full_state": "Minnesota",
    "county": "Kittson"
  },
  {
    "zip_code": 56729,
    "latitude": 48.771938,
    "longitude": -96.812921,
    "city": "Halma",
    "state": "MN",
    "full_state": "Minnesota",
    "county": "Kittson"
  },
  {
    "zip_code": 56731,
    "latitude": 48.771938,
    "longitude": -96.812921,
    "city": "Humboldt",
    "state": "MN",
    "full_state": "Minnesota",
    "county": "Kittson"
  },
  {
    "zip_code": 56732,
    "latitude": 48.565003,
    "longitude": -96.53266,
    "city": "Karlstad",
    "state": "MN",
    "full_state": "Minnesota",
    "county": "Kittson"
  },
  {
    "zip_code": 56733,
    "latitude": 48.643714,
    "longitude": -96.914605,
    "city": "Kennedy",
    "state": "MN",
    "full_state": "Minnesota",
    "county": "Kittson"
  },
  {
    "zip_code": 56734,
    "latitude": 48.771938,
    "longitude": -96.812921,
    "city": "Lake Bronson",
    "state": "MN",
    "full_state": "Minnesota",
    "county": "Kittson"
  },
  {
    "zip_code": 56735,
    "latitude": 48.771938,
    "longitude": -96.812921,
    "city": "Lancaster",
    "state": "MN",
    "full_state": "Minnesota",
    "county": "Kittson"
  },
  {
    "zip_code": 56736,
    "latitude": 47.681728,
    "longitude": -96.154311,
    "city": "Mentor",
    "state": "MN",
    "full_state": "Minnesota",
    "county": "Polk"
  },
  {
    "zip_code": 56737,
    "latitude": 48.438104,
    "longitude": -96.513779,
    "city": "Middle River",
    "state": "MN",
    "full_state": "Minnesota",
    "county": "Marshall"
  },
  {
    "zip_code": 56738,
    "latitude": 48.358371,
    "longitude": -96.378062,
    "city": "Newfolden",
    "state": "MN",
    "full_state": "Minnesota",
    "county": "Marshall"
  },
  {
    "zip_code": 56740,
    "latitude": 48.771938,
    "longitude": -96.812921,
    "city": "Noyes",
    "state": "MN",
    "full_state": "Minnesota",
    "county": "Kittson"
  },
  {
    "zip_code": 56741,
    "latitude": 48.875164,
    "longitude": -94.885668,
    "city": "Oak Island",
    "state": "MN",
    "full_state": "Minnesota",
    "county": "Lake Of The Woods"
  },
  {
    "zip_code": 56742,
    "latitude": 47.838345,
    "longitude": -95.853261,
    "city": "Oklee",
    "state": "MN",
    "full_state": "Minnesota",
    "county": "Red Lake"
  },
  {
    "zip_code": 56744,
    "latitude": 48.19941,
    "longitude": -97.130755,
    "city": "Oslo",
    "state": "MN",
    "full_state": "Minnesota",
    "county": "Marshall"
  },
  {
    "zip_code": 56748,
    "latitude": 47.86217,
    "longitude": -96.095883,
    "city": "Plummer",
    "state": "MN",
    "full_state": "Minnesota",
    "county": "Red Lake"
  },
  {
    "zip_code": 56750,
    "latitude": 47.885347,
    "longitude": -96.270368,
    "city": "Red Lake Falls",
    "state": "MN",
    "full_state": "Minnesota",
    "county": "Red Lake"
  },
  {
    "zip_code": 56751,
    "latitude": 48.704839,
    "longitude": -95.750383,
    "city": "Roseau",
    "state": "MN",
    "full_state": "Minnesota",
    "county": "Roseau"
  },
  {
    "zip_code": 56754,
    "latitude": 48.014969,
    "longitude": -96.213472,
    "city": "Saint Hilaire",
    "state": "MN",
    "full_state": "Minnesota",
    "county": "Pennington"
  },
  {
    "zip_code": 56755,
    "latitude": 48.871994,
    "longitude": -97.092442,
    "city": "Saint Vincent",
    "state": "MN",
    "full_state": "Minnesota",
    "county": "Kittson"
  },
  {
    "zip_code": 56756,
    "latitude": 48.769244,
    "longitude": -95.747559,
    "city": "Salol",
    "state": "MN",
    "full_state": "Minnesota",
    "county": "Roseau"
  },
  {
    "zip_code": 56757,
    "latitude": 48.477158,
    "longitude": -96.867548,
    "city": "Stephen",
    "state": "MN",
    "full_state": "Minnesota",
    "county": "Marshall"
  },
  {
    "zip_code": 56758,
    "latitude": 48.358371,
    "longitude": -96.378062,
    "city": "Strandquist",
    "state": "MN",
    "full_state": "Minnesota",
    "county": "Marshall"
  },
  {
    "zip_code": 56759,
    "latitude": 48.749138,
    "longitude": -96.062783,
    "city": "Strathcona",
    "state": "MN",
    "full_state": "Minnesota",
    "county": "Roseau"
  },
  {
    "zip_code": 56760,
    "latitude": 48.358371,
    "longitude": -96.378062,
    "city": "Viking",
    "state": "MN",
    "full_state": "Minnesota",
    "county": "Marshall"
  },
  {
    "zip_code": 56761,
    "latitude": 48.769244,
    "longitude": -95.747559,
    "city": "Wannaska",
    "state": "MN",
    "full_state": "Minnesota",
    "county": "Roseau"
  },
  {
    "zip_code": 56762,
    "latitude": 48.261376,
    "longitude": -96.772583,
    "city": "Warren",
    "state": "MN",
    "full_state": "Minnesota",
    "county": "Marshall"
  },
  {
    "zip_code": 56763,
    "latitude": 48.900663,
    "longitude": -95.250324,
    "city": "Warroad",
    "state": "MN",
    "full_state": "Minnesota",
    "county": "Roseau"
  },
  {
    "zip_code": 57001,
    "latitude": 42.931698,
    "longitude": -96.624298,
    "city": "Alcester",
    "state": "SD",
    "full_state": "South Dakota",
    "county": "Union"
  },
  {
    "zip_code": 57002,
    "latitude": 44.304195,
    "longitude": -96.667977,
    "city": "Aurora",
    "state": "SD",
    "full_state": "South Dakota",
    "county": "Brookings"
  },
  {
    "zip_code": 57003,
    "latitude": 43.64514,
    "longitude": -96.814589,
    "city": "Baltic",
    "state": "SD",
    "full_state": "South Dakota",
    "county": "Minnehaha"
  },
  {
    "zip_code": 57004,
    "latitude": 42.842947,
    "longitude": -96.681135,
    "city": "Beresford",
    "state": "SD",
    "full_state": "South Dakota",
    "county": "Union"
  },
  {
    "zip_code": 57005,
    "latitude": 43.603401,
    "longitude": -96.793708,
    "city": "Brandon",
    "state": "SD",
    "full_state": "South Dakota",
    "county": "Minnehaha"
  },
  {
    "zip_code": 57006,
    "latitude": 44.355091,
    "longitude": -96.762102,
    "city": "Brookings",
    "state": "SD",
    "full_state": "South Dakota",
    "county": "Brookings"
  },
  {
    "zip_code": 57007,
    "latitude": 44.369696,
    "longitude": -96.790705,
    "city": "Brookings",
    "state": "SD",
    "full_state": "South Dakota",
    "county": "Brookings"
  },
  {
    "zip_code": 57010,
    "latitude": 42.827796,
    "longitude": -96.847373,
    "city": "Burbank",
    "state": "SD",
    "full_state": "South Dakota",
    "county": "Clay"
  },
  {
    "zip_code": 57012,
    "latitude": 43.572888,
    "longitude": -97.248418,
    "city": "Canistota",
    "state": "SD",
    "full_state": "South Dakota",
    "county": "Mccook"
  },
  {
    "zip_code": 57013,
    "latitude": 43.29831,
    "longitude": -96.70718,
    "city": "Canton",
    "state": "SD",
    "full_state": "South Dakota",
    "county": "Lincoln"
  },
  {
    "zip_code": 57014,
    "latitude": 43.291296,
    "longitude": -97.042271,
    "city": "Centerville",
    "state": "SD",
    "full_state": "South Dakota",
    "county": "Turner"
  },
  {
    "zip_code": 57015,
    "latitude": 43.408226,
    "longitude": -96.983852,
    "city": "Chancellor",
    "state": "SD",
    "full_state": "South Dakota",
    "county": "Turner"
  },
  {
    "zip_code": 57016,
    "latitude": 43.895505,
    "longitude": -96.928024,
    "city": "Chester",
    "state": "SD",
    "full_state": "South Dakota",
    "county": "Lake"
  },
  {
    "zip_code": 57017,
    "latitude": 43.984778,
    "longitude": -96.814237,
    "city": "Colman",
    "state": "SD",
    "full_state": "South Dakota",
    "county": "Moody"
  },
  {
    "zip_code": 57018,
    "latitude": 43.790192,
    "longitude": -96.907845,
    "city": "Colton",
    "state": "SD",
    "full_state": "South Dakota",
    "county": "Minnehaha"
  },
  {
    "zip_code": 57020,
    "latitude": 43.666894,
    "longitude": -96.822137,
    "city": "Crooks",
    "state": "SD",
    "full_state": "South Dakota",
    "county": "Minnehaha"
  },
  {
    "zip_code": 57021,
    "latitude": 43.272502,
    "longitude": -96.983494,
    "city": "Davis",
    "state": "SD",
    "full_state": "South Dakota",
    "county": "Turner"
  },
  {
    "zip_code": 57022,
    "latitude": 43.803585,
    "longitude": -96.699766,
    "city": "Dell Rapids",
    "state": "SD",
    "full_state": "South Dakota",
    "county": "Minnehaha"
  },
  {
    "zip_code": 57024,
    "latitude": 43.998434,
    "longitude": -96.648034,
    "city": "Egan",
    "state": "SD",
    "full_state": "South Dakota",
    "county": "Moody"
  },
  {
    "zip_code": 57025,
    "latitude": 42.76399,
    "longitude": -96.676742,
    "city": "Elk Point",
    "state": "SD",
    "full_state": "South Dakota",
    "county": "Union"
  },
  {
    "zip_code": 57026,
    "latitude": 44.289677,
    "longitude": -96.540249,
    "city": "Elkton",
    "state": "SD",
    "full_state": "South Dakota",
    "county": "Brookings"
  },
  {
    "zip_code": 57027,
    "latitude": 43.197041,
    "longitude": -96.513506,
    "city": "Fairview",
    "state": "SD",
    "full_state": "South Dakota",
    "county": "Lincoln"
  },
  {
    "zip_code": 57028,
    "latitude": 43.984004,
    "longitude": -96.616189,
    "city": "Flandreau",
    "state": "SD",
    "full_state": "South Dakota",
    "county": "Moody"
  },
  {
    "zip_code": 57029,
    "latitude": 43.321384,
    "longitude": -97.547869,
    "city": "Freeman",
    "state": "SD",
    "full_state": "South Dakota",
    "county": "Hutchinson"
  },
  {
    "zip_code": 57030,
    "latitude": 43.747639,
    "longitude": -96.596379,
    "city": "Garretson",
    "state": "SD",
    "full_state": "South Dakota",
    "county": "Minnehaha"
  },
  {
    "zip_code": 57031,
    "latitude": 42.886136,
    "longitude": -97.209902,
    "city": "Gayville",
    "state": "SD",
    "full_state": "South Dakota",
    "county": "Yankton"
  },
  {
    "zip_code": 57032,
    "latitude": 43.425258,
    "longitude": -96.659737,
    "city": "Harrisburg",
    "state": "SD",
    "full_state": "South Dakota",
    "county": "Lincoln"
  },
  {
    "zip_code": 57033,
    "latitude": 43.630545,
    "longitude": -96.814539,
    "city": "Hartford",
    "state": "SD",
    "full_state": "South Dakota",
    "county": "Minnehaha"
  },
  {
    "zip_code": 57034,
    "latitude": 43.184976,
    "longitude": -96.580939,
    "city": "Hudson",
    "state": "SD",
    "full_state": "South Dakota",
    "county": "Lincoln"
  },
  {
    "zip_code": 57035,
    "latitude": 43.637836,
    "longitude": -96.816129,
    "city": "Humboldt",
    "state": "SD",
    "full_state": "South Dakota",
    "county": "Minnehaha"
  },
  {
    "zip_code": 57036,
    "latitude": 43.278943,
    "longitude": -97.141677,
    "city": "Hurley",
    "state": "SD",
    "full_state": "South Dakota",
    "county": "Turner"
  },
  {
    "zip_code": 57037,
    "latitude": 43.068331,
    "longitude": -97.130498,
    "city": "Irene",
    "state": "SD",
    "full_state": "South Dakota",
    "county": "Clay"
  },
  {
    "zip_code": 57038,
    "latitude": 42.580112,
    "longitude": -96.576256,
    "city": "Jefferson",
    "state": "SD",
    "full_state": "South Dakota",
    "county": "Union"
  },
  {
    "zip_code": 57039,
    "latitude": 43.298098,
    "longitude": -96.856021,
    "city": "Lennox",
    "state": "SD",
    "full_state": "South Dakota",
    "county": "Lincoln"
  },
  {
    "zip_code": 57040,
    "latitude": 43.06062,
    "longitude": -97.568901,
    "city": "Lesterville",
    "state": "SD",
    "full_state": "South Dakota",
    "county": "Yankton"
  },
  {
    "zip_code": 57041,
    "latitude": 43.728488,
    "longitude": -96.870928,
    "city": "Lyons",
    "state": "SD",
    "full_state": "South Dakota",
    "county": "Minnehaha"
  },
  {
    "zip_code": 57042,
    "latitude": 44.054223,
    "longitude": -97.091339,
    "city": "Madison",
    "state": "SD",
    "full_state": "South Dakota",
    "county": "Lake"
  },
  {
    "zip_code": 57043,
    "latitude": 43.292364,
    "longitude": -97.278318,
    "city": "Marion",
    "state": "SD",
    "full_state": "South Dakota",
    "county": "Turner"
  },
  {
    "zip_code": 57044,
    "latitude": 42.840984,
    "longitude": -97.091959,
    "city": "Meckling",
    "state": "SD",
    "full_state": "South Dakota",
    "county": "Clay"
  },
  {
    "zip_code": 57045,
    "latitude": 43.248825,
    "longitude": -97.538733,
    "city": "Menno",
    "state": "SD",
    "full_state": "South Dakota",
    "county": "Hutchinson"
  },
  {
    "zip_code": 57046,
    "latitude": 42.969251,
    "longitude": -97.297103,
    "city": "Mission Hill",
    "state": "SD",
    "full_state": "South Dakota",
    "county": "Yankton"
  },
  {
    "zip_code": 57047,
    "latitude": 43.489841,
    "longitude": -97.250932,
    "city": "Monroe",
    "state": "SD",
    "full_state": "South Dakota",
    "county": "Turner"
  },
  {
    "zip_code": 57048,
    "latitude": 43.696853,
    "longitude": -97.18593,
    "city": "Montrose",
    "state": "SD",
    "full_state": "South Dakota",
    "county": "Mccook"
  },
  {
    "zip_code": 57049,
    "latitude": 42.587483,
    "longitude": -96.585026,
    "city": "North Sioux City",
    "state": "SD",
    "full_state": "South Dakota",
    "county": "Union"
  },
  {
    "zip_code": 57050,
    "latitude": 44.021983,
    "longitude": -97.129455,
    "city": "Nunda",
    "state": "SD",
    "full_state": "South Dakota",
    "county": "Lake"
  },
  {
    "zip_code": 57051,
    "latitude": 44.245942,
    "longitude": -97.32031,
    "city": "Oldham",
    "state": "SD",
    "full_state": "South Dakota",
    "county": "Kingsbury"
  },
  {
    "zip_code": 57052,
    "latitude": 43.284183,
    "longitude": -97.718224,
    "city": "Olivet",
    "state": "SD",
    "full_state": "South Dakota",
    "county": "Hutchinson"
  },
  {
    "zip_code": 57053,
    "latitude": 43.399595,
    "longitude": -97.134211,
    "city": "Parker",
    "state": "SD",
    "full_state": "South Dakota",
    "county": "Turner"
  },
  {
    "zip_code": 57054,
    "latitude": 44.1186,
    "longitude": -97.215191,
    "city": "Ramona",
    "state": "SD",
    "full_state": "South Dakota",
    "county": "Lake"
  },
  {
    "zip_code": 57055,
    "latitude": 43.666979,
    "longitude": -96.760473,
    "city": "Renner",
    "state": "SD",
    "full_state": "South Dakota",
    "county": "Minnehaha"
  },
  {
    "zip_code": 57056,
    "latitude": 43.521559,
    "longitude": -96.558738,
    "city": "Rowena",
    "state": "SD",
    "full_state": "South Dakota",
    "county": "Minnehaha"
  },
  {
    "zip_code": 57057,
    "latitude": 44.021983,
    "longitude": -97.129455,
    "city": "Rutland",
    "state": "SD",
    "full_state": "South Dakota",
    "county": "Lake"
  },
  {
    "zip_code": 57058,
    "latitude": 43.639298,
    "longitude": -97.343417,
    "city": "Salem",
    "state": "SD",
    "full_state": "South Dakota",
    "county": "Mccook"
  },
  {
    "zip_code": 57059,
    "latitude": 43.024378,
    "longitude": -97.783482,
    "city": "Scotland",
    "state": "SD",
    "full_state": "South Dakota",
    "county": "Bon Homme"
  },
  {
    "zip_code": 57061,
    "latitude": 44.242764,
    "longitude": -97.018205,
    "city": "Sinai",
    "state": "SD",
    "full_state": "South Dakota",
    "county": "Brookings"
  },
  {
    "zip_code": 57062,
    "latitude": 42.881672,
    "longitude": -97.926212,
    "city": "Springfield",
    "state": "SD",
    "full_state": "South Dakota",
    "county": "Bon Homme"
  },
  {
    "zip_code": 57063,
    "latitude": 42.947515,
    "longitude": -97.714195,
    "city": "Tabor",
    "state": "SD",
    "full_state": "South Dakota",
    "county": "Bon Homme"
  },
  {
    "zip_code": 57064,
    "latitude": 43.41434,
    "longitude": -96.842783,
    "city": "Tea",
    "state": "SD",
    "full_state": "South Dakota",
    "county": "Lincoln"
  },
  {
    "zip_code": 57065,
    "latitude": 43.907616,
    "longitude": -96.653301,
    "city": "Trent",
    "state": "SD",
    "full_state": "South Dakota",
    "county": "Moody"
  },
  {
    "zip_code": 57066,
    "latitude": 42.98853,
    "longitude": -97.873263,
    "city": "Tyndall",
    "state": "SD",
    "full_state": "South Dakota",
    "county": "Bon Homme"
  },
  {
    "zip_code": 57067,
    "latitude": 43.016376,
    "longitude": -97.369385,
    "city": "Utica",
    "state": "SD",
    "full_state": "South Dakota",
    "county": "Yankton"
  },
  {
    "zip_code": 57068,
    "latitude": 43.594402,
    "longitude": -96.528511,
    "city": "Valley Springs",
    "state": "SD",
    "full_state": "South Dakota",
    "county": "Minnehaha"
  },
  {
    "zip_code": 57069,
    "latitude": 42.854124,
    "longitude": -96.973318,
    "city": "Vermillion",
    "state": "SD",
    "full_state": "South Dakota",
    "county": "Clay"
  },
  {
    "zip_code": 57070,
    "latitude": 43.188383,
    "longitude": -97.180373,
    "city": "Viborg",
    "state": "SD",
    "full_state": "South Dakota",
    "county": "Turner"
  },
  {
    "zip_code": 57071,
    "latitude": 44.369694,
    "longitude": -96.790512,
    "city": "Volga",
    "state": "SD",
    "full_state": "South Dakota",
    "county": "Brookings"
  },
  {
    "zip_code": 57072,
    "latitude": 43.002044,
    "longitude": -97.239829,
    "city": "Volin",
    "state": "SD",
    "full_state": "South Dakota",
    "county": "Yankton"
  },
  {
    "zip_code": 57073,
    "latitude": 42.996509,
    "longitude": -97.058654,
    "city": "Wakonda",
    "state": "SD",
    "full_state": "South Dakota",
    "county": "Clay"
  },
  {
    "zip_code": 57075,
    "latitude": 43.996979,
    "longitude": -96.967095,
    "city": "Wentworth",
    "state": "SD",
    "full_state": "South Dakota",
    "county": "Lake"
  },
  {
    "zip_code": 57076,
    "latitude": 44.021983,
    "longitude": -97.129455,
    "city": "Winfred",
    "state": "SD",
    "full_state": "South Dakota",
    "county": "Lake"
  },
  {
    "zip_code": 57077,
    "latitude": 43.286596,
    "longitude": -96.776784,
    "city": "Worthing",
    "state": "SD",
    "full_state": "South Dakota",
    "county": "Lincoln"
  },
  {
    "zip_code": 57078,
    "latitude": 42.94396,
    "longitude": -97.37689,
    "city": "Yankton",
    "state": "SD",
    "full_state": "South Dakota",
    "county": "Yankton"
  },
  {
    "zip_code": 57079,
    "latitude": 42.867556,
    "longitude": -97.390268,
    "city": "Yankton",
    "state": "SD",
    "full_state": "South Dakota",
    "county": "Yankton"
  },
  {
    "zip_code": 57101,
    "latitude": 43.546358,
    "longitude": -96.69063,
    "city": "Sioux Falls",
    "state": "SD",
    "full_state": "South Dakota",
    "county": "Minnehaha"
  },
  {
    "zip_code": 57103,
    "latitude": 43.548433,
    "longitude": -96.63871,
    "city": "Sioux Falls",
    "state": "SD",
    "full_state": "South Dakota",
    "county": "Minnehaha"
  },
  {
    "zip_code": 57104,
    "latitude": 43.589218,
    "longitude": -96.685294,
    "city": "Sioux Falls",
    "state": "SD",
    "full_state": "South Dakota",
    "county": "Minnehaha"
  },
  {
    "zip_code": 57105,
    "latitude": 43.518636,
    "longitude": -96.732266,
    "city": "Sioux Falls",
    "state": "SD",
    "full_state": "South Dakota",
    "county": "Minnehaha"
  },
  {
    "zip_code": 57106,
    "latitude": 43.529244,
    "longitude": -96.780065,
    "city": "Sioux Falls",
    "state": "SD",
    "full_state": "South Dakota",
    "county": "Minnehaha"
  },
  {
    "zip_code": 57107,
    "latitude": 43.600064,
    "longitude": -96.801033,
    "city": "Sioux Falls",
    "state": "SD",
    "full_state": "South Dakota",
    "county": "Minnehaha"
  },
  {
    "zip_code": 57108,
    "latitude": 43.550404,
    "longitude": -96.696878,
    "city": "Sioux Falls",
    "state": "SD",
    "full_state": "South Dakota",
    "county": "Minnehaha"
  },
  {
    "zip_code": 57109,
    "latitude": 43.674582,
    "longitude": -96.79134,
    "city": "Sioux Falls",
    "state": "SD",
    "full_state": "South Dakota",
    "county": "Minnehaha"
  },
  {
    "zip_code": 57110,
    "latitude": 43.548613,
    "longitude": -96.633203,
    "city": "Sioux Falls",
    "state": "SD",
    "full_state": "South Dakota",
    "county": "Minnehaha"
  },
  {
    "zip_code": 57115,
    "latitude": 43.521895,
    "longitude": -96.868464,
    "city": "Buffalo Ridge",
    "state": "SD",
    "full_state": "South Dakota",
    "county": "Minnehaha"
  },
  {
    "zip_code": 57117,
    "latitude": 43.674582,
    "longitude": -96.79134,
    "city": "Sioux Falls",
    "state": "SD",
    "full_state": "South Dakota",
    "county": "Minnehaha"
  },
  {
    "zip_code": 57118,
    "latitude": 43.674582,
    "longitude": -96.79134,
    "city": "Sioux Falls",
    "state": "SD",
    "full_state": "South Dakota",
    "county": "Minnehaha"
  },
  {
    "zip_code": 57186,
    "latitude": 43.544455,
    "longitude": -96.723779,
    "city": "Sioux Falls",
    "state": "SD",
    "full_state": "South Dakota",
    "county": "Minnehaha"
  },
  {
    "zip_code": 57188,
    "latitude": 43.674582,
    "longitude": -96.79134,
    "city": "Sioux Falls",
    "state": "SD",
    "full_state": "South Dakota",
    "county": "Minnehaha"
  },
  {
    "zip_code": 57189,
    "latitude": 43.674582,
    "longitude": -96.79134,
    "city": "Sioux Falls",
    "state": "SD",
    "full_state": "South Dakota",
    "county": "Minnehaha"
  },
  {
    "zip_code": 57192,
    "latitude": 43.674582,
    "longitude": -96.79134,
    "city": "Sioux Falls",
    "state": "SD",
    "full_state": "South Dakota",
    "county": "Minnehaha"
  },
  {
    "zip_code": 57193,
    "latitude": 43.674582,
    "longitude": -96.79134,
    "city": "Sioux Falls",
    "state": "SD",
    "full_state": "South Dakota",
    "county": "Minnehaha"
  },
  {
    "zip_code": 57194,
    "latitude": 43.674582,
    "longitude": -96.79134,
    "city": "Sioux Falls",
    "state": "SD",
    "full_state": "South Dakota",
    "county": "Minnehaha"
  },
  {
    "zip_code": 57195,
    "latitude": 43.674582,
    "longitude": -96.79134,
    "city": "Sioux Falls",
    "state": "SD",
    "full_state": "South Dakota",
    "county": "Minnehaha"
  },
  {
    "zip_code": 57196,
    "latitude": 43.674582,
    "longitude": -96.79134,
    "city": "Sioux Falls",
    "state": "SD",
    "full_state": "South Dakota",
    "county": "Minnehaha"
  },
  {
    "zip_code": 57197,
    "latitude": 43.674582,
    "longitude": -96.79134,
    "city": "Sioux Falls",
    "state": "SD",
    "full_state": "South Dakota",
    "county": "Minnehaha"
  },
  {
    "zip_code": 57198,
    "latitude": 43.674582,
    "longitude": -96.79134,
    "city": "Sioux Falls",
    "state": "SD",
    "full_state": "South Dakota",
    "county": "Minnehaha"
  },
  {
    "zip_code": 57201,
    "latitude": 44.955643,
    "longitude": -97.177954,
    "city": "Watertown",
    "state": "SD",
    "full_state": "South Dakota",
    "county": "Codington"
  },
  {
    "zip_code": 57202,
    "latitude": 44.977634,
    "longitude": -97.188372,
    "city": "Waverly",
    "state": "SD",
    "full_state": "South Dakota",
    "county": "Codington"
  },
  {
    "zip_code": 57212,
    "latitude": 44.368264,
    "longitude": -97.246086,
    "city": "Arlington",
    "state": "SD",
    "full_state": "South Dakota",
    "county": "Kingsbury"
  },
  {
    "zip_code": 57213,
    "latitude": 44.562302,
    "longitude": -96.591264,
    "city": "Astoria",
    "state": "SD",
    "full_state": "South Dakota",
    "county": "Deuel"
  },
  {
    "zip_code": 57214,
    "latitude": 44.484381,
    "longitude": -97.209173,
    "city": "Badger",
    "state": "SD",
    "full_state": "South Dakota",
    "county": "Kingsbury"
  },
  {
    "zip_code": 57216,
    "latitude": 45.170552,
    "longitude": -96.534574,
    "city": "Big Stone City",
    "state": "SD",
    "full_state": "South Dakota",
    "county": "Grant"
  },
  {
    "zip_code": 57217,
    "latitude": 44.90626,
    "longitude": -97.708049,
    "city": "Bradley",
    "state": "SD",
    "full_state": "South Dakota",
    "county": "Clark"
  },
  {
    "zip_code": 57218,
    "latitude": 44.76048,
    "longitude": -96.668424,
    "city": "Brandt",
    "state": "SD",
    "full_state": "South Dakota",
    "county": "Deuel"
  },
  {
    "zip_code": 57219,
    "latitude": 45.319218,
    "longitude": -97.637812,
    "city": "Bristol",
    "state": "SD",
    "full_state": "South Dakota",
    "county": "Day"
  },
  {
    "zip_code": 57220,
    "latitude": 44.456735,
    "longitude": -96.89302,
    "city": "Bruce",
    "state": "SD",
    "full_state": "South Dakota",
    "county": "Brookings"
  },
  {
    "zip_code": 57221,
    "latitude": 44.590094,
    "longitude": -97.466776,
    "city": "Bryant",
    "state": "SD",
    "full_state": "South Dakota",
    "county": "Hamlin"
  },
  {
    "zip_code": 57223,
    "latitude": 44.65665,
    "longitude": -97.116149,
    "city": "Castlewood",
    "state": "SD",
    "full_state": "South Dakota",
    "county": "Hamlin"
  },
  {
    "zip_code": 57224,
    "latitude": 45.616422,
    "longitude": -96.849416,
    "city": "Claire City",
    "state": "SD",
    "full_state": "South Dakota",
    "county": "Roberts"
  },
  {
    "zip_code": 57225,
    "latitude": 44.891983,
    "longitude": -97.832972,
    "city": "Clark",
    "state": "SD",
    "full_state": "South Dakota",
    "county": "Clark"
  },
  {
    "zip_code": 57226,
    "latitude": 44.761249,
    "longitude": -96.690651,
    "city": "Clear Lake",
    "state": "SD",
    "full_state": "South Dakota",
    "county": "Deuel"
  },
  {
    "zip_code": 57227,
    "latitude": 45.616422,
    "longitude": -96.849416,
    "city": "Corona",
    "state": "SD",
    "full_state": "South Dakota",
    "county": "Roberts"
  },
  {
    "zip_code": 57231,
    "latitude": 44.369482,
    "longitude": -97.542049,
    "city": "De Smet",
    "state": "SD",
    "full_state": "South Dakota",
    "county": "Kingsbury"
  },
  {
    "zip_code": 57232,
    "latitude": 45.631054,
    "longitude": -97.40057,
    "city": "Eden",
    "state": "SD",
    "full_state": "South Dakota",
    "county": "Marshall"
  },
  {
    "zip_code": 57233,
    "latitude": 44.470856,
    "longitude": -97.370412,
    "city": "Erwin",
    "state": "SD",
    "full_state": "South Dakota",
    "county": "Kingsbury"
  },
  {
    "zip_code": 57234,
    "latitude": 44.673762,
    "longitude": -97.188324,
    "city": "Estelline",
    "state": "SD",
    "full_state": "South Dakota",
    "county": "Hamlin"
  },
  {
    "zip_code": 57235,
    "latitude": 45.015481,
    "longitude": -97.306014,
    "city": "Florence",
    "state": "SD",
    "full_state": "South Dakota",
    "county": "Codington"
  },
  {
    "zip_code": 57236,
    "latitude": 44.848565,
    "longitude": -97.737227,
    "city": "Garden City",
    "state": "SD",
    "full_state": "South Dakota",
    "county": "Clark"
  },
  {
    "zip_code": 57237,
    "latitude": 44.792302,
    "longitude": -96.45927,
    "city": "Gary",
    "state": "SD",
    "full_state": "South Dakota",
    "county": "Deuel"
  },
  {
    "zip_code": 57238,
    "latitude": 44.76048,
    "longitude": -96.668424,
    "city": "Goodwin",
    "state": "SD",
    "full_state": "South Dakota",
    "county": "Deuel"
  },
  {
    "zip_code": 57239,
    "latitude": 45.369855,
    "longitude": -97.603949,
    "city": "Grenville",
    "state": "SD",
    "full_state": "South Dakota",
    "county": "Day"
  },
  {
    "zip_code": 57241,
    "latitude": 44.657338,
    "longitude": -97.20497,
    "city": "Hayti",
    "state": "SD",
    "full_state": "South Dakota",
    "county": "Hamlin"
  },
  {
    "zip_code": 57242,
    "latitude": 44.759144,
    "longitude": -97.381575,
    "city": "Hazel",
    "state": "SD",
    "full_state": "South Dakota",
    "county": "Hamlin"
  },
  {
    "zip_code": 57243,
    "latitude": 44.929255,
    "longitude": -97.391955,
    "city": "Henry",
    "state": "SD",
    "full_state": "South Dakota",
    "county": "Codington"
  },
  {
    "zip_code": 57244,
    "latitude": 44.425409,
    "longitude": -97.289881,
    "city": "Hetland",
    "state": "SD",
    "full_state": "South Dakota",
    "county": "Kingsbury"
  },
  {
    "zip_code": 57245,
    "latitude": 44.892254,
    "longitude": -96.917412,
    "city": "Kranzburg",
    "state": "SD",
    "full_state": "South Dakota",
    "county": "Codington"
  },
  {
    "zip_code": 57246,
    "latitude": 45.115408,
    "longitude": -96.670622,
    "city": "Labolt",
    "state": "SD",
    "full_state": "South Dakota",
    "county": "Grant"
  },
  {
    "zip_code": 57247,
    "latitude": 45.717904,
    "longitude": -97.470748,
    "city": "Lake City",
    "state": "SD",
    "full_state": "South Dakota",
    "county": "Marshall"
  },
  {
    "zip_code": 57248,
    "latitude": 44.588234,
    "longitude": -97.142872,
    "city": "Lake Norden",
    "state": "SD",
    "full_state": "South Dakota",
    "county": "Hamlin"
  },
  {
    "zip_code": 57249,
    "latitude": 44.369159,
    "longitude": -97.382824,
    "city": "Lake Preston",
    "state": "SD",
    "full_state": "South Dakota",
    "county": "Kingsbury"
  },
  {
    "zip_code": 57251,
    "latitude": 45.274296,
    "longitude": -96.942159,
    "city": "Marvin",
    "state": "SD",
    "full_state": "South Dakota",
    "county": "Grant"
  },
  {
    "zip_code": 57252,
    "latitude": 45.171617,
    "longitude": -96.629203,
    "city": "Milbank",
    "state": "SD",
    "full_state": "South Dakota",
    "county": "Grant"
  },
  {
    "zip_code": 57253,
    "latitude": 45.151477,
    "longitude": -96.839235,
    "city": "Milbank",
    "state": "SD",
    "full_state": "South Dakota",
    "county": "Grant"
  },
  {
    "zip_code": 57255,
    "latitude": 45.616422,
    "longitude": -96.849416,
    "city": "New Effington",
    "state": "SD",
    "full_state": "South Dakota",
    "county": "Roberts"
  },
  {
    "zip_code": 57256,
    "latitude": 45.616422,
    "longitude": -96.849416,
    "city": "Ortley",
    "state": "SD",
    "full_state": "South Dakota",
    "county": "Roberts"
  },
  {
    "zip_code": 57257,
    "latitude": 45.542151,
    "longitude": -96.951675,
    "city": "Peever",
    "state": "SD",
    "full_state": "South Dakota",
    "county": "Roberts"
  },
  {
    "zip_code": 57258,
    "latitude": 44.910756,
    "longitude": -97.939298,
    "city": "Raymond",
    "state": "SD",
    "full_state": "South Dakota",
    "county": "Clark"
  },
  {
    "zip_code": 57259,
    "latitude": 45.080517,
    "longitude": -96.555664,
    "city": "Revillo",
    "state": "SD",
    "full_state": "South Dakota",
    "county": "Grant"
  },
  {
    "zip_code": 57260,
    "latitude": 45.616422,
    "longitude": -96.849416,
    "city": "Rosholt",
    "state": "SD",
    "full_state": "South Dakota",
    "county": "Roberts"
  },
  {
    "zip_code": 57261,
    "latitude": 45.369855,
    "longitude": -97.603949,
    "city": "Roslyn",
    "state": "SD",
    "full_state": "South Dakota",
    "county": "Day"
  },
  {
    "zip_code": 57262,
    "latitude": 45.541443,
    "longitude": -96.970202,
    "city": "Sisseton",
    "state": "SD",
    "full_state": "South Dakota",
    "county": "Roberts"
  },
  {
    "zip_code": 57263,
    "latitude": 45.100745,
    "longitude": -97.036356,
    "city": "South Shore",
    "state": "SD",
    "full_state": "South Dakota",
    "county": "Codington"
  },
  {
    "zip_code": 57264,
    "latitude": 45.106694,
    "longitude": -96.802259,
    "city": "Stockholm",
    "state": "SD",
    "full_state": "South Dakota",
    "county": "Grant"
  },
  {
    "zip_code": 57265,
    "latitude": 45.021579,
    "longitude": -96.74078,
    "city": "Strandburg",
    "state": "SD",
    "full_state": "South Dakota",
    "county": "Grant"
  },
  {
    "zip_code": 57266,
    "latitude": 45.30204,
    "longitude": -97.036537,
    "city": "Summit",
    "state": "SD",
    "full_state": "South Dakota",
    "county": "Roberts"
  },
  {
    "zip_code": 57268,
    "latitude": 44.567419,
    "longitude": -96.59444,
    "city": "Toronto",
    "state": "SD",
    "full_state": "South Dakota",
    "county": "Deuel"
  },
  {
    "zip_code": 57269,
    "latitude": 45.230876,
    "longitude": -96.823706,
    "city": "Twin Brooks",
    "state": "SD",
    "full_state": "South Dakota",
    "county": "Grant"
  },
  {
    "zip_code": 57270,
    "latitude": 45.849458,
    "longitude": -97.376617,
    "city": "Veblen",
    "state": "SD",
    "full_state": "South Dakota",
    "county": "Marshall"
  },
  {
    "zip_code": 57271,
    "latitude": 44.848565,
    "longitude": -97.737227,
    "city": "Vienna",
    "state": "SD",
    "full_state": "South Dakota",
    "county": "Clark"
  },
  {
    "zip_code": 57272,
    "latitude": 45.093607,
    "longitude": -97.453149,
    "city": "Wallace",
    "state": "SD",
    "full_state": "South Dakota",
    "county": "Codington"
  },
  {
    "zip_code": 57273,
    "latitude": 45.332568,
    "longitude": -97.307239,
    "city": "Waubay",
    "state": "SD",
    "full_state": "South Dakota",
    "county": "Day"
  },
  {
    "zip_code": 57274,
    "latitude": 45.31506,
    "longitude": -97.525395,
    "city": "Webster",
    "state": "SD",
    "full_state": "South Dakota",
    "county": "Day"
  },
  {
    "zip_code": 57276,
    "latitude": 44.405596,
    "longitude": -96.599788,
    "city": "White",
    "state": "SD",
    "full_state": "South Dakota",
    "county": "Brookings"
  },
  {
    "zip_code": 57278,
    "latitude": 44.659815,
    "longitude": -97.573152,
    "city": "Willow Lake",
    "state": "SD",
    "full_state": "South Dakota",
    "county": "Clark"
  },
  {
    "zip_code": 57279,
    "latitude": 45.39857,
    "longitude": -96.832256,
    "city": "Wilmot",
    "state": "SD",
    "full_state": "South Dakota",
    "county": "Roberts"
  },
  {
    "zip_code": 57301,
    "latitude": 43.69591,
    "longitude": -98.086401,
    "city": "Mitchell",
    "state": "SD",
    "full_state": "South Dakota",
    "county": "Davison"
  },
  {
    "zip_code": 57311,
    "latitude": 43.66844,
    "longitude": -97.75632,
    "city": "Alexandria",
    "state": "SD",
    "full_state": "South Dakota",
    "county": "Hanson"
  },
  {
    "zip_code": 57312,
    "latitude": 44.122811,
    "longitude": -98.412198,
    "city": "Alpena",
    "state": "SD",
    "full_state": "South Dakota",
    "county": "Jerauld"
  },
  {
    "zip_code": 57313,
    "latitude": 43.341035,
    "longitude": -98.398964,
    "city": "Armour",
    "state": "SD",
    "full_state": "South Dakota",
    "county": "Douglas"
  },
  {
    "zip_code": 57314,
    "latitude": 44.020961,
    "longitude": -98.01144,
    "city": "Artesian",
    "state": "SD",
    "full_state": "South Dakota",
    "county": "Sanborn"
  },
  {
    "zip_code": 57315,
    "latitude": 42.988284,
    "longitude": -97.878579,
    "city": "Avon",
    "state": "SD",
    "full_state": "South Dakota",
    "county": "Bon Homme"
  },
  {
    "zip_code": 57317,
    "latitude": 43.248832,
    "longitude": -99.016376,
    "city": "Bonesteel",
    "state": "SD",
    "full_state": "South Dakota",
    "county": "Gregory"
  },
  {
    "zip_code": 57319,
    "latitude": 43.550264,
    "longitude": -97.469058,
    "city": "Bridgewater",
    "state": "SD",
    "full_state": "South Dakota",
    "county": "Mccook"
  },
  {
    "zip_code": 57321,
    "latitude": 43.892123,
    "longitude": -97.540053,
    "city": "Canova",
    "state": "SD",
    "full_state": "South Dakota",
    "county": "Miner"
  },
  {
    "zip_code": 57322,
    "latitude": 44.848565,
    "longitude": -97.737227,
    "city": "Carpenter",
    "state": "SD",
    "full_state": "South Dakota",
    "county": "Clark"
  },
  {
    "zip_code": 57323,
    "latitude": 44.138176,
    "longitude": -97.720661,
    "city": "Carthage",
    "state": "SD",
    "full_state": "South Dakota",
    "county": "Miner"
  },
  {
    "zip_code": 57324,
    "latitude": 44.325314,
    "longitude": -98.013968,
    "city": "Cavour",
    "state": "SD",
    "full_state": "South Dakota",
    "county": "Beadle"
  },
  {
    "zip_code": 57325,
    "latitude": 43.772585,
    "longitude": -99.149806,
    "city": "Chamberlain",
    "state": "SD",
    "full_state": "South Dakota",
    "county": "Brule"
  },
  {
    "zip_code": 57326,
    "latitude": 43.71725,
    "longitude": -99.131736,
    "city": "Chamberlain",
    "state": "SD",
    "full_state": "South Dakota",
    "county": "Brule"
  },
  {
    "zip_code": 57328,
    "latitude": 43.420306,
    "longitude": -98.439859,
    "city": "Corsica",
    "state": "SD",
    "full_state": "South Dakota",
    "county": "Douglas"
  },
  {
    "zip_code": 57329,
    "latitude": 42.984707,
    "longitude": -98.175204,
    "city": "Dante",
    "state": "SD",
    "full_state": "South Dakota",
    "county": "Charles Mix"
  },
  {
    "zip_code": 57330,
    "latitude": 43.290614,
    "longitude": -98.178372,
    "city": "Delmont",
    "state": "SD",
    "full_state": "South Dakota",
    "county": "Douglas"
  },
  {
    "zip_code": 57331,
    "latitude": 43.470444,
    "longitude": -97.999352,
    "city": "Dimock",
    "state": "SD",
    "full_state": "South Dakota",
    "county": "Hutchinson"
  },
  {
    "zip_code": 57332,
    "latitude": 43.586451,
    "longitude": -97.65539,
    "city": "Emery",
    "state": "SD",
    "full_state": "South Dakota",
    "county": "Hanson"
  },
  {
    "zip_code": 57334,
    "latitude": 43.59997,
    "longitude": -98.074101,
    "city": "Ethan",
    "state": "SD",
    "full_state": "South Dakota",
    "county": "Davison"
  },
  {
    "zip_code": 57335,
    "latitude": 43.248832,
    "longitude": -99.016376,
    "city": "Fairfax",
    "state": "SD",
    "full_state": "South Dakota",
    "county": "Gregory"
  },
  {
    "zip_code": 57337,
    "latitude": 44.001852,
    "longitude": -97.750838,
    "city": "Fedora",
    "state": "SD",
    "full_state": "South Dakota",
    "county": "Miner"
  },
  {
    "zip_code": 57339,
    "latitude": 44.064873,
    "longitude": -99.251509,
    "city": "Fort Thompson",
    "state": "SD",
    "full_state": "South Dakota",
    "county": "Buffalo"
  },
  {
    "zip_code": 57340,
    "latitude": 43.762939,
    "longitude": -97.869025,
    "city": "Fulton",
    "state": "SD",
    "full_state": "South Dakota",
    "county": "Hanson"
  },
  {
    "zip_code": 57341,
    "latitude": 44.064873,
    "longitude": -99.251509,
    "city": "Gann Valley",
    "state": "SD",
    "full_state": "South Dakota",
    "county": "Buffalo"
  },
  {
    "zip_code": 57342,
    "latitude": 43.251263,
    "longitude": -98.736404,
    "city": "Geddes",
    "state": "SD",
    "full_state": "South Dakota",
    "county": "Charles Mix"
  },
  {
    "zip_code": 57344,
    "latitude": 43.409186,
    "longitude": -98.528068,
    "city": "Harrison",
    "state": "SD",
    "full_state": "South Dakota",
    "county": "Douglas"
  },
  {
    "zip_code": 57345,
    "latitude": 44.574651,
    "longitude": -99.486417,
    "city": "Highmore",
    "state": "SD",
    "full_state": "South Dakota",
    "county": "Hyde"
  },
  {
    "zip_code": 57346,
    "latitude": 44.545094,
    "longitude": -99.488221,
    "city": "Stephan",
    "state": "SD",
    "full_state": "South Dakota",
    "county": "Hyde"
  },
  {
    "zip_code": 57348,
    "latitude": 44.567404,
    "longitude": -98.406424,
    "city": "Hitchcock",
    "state": "SD",
    "full_state": "South Dakota",
    "county": "Beadle"
  },
  {
    "zip_code": 57349,
    "latitude": 44.037102,
    "longitude": -97.56034,
    "city": "Howard",
    "state": "SD",
    "full_state": "South Dakota",
    "county": "Miner"
  },
  {
    "zip_code": 57350,
    "latitude": 44.398874,
    "longitude": -98.180113,
    "city": "Huron",
    "state": "SD",
    "full_state": "South Dakota",
    "county": "Beadle"
  },
  {
    "zip_code": 57353,
    "latitude": 44.369593,
    "longitude": -97.652194,
    "city": "Iroquois",
    "state": "SD",
    "full_state": "South Dakota",
    "county": "Kingsbury"
  },
  {
    "zip_code": 57354,
    "latitude": 43.334069,
    "longitude": -97.756924,
    "city": "Kaylor",
    "state": "SD",
    "full_state": "South Dakota",
    "county": "Hutchinson"
  },
  {
    "zip_code": 57355,
    "latitude": 43.744477,
    "longitude": -98.95381,
    "city": "Kimball",
    "state": "SD",
    "full_state": "South Dakota",
    "county": "Brule"
  },
  {
    "zip_code": 57356,
    "latitude": 43.147572,
    "longitude": -98.527479,
    "city": "Lake Andes",
    "state": "SD",
    "full_state": "South Dakota",
    "county": "Charles Mix"
  },
  {
    "zip_code": 57357,
    "latitude": 43.136365,
    "longitude": -98.427173,
    "city": "Ravinia",
    "state": "SD",
    "full_state": "South Dakota",
    "county": "Charles Mix"
  },
  {
    "zip_code": 57358,
    "latitude": 44.069628,
    "longitude": -98.425228,
    "city": "Lane",
    "state": "SD",
    "full_state": "South Dakota",
    "county": "Jerauld"
  },
  {
    "zip_code": 57359,
    "latitude": 43.953471,
    "longitude": -98.151193,
    "city": "Letcher",
    "state": "SD",
    "full_state": "South Dakota",
    "county": "Sanborn"
  },
  {
    "zip_code": 57361,
    "latitude": 43.01957,
    "longitude": -98.446929,
    "city": "Marty",
    "state": "SD",
    "full_state": "South Dakota",
    "county": "Charles Mix"
  },
  {
    "zip_code": 57362,
    "latitude": 44.480979,
    "longitude": -99.062766,
    "city": "Miller",
    "state": "SD",
    "full_state": "South Dakota",
    "county": "Hand"
  },
  {
    "zip_code": 57363,
    "latitude": 43.674994,
    "longitude": -98.164483,
    "city": "Mount Vernon",
    "state": "SD",
    "full_state": "South Dakota",
    "county": "Davison"
  },
  {
    "zip_code": 57364,
    "latitude": 43.427358,
    "longitude": -98.608778,
    "city": "New Holland",
    "state": "SD",
    "full_state": "South Dakota",
    "county": "Douglas"
  },
  {
    "zip_code": 57365,
    "latitude": 43.797502,
    "longitude": -99.394735,
    "city": "Oacoma",
    "state": "SD",
    "full_state": "South Dakota",
    "county": "Lyman"
  },
  {
    "zip_code": 57366,
    "latitude": 43.383849,
    "longitude": -97.915618,
    "city": "Parkston",
    "state": "SD",
    "full_state": "South Dakota",
    "county": "Hutchinson"
  },
  {
    "zip_code": 57367,
    "latitude": 43.067306,
    "longitude": -98.522951,
    "city": "Pickstown",
    "state": "SD",
    "full_state": "South Dakota",
    "county": "Charles Mix"
  },
  {
    "zip_code": 57368,
    "latitude": 43.746753,
    "longitude": -98.518533,
    "city": "Plankinton",
    "state": "SD",
    "full_state": "South Dakota",
    "county": "Aurora"
  },
  {
    "zip_code": 57369,
    "latitude": 43.2916,
    "longitude": -98.767186,
    "city": "Platte",
    "state": "SD",
    "full_state": "South Dakota",
    "county": "Charles Mix"
  },
  {
    "zip_code": 57370,
    "latitude": 43.776542,
    "longitude": -99.186931,
    "city": "Pukwana",
    "state": "SD",
    "full_state": "South Dakota",
    "county": "Brule"
  },
  {
    "zip_code": 57371,
    "latitude": 44.422833,
    "longitude": -99.218556,
    "city": "Ree Heights",
    "state": "SD",
    "full_state": "South Dakota",
    "county": "Hand"
  },
  {
    "zip_code": 57373,
    "latitude": 44.495497,
    "longitude": -98.869647,
    "city": "Saint Lawrence",
    "state": "SD",
    "full_state": "South Dakota",
    "county": "Hand"
  },
  {
    "zip_code": 57374,
    "latitude": 43.723565,
    "longitude": -97.581441,
    "city": "Spencer",
    "state": "SD",
    "full_state": "South Dakota",
    "county": "Mccook"
  },
  {
    "zip_code": 57375,
    "latitude": 43.571628,
    "longitude": -98.498361,
    "city": "Stickney",
    "state": "SD",
    "full_state": "South Dakota",
    "county": "Aurora"
  },
  {
    "zip_code": 57376,
    "latitude": 43.24846,
    "longitude": -97.923502,
    "city": "Tripp",
    "state": "SD",
    "full_state": "South Dakota",
    "county": "Hutchinson"
  },
  {
    "zip_code": 57379,
    "latitude": 44.283816,
    "longitude": -98.50273,
    "city": "Virgil",
    "state": "SD",
    "full_state": "South Dakota",
    "county": "Beadle"
  },
  {
    "zip_code": 57380,
    "latitude": 43.034725,
    "longitude": -98.315504,
    "city": "Wagner",
    "state": "SD",
    "full_state": "South Dakota",
    "county": "Charles Mix"
  },
  {
    "zip_code": 57381,
    "latitude": 44.415437,
    "longitude": -98.642453,
    "city": "Wessington",
    "state": "SD",
    "full_state": "South Dakota",
    "county": "Beadle"
  },
  {
    "zip_code": 57382,
    "latitude": 44.066415,
    "longitude": -98.675133,
    "city": "Wessington Springs",
    "state": "SD",
    "full_state": "South Dakota",
    "county": "Jerauld"
  },
  {
    "zip_code": 57383,
    "latitude": 43.714955,
    "longitude": -98.644922,
    "city": "White Lake",
    "state": "SD",
    "full_state": "South Dakota",
    "county": "Aurora"
  },
  {
    "zip_code": 57384,
    "latitude": 44.44945,
    "longitude": -98.487894,
    "city": "Wolsey",
    "state": "SD",
    "full_state": "South Dakota",
    "county": "Beadle"
  },
  {
    "zip_code": 57385,
    "latitude": 44.04271,
    "longitude": -98.231397,
    "city": "Woonsocket",
    "state": "SD",
    "full_state": "South Dakota",
    "county": "Sanborn"
  },
  {
    "zip_code": 57386,
    "latitude": 44.522526,
    "longitude": -98.040081,
    "city": "Yale",
    "state": "SD",
    "full_state": "South Dakota",
    "county": "Beadle"
  },
  {
    "zip_code": 57399,
    "latitude": 44.414319,
    "longitude": -98.279548,
    "city": "Huron",
    "state": "SD",
    "full_state": "South Dakota",
    "county": "Beadle"
  },
  {
    "zip_code": 57401,
    "latitude": 45.476172,
    "longitude": -98.410405,
    "city": "Aberdeen",
    "state": "SD",
    "full_state": "South Dakota",
    "county": "Brown"
  },
  {
    "zip_code": 57402,
    "latitude": 45.589567,
    "longitude": -98.352014,
    "city": "Aberdeen",
    "state": "SD",
    "full_state": "South Dakota",
    "county": "Brown"
  },
  {
    "zip_code": 57420,
    "latitude": 45.29069,
    "longitude": -99.991823,
    "city": "Akaska",
    "state": "SD",
    "full_state": "South Dakota",
    "county": "Walworth"
  },
  {
    "zip_code": 57421,
    "latitude": 45.758528,
    "longitude": -97.927389,
    "city": "Amherst",
    "state": "SD",
    "full_state": "South Dakota",
    "county": "Marshall"
  },
  {
    "zip_code": 57422,
    "latitude": 45.369855,
    "longitude": -97.603949,
    "city": "Andover",
    "state": "SD",
    "full_state": "South Dakota",
    "county": "Day"
  },
  {
    "zip_code": 57424,
    "latitude": 45.046485,
    "longitude": -98.397319,
    "city": "Ashton",
    "state": "SD",
    "full_state": "South Dakota",
    "county": "Spink"
  },
  {
    "zip_code": 57426,
    "latitude": 45.735409,
    "longitude": -98.569848,
    "city": "Barnard",
    "state": "SD",
    "full_state": "South Dakota",
    "county": "Brown"
  },
  {
    "zip_code": 57427,
    "latitude": 45.626851,
    "longitude": -98.270454,
    "city": "Bath",
    "state": "SD",
    "full_state": "South Dakota",
    "county": "Brown"
  },
  {
    "zip_code": 57428,
    "latitude": 45.469377,
    "longitude": -99.595667,
    "city": "Bowdle",
    "state": "SD",
    "full_state": "South Dakota",
    "county": "Edmunds"
  },
  {
    "zip_code": 57429,
    "latitude": 45.163452,
    "longitude": -98.319296,
    "city": "Brentford",
    "state": "SD",
    "full_state": "South Dakota",
    "county": "Spink"
  },
  {
    "zip_code": 57430,
    "latitude": 45.761704,
    "longitude": -97.72957,
    "city": "Britton",
    "state": "SD",
    "full_state": "South Dakota",
    "county": "Marshall"
  },
  {
    "zip_code": 57432,
    "latitude": 45.682867,
    "longitude": -98.051948,
    "city": "Claremont",
    "state": "SD",
    "full_state": "South Dakota",
    "county": "Brown"
  },
  {
    "zip_code": 57433,
    "latitude": 45.537847,
    "longitude": -98.339885,
    "city": "Columbia",
    "state": "SD",
    "full_state": "South Dakota",
    "county": "Brown"
  },
  {
    "zip_code": 57434,
    "latitude": 45.139317,
    "longitude": -98.15339,
    "city": "Conde",
    "state": "SD",
    "full_state": "South Dakota",
    "county": "Spink"
  },
  {
    "zip_code": 57435,
    "latitude": 45.136245,
    "longitude": -98.915424,
    "city": "Cresbard",
    "state": "SD",
    "full_state": "South Dakota",
    "county": "Faulk"
  },
  {
    "zip_code": 57436,
    "latitude": 44.846523,
    "longitude": -98.10236,
    "city": "Doland",
    "state": "SD",
    "full_state": "South Dakota",
    "county": "Spink"
  },
  {
    "zip_code": 57437,
    "latitude": 45.77074,
    "longitude": -99.330778,
    "city": "Eureka",
    "state": "SD",
    "full_state": "South Dakota",
    "county": "Mcpherson"
  },
  {
    "zip_code": 57438,
    "latitude": 45.085504,
    "longitude": -99.195418,
    "city": "Faulkton",
    "state": "SD",
    "full_state": "South Dakota",
    "county": "Faulk"
  },
  {
    "zip_code": 57439,
    "latitude": 45.32904,
    "longitude": -98.083721,
    "city": "Ferney",
    "state": "SD",
    "full_state": "South Dakota",
    "county": "Brown"
  },
  {
    "zip_code": 57440,
    "latitude": 44.870365,
    "longitude": -98.225875,
    "city": "Frankfort",
    "state": "SD",
    "full_state": "South Dakota",
    "county": "Spink"
  },
  {
    "zip_code": 57441,
    "latitude": 45.693116,
    "longitude": -98.368918,
    "city": "Frederick",
    "state": "SD",
    "full_state": "South Dakota",
    "county": "Brown"
  },
  {
    "zip_code": 57442,
    "latitude": 45.033588,
    "longitude": -100.035273,
    "city": "Gettysburg",
    "state": "SD",
    "full_state": "South Dakota",
    "county": "Potter"
  },
  {
    "zip_code": 57445,
    "latitude": 45.589027,
    "longitude": -98.245639,
    "city": "Groton",
    "state": "SD",
    "full_state": "South Dakota",
    "county": "Brown"
  },
  {
    "zip_code": 57446,
    "latitude": 45.849431,
    "longitude": -98.157861,
    "city": "Hecla",
    "state": "SD",
    "full_state": "South Dakota",
    "county": "Brown"
  },
  {
    "zip_code": 57448,
    "latitude": 45.552579,
    "longitude": -99.461653,
    "city": "Hosmer",
    "state": "SD",
    "full_state": "South Dakota",
    "county": "Edmunds"
  },
  {
    "zip_code": 57449,
    "latitude": 45.60711,
    "longitude": -98.170069,
    "city": "Houghton",
    "state": "SD",
    "full_state": "South Dakota",
    "county": "Brown"
  },
  {
    "zip_code": 57450,
    "latitude": 45.241265,
    "longitude": -99.777259,
    "city": "Hoven",
    "state": "SD",
    "full_state": "South Dakota",
    "county": "Potter"
  },
  {
    "zip_code": 57451,
    "latitude": 45.421905,
    "longitude": -99.258683,
    "city": "Ipswich",
    "state": "SD",
    "full_state": "South Dakota",
    "county": "Edmunds"
  },
  {
    "zip_code": 57452,
    "latitude": 45.449196,
    "longitude": -99.821987,
    "city": "Java",
    "state": "SD",
    "full_state": "South Dakota",
    "county": "Walworth"
  },
  {
    "zip_code": 57454,
    "latitude": 45.692919,
    "longitude": -97.768102,
    "city": "Langford",
    "state": "SD",
    "full_state": "South Dakota",
    "county": "Marshall"
  },
  {
    "zip_code": 57455,
    "latitude": 45.072088,
    "longitude": -99.998438,
    "city": "Lebanon",
    "state": "SD",
    "full_state": "South Dakota",
    "county": "Potter"
  },
  {
    "zip_code": 57456,
    "latitude": 45.773436,
    "longitude": -98.983305,
    "city": "Leola",
    "state": "SD",
    "full_state": "South Dakota",
    "county": "Mcpherson"
  },
  {
    "zip_code": 57457,
    "latitude": 45.882332,
    "longitude": -99.169825,
    "city": "Longlake",
    "state": "SD",
    "full_state": "South Dakota",
    "county": "Mcpherson"
  },
  {
    "zip_code": 57460,
    "latitude": 45.22295,
    "longitude": -98.599388,
    "city": "Mansfield",
    "state": "SD",
    "full_state": "South Dakota",
    "county": "Spink"
  },
  {
    "zip_code": 57461,
    "latitude": 45.155829,
    "longitude": -98.426714,
    "city": "Mellette",
    "state": "SD",
    "full_state": "South Dakota",
    "county": "Spink"
  },
  {
    "zip_code": 57462,
    "latitude": 45.404015,
    "longitude": -98.806895,
    "city": "Mina",
    "state": "SD",
    "full_state": "South Dakota",
    "county": "Edmunds"
  },
  {
    "zip_code": 57465,
    "latitude": 45.125985,
    "longitude": -98.625836,
    "city": "Northville",
    "state": "SD",
    "full_state": "South Dakota",
    "county": "Spink"
  },
  {
    "zip_code": 57466,
    "latitude": 45.180068,
    "longitude": -99.46426,
    "city": "Onaka",
    "state": "SD",
    "full_state": "South Dakota",
    "county": "Faulk"
  },
  {
    "zip_code": 57467,
    "latitude": 44.911775,
    "longitude": -99.073204,
    "city": "Orient",
    "state": "SD",
    "full_state": "South Dakota",
    "county": "Faulk"
  },
  {
    "zip_code": 57468,
    "latitude": 45.369855,
    "longitude": -97.603949,
    "city": "Pierpont",
    "state": "SD",
    "full_state": "South Dakota",
    "county": "Day"
  },
  {
    "zip_code": 57469,
    "latitude": 44.954101,
    "longitude": -98.406878,
    "city": "Redfield",
    "state": "SD",
    "full_state": "South Dakota",
    "county": "Spink"
  },
  {
    "zip_code": 57470,
    "latitude": 45.033056,
    "longitude": -98.882787,
    "city": "Rockham",
    "state": "SD",
    "full_state": "South Dakota",
    "county": "Faulk"
  },
  {
    "zip_code": 57471,
    "latitude": 45.419289,
    "longitude": -99.346593,
    "city": "Roscoe",
    "state": "SD",
    "full_state": "South Dakota",
    "county": "Edmunds"
  },
  {
    "zip_code": 57472,
    "latitude": 45.434632,
    "longitude": -100.098171,
    "city": "Selby",
    "state": "SD",
    "full_state": "South Dakota",
    "county": "Walworth"
  },
  {
    "zip_code": 57473,
    "latitude": 44.99142,
    "longitude": -99.340678,
    "city": "Seneca",
    "state": "SD",
    "full_state": "South Dakota",
    "county": "Faulk"
  },
  {
    "zip_code": 57474,
    "latitude": 45.306691,
    "longitude": -98.258376,
    "city": "Stratford",
    "state": "SD",
    "full_state": "South Dakota",
    "county": "Brown"
  },
  {
    "zip_code": 57475,
    "latitude": 45.22375,
    "longitude": -99.694578,
    "city": "Tolstoy",
    "state": "SD",
    "full_state": "South Dakota",
    "county": "Potter"
  },
  {
    "zip_code": 57476,
    "latitude": 44.893778,
    "longitude": -98.402047,
    "city": "Tulare",
    "state": "SD",
    "full_state": "South Dakota",
    "county": "Spink"
  },
  {
    "zip_code": 57477,
    "latitude": 45.045466,
    "longitude": -98.182922,
    "city": "Turton",
    "state": "SD",
    "full_state": "South Dakota",
    "county": "Spink"
  },
  {
    "zip_code": 57479,
    "latitude": 45.329227,
    "longitude": -98.47485,
    "city": "Warner",
    "state": "SD",
    "full_state": "South Dakota",
    "county": "Brown"
  },
  {
    "zip_code": 57481,
    "latitude": 45.670534,
    "longitude": -98.580207,
    "city": "Westport",
    "state": "SD",
    "full_state": "South Dakota",
    "county": "Brown"
  },
  {
    "zip_code": 57501,
    "latitude": 44.334073,
    "longitude": -100.094195,
    "city": "Pierre",
    "state": "SD",
    "full_state": "South Dakota",
    "county": "Hughes"
  },
  {
    "zip_code": 57520,
    "latitude": 44.802621,
    "longitude": -100.158903,
    "city": "Agar",
    "state": "SD",
    "full_state": "South Dakota",
    "county": "Sully"
  },
  {
    "zip_code": 57521,
    "latitude": 43.691966,
    "longitude": -101.601609,
    "city": "Belvidere",
    "state": "SD",
    "full_state": "South Dakota",
    "county": "Jackson"
  },
  {
    "zip_code": 57522,
    "latitude": 44.43719,
    "longitude": -99.926952,
    "city": "Blunt",
    "state": "SD",
    "full_state": "South Dakota",
    "county": "Hughes"
  },
  {
    "zip_code": 57523,
    "latitude": 43.182547,
    "longitude": -99.293674,
    "city": "Burke",
    "state": "SD",
    "full_state": "South Dakota",
    "county": "Gregory"
  },
  {
    "zip_code": 57526,
    "latitude": 43.382122,
    "longitude": -99.88231,
    "city": "Carter",
    "state": "SD",
    "full_state": "South Dakota",
    "county": "Tripp"
  },
  {
    "zip_code": 57528,
    "latitude": 43.260083,
    "longitude": -99.716537,
    "city": "Colome",
    "state": "SD",
    "full_state": "South Dakota",
    "county": "Tripp"
  },
  {
    "zip_code": 57529,
    "latitude": 43.23571,
    "longitude": -99.515887,
    "city": "Dallas",
    "state": "SD",
    "full_state": "South Dakota",
    "county": "Gregory"
  },
  {
    "zip_code": 57531,
    "latitude": 43.938049,
    "longitude": -100.701672,
    "city": "Draper",
    "state": "SD",
    "full_state": "South Dakota",
    "county": "Jones"
  },
  {
    "zip_code": 57532,
    "latitude": 44.343326,
    "longitude": -100.635312,
    "city": "Fort Pierre",
    "state": "SD",
    "full_state": "South Dakota",
    "county": "Stanley"
  },
  {
    "zip_code": 57533,
    "latitude": 43.213649,
    "longitude": -99.36219,
    "city": "Gregory",
    "state": "SD",
    "full_state": "South Dakota",
    "county": "Gregory"
  },
  {
    "zip_code": 57534,
    "latitude": 43.382122,
    "longitude": -99.88231,
    "city": "Hamill",
    "state": "SD",
    "full_state": "South Dakota",
    "county": "Tripp"
  },
  {
    "zip_code": 57536,
    "latitude": 44.333927,
    "longitude": -99.767237,
    "city": "Harrold",
    "state": "SD",
    "full_state": "South Dakota",
    "county": "Hughes"
  },
  {
    "zip_code": 57537,
    "latitude": 44.531281,
    "longitude": -101.014052,
    "city": "Hayes",
    "state": "SD",
    "full_state": "South Dakota",
    "county": "Stanley"
  },
  {
    "zip_code": 57538,
    "latitude": 43.114883,
    "longitude": -99.195945,
    "city": "Herrick",
    "state": "SD",
    "full_state": "South Dakota",
    "county": "Gregory"
  },
  {
    "zip_code": 57540,
    "latitude": 44.490558,
    "longitude": -99.589344,
    "city": "Holabird",
    "state": "SD",
    "full_state": "South Dakota",
    "county": "Hyde"
  },
  {
    "zip_code": 57541,
    "latitude": 43.382122,
    "longitude": -99.88231,
    "city": "Ideal",
    "state": "SD",
    "full_state": "South Dakota",
    "county": "Tripp"
  },
  {
    "zip_code": 57542,
    "latitude": 43.85862,
    "longitude": -99.824337,
    "city": "Iona",
    "state": "SD",
    "full_state": "South Dakota",
    "county": "Lyman"
  },
  {
    "zip_code": 57543,
    "latitude": 43.824178,
    "longitude": -101.389524,
    "city": "Kadoka",
    "state": "SD",
    "full_state": "South Dakota",
    "county": "Jackson"
  },
  {
    "zip_code": 57544,
    "latitude": 43.85862,
    "longitude": -99.824337,
    "city": "Kennebec",
    "state": "SD",
    "full_state": "South Dakota",
    "county": "Lyman"
  },
  {
    "zip_code": 57547,
    "latitude": 43.691966,
    "longitude": -101.601609,
    "city": "Long Valley",
    "state": "SD",
    "full_state": "South Dakota",
    "county": "Jackson"
  },
  {
    "zip_code": 57548,
    "latitude": 43.85862,
    "longitude": -99.824337,
    "city": "Lower Brule",
    "state": "SD",
    "full_state": "South Dakota",
    "county": "Lyman"
  },
  {
    "zip_code": 57551,
    "latitude": 43.172158,
    "longitude": -101.734068,
    "city": "Martin",
    "state": "SD",
    "full_state": "South Dakota",
    "county": "Bennett"
  },
  {
    "zip_code": 57552,
    "latitude": 44.370733,
    "longitude": -101.527178,
    "city": "Midland",
    "state": "SD",
    "full_state": "South Dakota",
    "county": "Haakon"
  },
  {
    "zip_code": 57553,
    "latitude": 44.370733,
    "longitude": -101.527178,
    "city": "Milesville",
    "state": "SD",
    "full_state": "South Dakota",
    "county": "Haakon"
  },
  {
    "zip_code": 57555,
    "latitude": 43.304572,
    "longitude": -100.662079,
    "city": "Mission",
    "state": "SD",
    "full_state": "South Dakota",
    "county": "Todd"
  },
  {
    "zip_code": 57557,
    "latitude": 44.475844,
    "longitude": -100.529517,
    "city": "Mission Ridge",
    "state": "SD",
    "full_state": "South Dakota",
    "county": "Stanley"
  },
  {
    "zip_code": 57559,
    "latitude": 43.879993,
    "longitude": -100.75734,
    "city": "Murdo",
    "state": "SD",
    "full_state": "South Dakota",
    "county": "Jones"
  },
  {
    "zip_code": 57560,
    "latitude": 43.623523,
    "longitude": -100.721218,
    "city": "Norris",
    "state": "SD",
    "full_state": "South Dakota",
    "county": "Mellette"
  },
  {
    "zip_code": 57562,
    "latitude": 43.938049,
    "longitude": -100.701672,
    "city": "Okaton",
    "state": "SD",
    "full_state": "South Dakota",
    "county": "Jones"
  },
  {
    "zip_code": 57563,
    "latitude": 43.194063,
    "longitude": -100.713373,
    "city": "Okreek",
    "state": "SD",
    "full_state": "South Dakota",
    "county": "Todd"
  },
  {
    "zip_code": 57564,
    "latitude": 44.722873,
    "longitude": -99.979546,
    "city": "Onida",
    "state": "SD",
    "full_state": "South Dakota",
    "county": "Sully"
  },
  {
    "zip_code": 57566,
    "latitude": 43.194063,
    "longitude": -100.713373,
    "city": "Parmelee",
    "state": "SD",
    "full_state": "South Dakota",
    "county": "Todd"
  },
  {
    "zip_code": 57567,
    "latitude": 44.046063,
    "longitude": -101.630722,
    "city": "Philip",
    "state": "SD",
    "full_state": "South Dakota",
    "county": "Haakon"
  },
  {
    "zip_code": 57568,
    "latitude": 43.908372,
    "longitude": -100.046855,
    "city": "Presho",
    "state": "SD",
    "full_state": "South Dakota",
    "county": "Lyman"
  },
  {
    "zip_code": 57569,
    "latitude": 43.85862,
    "longitude": -99.824337,
    "city": "Reliance",
    "state": "SD",
    "full_state": "South Dakota",
    "county": "Lyman"
  },
  {
    "zip_code": 57570,
    "latitude": 43.302375,
    "longitude": -100.626863,
    "city": "Rosebud",
    "state": "SD",
    "full_state": "South Dakota",
    "county": "Todd"
  },
  {
    "zip_code": 57571,
    "latitude": 43.248832,
    "longitude": -99.016376,
    "city": "Saint Charles",
    "state": "SD",
    "full_state": "South Dakota",
    "county": "Gregory"
  },
  {
    "zip_code": 57572,
    "latitude": 43.194063,
    "longitude": -100.713373,
    "city": "Saint Francis",
    "state": "SD",
    "full_state": "South Dakota",
    "county": "Todd"
  },
  {
    "zip_code": 57574,
    "latitude": 43.193203,
    "longitude": -101.66933,
    "city": "Tuthill",
    "state": "SD",
    "full_state": "South Dakota",
    "county": "Bennett"
  },
  {
    "zip_code": 57576,
    "latitude": 43.85862,
    "longitude": -99.824337,
    "city": "Vivian",
    "state": "SD",
    "full_state": "South Dakota",
    "county": "Lyman"
  },
  {
    "zip_code": 57577,
    "latitude": 43.691966,
    "longitude": -101.601609,
    "city": "Wanblee",
    "state": "SD",
    "full_state": "South Dakota",
    "county": "Jackson"
  },
  {
    "zip_code": 57578,
    "latitude": 43.382122,
    "longitude": -99.88231,
    "city": "Wewela",
    "state": "SD",
    "full_state": "South Dakota",
    "county": "Tripp"
  },
  {
    "zip_code": 57579,
    "latitude": 43.566116,
    "longitude": -100.745912,
    "city": "White River",
    "state": "SD",
    "full_state": "South Dakota",
    "county": "Mellette"
  },
  {
    "zip_code": 57580,
    "latitude": 43.331763,
    "longitude": -99.803286,
    "city": "Winner",
    "state": "SD",
    "full_state": "South Dakota",
    "county": "Tripp"
  },
  {
    "zip_code": 57584,
    "latitude": 43.382122,
    "longitude": -99.88231,
    "city": "Witten",
    "state": "SD",
    "full_state": "South Dakota",
    "county": "Tripp"
  },
  {
    "zip_code": 57585,
    "latitude": 43.623523,
    "longitude": -100.721218,
    "city": "Wood",
    "state": "SD",
    "full_state": "South Dakota",
    "county": "Mellette"
  },
  {
    "zip_code": 57601,
    "latitude": 45.550822,
    "longitude": -100.330283,
    "city": "Mobridge",
    "state": "SD",
    "full_state": "South Dakota",
    "county": "Walworth"
  },
  {
    "zip_code": 57620,
    "latitude": 45.409748,
    "longitude": -102.513087,
    "city": "Bison",
    "state": "SD",
    "full_state": "South Dakota",
    "county": "Perkins"
  },
  {
    "zip_code": 57621,
    "latitude": 45.847567,
    "longitude": -101.09974,
    "city": "Bullhead",
    "state": "SD",
    "full_state": "South Dakota",
    "county": "Corson"
  },
  {
    "zip_code": 57622,
    "latitude": 44.992051,
    "longitude": -101.568656,
    "city": "Cherry Creek",
    "state": "SD",
    "full_state": "South Dakota",
    "county": "Ziebach"
  },
  {
    "zip_code": 57623,
    "latitude": 45.050456,
    "longitude": -101.607171,
    "city": "Dupree",
    "state": "SD",
    "full_state": "South Dakota",
    "county": "Ziebach"
  },
  {
    "zip_code": 57625,
    "latitude": 45.001611,
    "longitude": -101.232885,
    "city": "Eagle Butte",
    "state": "SD",
    "full_state": "South Dakota",
    "county": "Dewey"
  },
  {
    "zip_code": 57626,
    "latitude": 45.024533,
    "longitude": -102.026734,
    "city": "Faith",
    "state": "SD",
    "full_state": "South Dakota",
    "county": "Meade"
  },
  {
    "zip_code": 57628,
    "latitude": 45.098685,
    "longitude": -100.879214,
    "city": "Firesteel",
    "state": "SD",
    "full_state": "South Dakota",
    "county": "Dewey"
  },
  {
    "zip_code": 57629,
    "latitude": 44.992051,
    "longitude": -101.568656,
    "city": "Glad Valley",
    "state": "SD",
    "full_state": "South Dakota",
    "county": "Ziebach"
  },
  {
    "zip_code": 57630,
    "latitude": 45.098685,
    "longitude": -100.879214,
    "city": "Glencross",
    "state": "SD",
    "full_state": "South Dakota",
    "county": "Dewey"
  },
  {
    "zip_code": 57631,
    "latitude": 45.504288,
    "longitude": -100.311701,
    "city": "Glenham",
    "state": "SD",
    "full_state": "South Dakota",
    "county": "Walworth"
  },
  {
    "zip_code": 57632,
    "latitude": 45.833733,
    "longitude": -100.020048,
    "city": "Herreid",
    "state": "SD",
    "full_state": "South Dakota",
    "county": "Campbell"
  },
  {
    "zip_code": 57633,
    "latitude": 45.396212,
    "longitude": -101.438525,
    "city": "Isabel",
    "state": "SD",
    "full_state": "South Dakota",
    "county": "Dewey"
  },
  {
    "zip_code": 57634,
    "latitude": 45.708402,
    "longitude": -101.154581,
    "city": "Keldron",
    "state": "SD",
    "full_state": "South Dakota",
    "county": "Corson"
  },
  {
    "zip_code": 57636,
    "latitude": 45.098685,
    "longitude": -100.879214,
    "city": "Lantry",
    "state": "SD",
    "full_state": "South Dakota",
    "county": "Dewey"
  },
  {
    "zip_code": 57638,
    "latitude": 45.732219,
    "longitude": -102.410975,
    "city": "Lemmon",
    "state": "SD",
    "full_state": "South Dakota",
    "county": "Perkins"
  },
  {
    "zip_code": 57639,
    "latitude": 45.708402,
    "longitude": -101.154581,
    "city": "Little Eagle",
    "state": "SD",
    "full_state": "South Dakota",
    "county": "Corson"
  },
  {
    "zip_code": 57640,
    "latitude": 45.703777,
    "longitude": -102.663011,
    "city": "Lodgepole",
    "state": "SD",
    "full_state": "South Dakota",
    "county": "Perkins"
  },
  {
    "zip_code": 57641,
    "latitude": 45.708402,
    "longitude": -101.154581,
    "city": "Mc Intosh",
    "state": "SD",
    "full_state": "South Dakota",
    "county": "Corson"
  },
  {
    "zip_code": 57642,
    "latitude": 45.876336,
    "longitude": -100.891469,
    "city": "Mc Laughlin",
    "state": "SD",
    "full_state": "South Dakota",
    "county": "Corson"
  },
  {
    "zip_code": 57643,
    "latitude": 45.708402,
    "longitude": -101.154581,
    "city": "Mahto",
    "state": "SD",
    "full_state": "South Dakota",
    "county": "Corson"
  },
  {
    "zip_code": 57644,
    "latitude": 45.453221,
    "longitude": -102.280948,
    "city": "Meadow",
    "state": "SD",
    "full_state": "South Dakota",
    "county": "Perkins"
  },
  {
    "zip_code": 57645,
    "latitude": 45.708402,
    "longitude": -101.154581,
    "city": "Morristown",
    "state": "SD",
    "full_state": "South Dakota",
    "county": "Corson"
  },
  {
    "zip_code": 57646,
    "latitude": 45.715461,
    "longitude": -100.048071,
    "city": "Mound City",
    "state": "SD",
    "full_state": "South Dakota",
    "county": "Campbell"
  },
  {
    "zip_code": 57647,
    "latitude": 45.098685,
    "longitude": -100.879214,
    "city": "Parade",
    "state": "SD",
    "full_state": "South Dakota",
    "county": "Dewey"
  },
  {
    "zip_code": 57648,
    "latitude": 45.844431,
    "longitude": -100.283026,
    "city": "Pollock",
    "state": "SD",
    "full_state": "South Dakota",
    "county": "Campbell"
  },
  {
    "zip_code": 57649,
    "latitude": 45.440744,
    "longitude": -102.704216,
    "city": "Prairie City",
    "state": "SD",
    "full_state": "South Dakota",
    "county": "Perkins"
  },
  {
    "zip_code": 57650,
    "latitude": 45.578941,
    "longitude": -103.493668,
    "city": "Ralph",
    "state": "SD",
    "full_state": "South Dakota",
    "county": "Harding"
  },
  {
    "zip_code": 57651,
    "latitude": 45.578941,
    "longitude": -103.493668,
    "city": "Reva",
    "state": "SD",
    "full_state": "South Dakota",
    "county": "Harding"
  },
  {
    "zip_code": 57652,
    "latitude": 45.098685,
    "longitude": -100.879214,
    "city": "Ridgeview",
    "state": "SD",
    "full_state": "South Dakota",
    "county": "Dewey"
  },
  {
    "zip_code": 57653,
    "latitude": 45.680798,
    "longitude": -102.292753,
    "city": "Shadehill",
    "state": "SD",
    "full_state": "South Dakota",
    "county": "Perkins"
  },
  {
    "zip_code": 57656,
    "latitude": 45.427032,
    "longitude": -101.07469,
    "city": "Timber Lake",
    "state": "SD",
    "full_state": "South Dakota",
    "county": "Dewey"
  },
  {
    "zip_code": 57657,
    "latitude": 45.708402,
    "longitude": -101.154581,
    "city": "Trail City",
    "state": "SD",
    "full_state": "South Dakota",
    "county": "Corson"
  },
  {
    "zip_code": 57658,
    "latitude": 45.655452,
    "longitude": -100.537928,
    "city": "Wakpala",
    "state": "SD",
    "full_state": "South Dakota",
    "county": "Corson"
  },
  {
    "zip_code": 57659,
    "latitude": 45.708402,
    "longitude": -101.154581,
    "city": "Walker",
    "state": "SD",
    "full_state": "South Dakota",
    "county": "Corson"
  },
  {
    "zip_code": 57660,
    "latitude": 45.708402,
    "longitude": -101.154581,
    "city": "Watauga",
    "state": "SD",
    "full_state": "South Dakota",
    "county": "Corson"
  },
  {
    "zip_code": 57661,
    "latitude": 45.098685,
    "longitude": -100.879214,
    "city": "Whitehorse",
    "state": "SD",
    "full_state": "South Dakota",
    "county": "Dewey"
  },
  {
    "zip_code": 57701,
    "latitude": 44.004363,
    "longitude": -103.240024,
    "city": "Rapid City",
    "state": "SD",
    "full_state": "South Dakota",
    "county": "Pennington"
  },