[
  {
    "zip_code": 72837,
    "latitude": 35.498142,
    "longitude": -93.063411,
    "city": "Dover",
    "state": "AR",
    "full_state": "Arkansas",
    "county": "Pope"
  },
  {
    "zip_code": 72838,
    "latitude": 35.030397,
    "longitude": -93.303203,
    "city": "Gravelly",
    "state": "AR",
    "full_state": "Arkansas",
    "county": "Yell"
  },
  {
    "zip_code": 72839,
    "latitude": 35.547714,
    "longitude": -93.437264,
    "city": "Hagarville",
    "state": "AR",
    "full_state": "Arkansas",
    "county": "Johnson"
  },
  {
    "zip_code": 72840,
    "latitude": 35.436024,
    "longitude": -93.64356,
    "city": "Hartman",
    "state": "AR",
    "full_state": "Arkansas",
    "county": "Johnson"
  },
  {
    "zip_code": 72841,
    "latitude": 34.882558,
    "longitude": -94.079724,
    "city": "Harvey",
    "state": "AR",
    "full_state": "Arkansas",
    "county": "Scott"
  },
  {
    "zip_code": 72842,
    "latitude": 35.030397,
    "longitude": -93.303203,
    "city": "Havana",
    "state": "AR",
    "full_state": "Arkansas",
    "county": "Yell"
  },
  {
    "zip_code": 72843,
    "latitude": 35.549856,
    "longitude": -92.961624,
    "city": "Hector",
    "state": "AR",
    "full_state": "Arkansas",
    "county": "Pope"
  },
  {
    "zip_code": 72845,
    "latitude": 35.385081,
    "longitude": -93.335178,
    "city": "Knoxville",
    "state": "AR",
    "full_state": "Arkansas",
    "county": "Johnson"
  },
  {
    "zip_code": 72846,
    "latitude": 35.476393,
    "longitude": -93.369461,
    "city": "Lamar",
    "state": "AR",
    "full_state": "Arkansas",
    "county": "Johnson"
  },
  {
    "zip_code": 72847,
    "latitude": 35.368118,
    "longitude": -93.244365,
    "city": "London",
    "state": "AR",
    "full_state": "Arkansas",
    "county": "Pope"
  },
  {
    "zip_code": 72851,
    "latitude": 35.264248,
    "longitude": -93.452038,
    "city": "New Blaine",
    "state": "AR",
    "full_state": "Arkansas",
    "county": "Logan"
  },
  {
    "zip_code": 72852,
    "latitude": 35.547714,
    "longitude": -93.437264,
    "city": "Oark",
    "state": "AR",
    "full_state": "Arkansas",
    "county": "Johnson"
  },
  {
    "zip_code": 72853,
    "latitude": 35.030397,
    "longitude": -93.303203,
    "city": "Ola",
    "state": "AR",
    "full_state": "Arkansas",
    "county": "Yell"
  },
  {
    "zip_code": 72854,
    "latitude": 35.634994,
    "longitude": -93.445104,
    "city": "Ozone",
    "state": "AR",
    "full_state": "Arkansas",
    "county": "Johnson"
  },
  {
    "zip_code": 72855,
    "latitude": 35.274106,
    "longitude": -93.615999,
    "city": "Paris",
    "state": "AR",
    "full_state": "Arkansas",
    "county": "Logan"
  },
  {
    "zip_code": 72856,
    "latitude": 35.617231,
    "longitude": -93.034092,
    "city": "Pelsor",
    "state": "AR",
    "full_state": "Arkansas",
    "county": "Pope"
  },
  {
    "zip_code": 72857,
    "latitude": 34.992068,
    "longitude": -93.295552,
    "city": "Plainview",
    "state": "AR",
    "full_state": "Arkansas",
    "county": "Yell"
  },
  {
    "zip_code": 72858,
    "latitude": 35.232993,
    "longitude": -93.026834,
    "city": "Pottsville",
    "state": "AR",
    "full_state": "Arkansas",
    "county": "Pope"
  },
  {
    "zip_code": 72860,
    "latitude": 35.030397,
    "longitude": -93.303203,
    "city": "Rover",
    "state": "AR",
    "full_state": "Arkansas",
    "county": "Yell"
  },
  {
    "zip_code": 72863,
    "latitude": 35.344745,
    "longitude": -93.53721,
    "city": "Scranton",
    "state": "AR",
    "full_state": "Arkansas",
    "county": "Logan"
  },
  {
    "zip_code": 72865,
    "latitude": 35.315285,
    "longitude": -93.599117,
    "city": "Subiaco",
    "state": "AR",
    "full_state": "Arkansas",
    "county": "Logan"
  },
  {
    "zip_code": 72901,
    "latitude": 35.231245,
    "longitude": -94.339412,
    "city": "Fort Smith",
    "state": "AR",
    "full_state": "Arkansas",
    "county": "Sebastian"
  },
  {
    "zip_code": 72902,
    "latitude": 35.38619,
    "longitude": -94.409114,
    "city": "Fort Smith",
    "state": "AR",
    "full_state": "Arkansas",
    "county": "Sebastian"
  },
  {
    "zip_code": 72903,
    "latitude": 35.354491,
    "longitude": -94.356112,
    "city": "Fort Smith",
    "state": "AR",
    "full_state": "Arkansas",
    "county": "Sebastian"
  },
  {
    "zip_code": 72904,
    "latitude": 35.410754,
    "longitude": -94.387568,
    "city": "Fort Smith",
    "state": "AR",
    "full_state": "Arkansas",
    "county": "Sebastian"
  },
  {
    "zip_code": 72905,
    "latitude": 35.191046,
    "longitude": -94.23816,
    "city": "Fort Smith",
    "state": "AR",
    "full_state": "Arkansas",
    "county": "Sebastian"
  },
  {
    "zip_code": 72906,
    "latitude": 35.191046,
    "longitude": -94.23816,
    "city": "Fort Smith",
    "state": "AR",
    "full_state": "Arkansas",
    "county": "Sebastian"
  },
  {
    "zip_code": 72908,
    "latitude": 35.321912,
    "longitude": -94.402779,
    "city": "Fort Smith",
    "state": "AR",
    "full_state": "Arkansas",
    "county": "Sebastian"
  },
  {
    "zip_code": 72913,
    "latitude": 35.191046,
    "longitude": -94.23816,
    "city": "Fort Smith",
    "state": "AR",
    "full_state": "Arkansas",
    "county": "Sebastian"
  },
  {
    "zip_code": 72914,
    "latitude": 35.191046,
    "longitude": -94.23816,
    "city": "Fort Smith",
    "state": "AR",
    "full_state": "Arkansas",
    "county": "Sebastian"
  },
  {
    "zip_code": 72916,
    "latitude": 35.299584,
    "longitude": -94.373858,
    "city": "Fort Smith",
    "state": "AR",
    "full_state": "Arkansas",
    "county": "Sebastian"
  },
  {
    "zip_code": 72917,
    "latitude": 35.191046,
    "longitude": -94.23816,
    "city": "Fort Smith",
    "state": "AR",
    "full_state": "Arkansas",
    "county": "Sebastian"
  },
  {
    "zip_code": 72918,
    "latitude": 35.191046,
    "longitude": -94.23816,
    "city": "Fort Smith",
    "state": "AR",
    "full_state": "Arkansas",
    "county": "Sebastian"
  },
  {
    "zip_code": 72919,
    "latitude": 35.191046,
    "longitude": -94.23816,
    "city": "Fort Smith",
    "state": "AR",
    "full_state": "Arkansas",
    "county": "Sebastian"
  },
  {
    "zip_code": 72921,
    "latitude": 35.479157,
    "longitude": -94.193334,
    "city": "Alma",
    "state": "AR",
    "full_state": "Arkansas",
    "county": "Crawford"
  },
  {
    "zip_code": 72923,
    "latitude": 35.216137,
    "longitude": -94.354857,
    "city": "Barling",
    "state": "AR",
    "full_state": "Arkansas",
    "county": "Sebastian"
  },
  {
    "zip_code": 72924,
    "latitude": 34.882558,
    "longitude": -94.079724,
    "city": "Bates",
    "state": "AR",
    "full_state": "Arkansas",
    "county": "Scott"
  },
  {
    "zip_code": 72926,
    "latitude": 34.882558,
    "longitude": -94.079724,
    "city": "Boles",
    "state": "AR",
    "full_state": "Arkansas",
    "county": "Scott"
  },
  {
    "zip_code": 72927,
    "latitude": 35.19356,
    "longitude": -93.930763,
    "city": "Booneville",
    "state": "AR",
    "full_state": "Arkansas",
    "county": "Logan"
  },
  {
    "zip_code": 72928,
    "latitude": 35.311075,
    "longitude": -93.922527,
    "city": "Branch",
    "state": "AR",
    "full_state": "Arkansas",
    "county": "Franklin"
  },
  {
    "zip_code": 72930,
    "latitude": 35.486917,
    "longitude": -93.889389,
    "city": "Cecil",
    "state": "AR",
    "full_state": "Arkansas",
    "county": "Franklin"
  },
  {
    "zip_code": 72932,
    "latitude": 35.654281,
    "longitude": -94.369383,
    "city": "Cedarville",
    "state": "AR",
    "full_state": "Arkansas",
    "county": "Crawford"
  },
  {
    "zip_code": 72933,
    "latitude": 35.387924,
    "longitude": -93.95098,
    "city": "Charleston",
    "state": "AR",
    "full_state": "Arkansas",
    "county": "Franklin"
  },
  {
    "zip_code": 72934,
    "latitude": 35.67603,
    "longitude": -94.265465,
    "city": "Chester",
    "state": "AR",
    "full_state": "Arkansas",
    "county": "Crawford"
  },
  {
    "zip_code": 72935,
    "latitude": 35.496721,
    "longitude": -94.114259,
    "city": "Dyer",
    "state": "AR",
    "full_state": "Arkansas",
    "county": "Crawford"
  },
  {
    "zip_code": 72936,
    "latitude": 35.181209,
    "longitude": -94.206011,
    "city": "Greenwood",
    "state": "AR",
    "full_state": "Arkansas",
    "county": "Sebastian"
  },
  {
    "zip_code": 72937,
    "latitude": 35.119452,
    "longitude": -94.329759,
    "city": "Hackett",
    "state": "AR",
    "full_state": "Arkansas",
    "county": "Sebastian"
  },
  {
    "zip_code": 72938,
    "latitude": 35.060177,
    "longitude": -94.353779,
    "city": "Hartford",
    "state": "AR",
    "full_state": "Arkansas",
    "county": "Sebastian"
  },
  {
    "zip_code": 72940,
    "latitude": 35.13786,
    "longitude": -94.24613,
    "city": "Huntington",
    "state": "AR",
    "full_state": "Arkansas",
    "county": "Sebastian"
  },
  {
    "zip_code": 72941,
    "latitude": 35.241045,
    "longitude": -94.18783,
    "city": "Lavaca",
    "state": "AR",
    "full_state": "Arkansas",
    "county": "Sebastian"
  },
  {
    "zip_code": 72943,
    "latitude": 35.182673,
    "longitude": -93.812592,
    "city": "Magazine",
    "state": "AR",
    "full_state": "Arkansas",
    "county": "Logan"
  },
  {
    "zip_code": 72944,
    "latitude": 35.063448,
    "longitude": -94.243268,
    "city": "Mansfield",
    "state": "AR",
    "full_state": "Arkansas",
    "county": "Scott"
  },
  {
    "zip_code": 72945,
    "latitude": 35.096272,
    "longitude": -94.349565,
    "city": "Midland",
    "state": "AR",
    "full_state": "Arkansas",
    "county": "Sebastian"
  },
  {
    "zip_code": 72946,
    "latitude": 35.64644,
    "longitude": -94.149687,
    "city": "Mountainburg",
    "state": "AR",
    "full_state": "Arkansas",
    "county": "Crawford"
  },
  {
    "zip_code": 72947,
    "latitude": 35.565805,
    "longitude": -94.124776,
    "city": "Mulberry",
    "state": "AR",
    "full_state": "Arkansas",
    "county": "Crawford"
  },
  {
    "zip_code": 72948,
    "latitude": 35.680583,
    "longitude": -94.404185,
    "city": "Natural Dam",
    "state": "AR",
    "full_state": "Arkansas",
    "county": "Crawford"
  },
  {
    "zip_code": 72949,
    "latitude": 35.405649,
    "longitude": -93.909428,
    "city": "Ozark",
    "state": "AR",
    "full_state": "Arkansas",
    "county": "Franklin"
  },
  {
    "zip_code": 72950,
    "latitude": 34.882558,
    "longitude": -94.079724,
    "city": "Parks",
    "state": "AR",
    "full_state": "Arkansas",
    "county": "Scott"
  },
  {
    "zip_code": 72951,
    "latitude": 35.291693,
    "longitude": -93.889921,
    "city": "Ratcliff",
    "state": "AR",
    "full_state": "Arkansas",
    "county": "Logan"
  },
  {
    "zip_code": 72952,
    "latitude": 35.546818,
    "longitude": -94.291296,
    "city": "Rudy",
    "state": "AR",
    "full_state": "Arkansas",
    "county": "Crawford"
  },
  {
    "zip_code": 72955,
    "latitude": 35.56794,
    "longitude": -94.411402,
    "city": "Uniontown",
    "state": "AR",
    "full_state": "Arkansas",
    "county": "Crawford"
  },
  {
    "zip_code": 72956,
    "latitude": 35.496491,
    "longitude": -94.299086,
    "city": "Van Buren",
    "state": "AR",
    "full_state": "Arkansas",
    "county": "Crawford"
  },
  {
    "zip_code": 72957,
    "latitude": 35.494412,
    "longitude": -94.318648,
    "city": "Van Buren",
    "state": "AR",
    "full_state": "Arkansas",
    "county": "Crawford"
  },
  {
    "zip_code": 72958,
    "latitude": 34.908133,
    "longitude": -94.089381,
    "city": "Waldron",
    "state": "AR",
    "full_state": "Arkansas",
    "county": "Scott"
  },
  {
    "zip_code": 72959,
    "latitude": 35.862402,
    "longitude": -94.106004,
    "city": "Winslow",
    "state": "AR",
    "full_state": "Arkansas",
    "county": "Washington"
  },
  {
    "zip_code": 73001,
    "latitude": 35.203206,
    "longitude": -98.357423,
    "city": "Albert",
    "state": "OK",
    "full_state": "Oklahoma",
    "county": "Caddo"
  },
  {
    "zip_code": 73002,
    "latitude": 34.914788,
    "longitude": -97.78122,
    "city": "Alex",
    "state": "OK",
    "full_state": "Oklahoma",
    "county": "Grady"
  },
  {
    "zip_code": 73003,
    "latitude": 35.674777,
    "longitude": -97.499681,
    "city": "Edmond",
    "state": "OK",
    "full_state": "Oklahoma",
    "county": "Oklahoma"
  },
  {
    "zip_code": 73004,
    "latitude": 35.031247,
    "longitude": -97.881959,
    "city": "Amber",
    "state": "OK",
    "full_state": "Oklahoma",
    "county": "Grady"
  },
  {
    "zip_code": 73005,
    "latitude": 35.167108,
    "longitude": -98.325598,
    "city": "Anadarko",
    "state": "OK",
    "full_state": "Oklahoma",
    "county": "Caddo"
  },
  {
    "zip_code": 73006,
    "latitude": 34.891016,
    "longitude": -98.361483,
    "city": "Apache",
    "state": "OK",
    "full_state": "Oklahoma",
    "county": "Caddo"
  },
  {
    "zip_code": 73007,
    "latitude": 35.672506,
    "longitude": -97.309856,
    "city": "Arcadia",
    "state": "OK",
    "full_state": "Oklahoma",
    "county": "Oklahoma"
  },
  {
    "zip_code": 73008,
    "latitude": 35.576674,
    "longitude": -97.498858,
    "city": "Bethany",
    "state": "OK",
    "full_state": "Oklahoma",
    "county": "Oklahoma"
  },
  {
    "zip_code": 73009,
    "latitude": 35.308457,
    "longitude": -98.344265,
    "city": "Binger",
    "state": "OK",
    "full_state": "Oklahoma",
    "county": "Caddo"
  },
  {
    "zip_code": 73010,
    "latitude": 35.094914,
    "longitude": -97.527291,
    "city": "Blanchard",
    "state": "OK",
    "full_state": "Oklahoma",
    "county": "Mcclain"
  },
  {
    "zip_code": 73011,
    "latitude": 35.031247,
    "longitude": -97.881959,
    "city": "Bradley",
    "state": "OK",
    "full_state": "Oklahoma",
    "county": "Grady"
  },
  {
    "zip_code": 73012,
    "latitude": 34.48532,
    "longitude": -97.852223,
    "city": "Bray",
    "state": "OK",
    "full_state": "Oklahoma",
    "county": "Stephens"
  },
  {
    "zip_code": 73013,
    "latitude": 35.555542,
    "longitude": -97.515011,
    "city": "Edmond",
    "state": "OK",
    "full_state": "Oklahoma",
    "county": "Oklahoma"
  },
  {
    "zip_code": 73014,
    "latitude": 35.547575,
    "longitude": -98.151236,
    "city": "Calumet",
    "state": "OK",
    "full_state": "Oklahoma",
    "county": "Canadian"
  },
  {
    "zip_code": 73015,
    "latitude": 35.105404,
    "longitude": -98.594067,
    "city": "Carnegie",
    "state": "OK",
    "full_state": "Oklahoma",
    "county": "Caddo"
  },
  {
    "zip_code": 73016,
    "latitude": 35.818432,
    "longitude": -97.699679,
    "city": "Cashion",
    "state": "OK",
    "full_state": "Oklahoma",
    "county": "Kingfisher"
  },
  {
    "zip_code": 73017,
    "latitude": 34.924452,
    "longitude": -98.163436,
    "city": "Cement",
    "state": "OK",
    "full_state": "Oklahoma",
    "county": "Caddo"
  },
  {
    "zip_code": 73018,
    "latitude": 35.127804,
    "longitude": -97.937083,
    "city": "Chickasha",
    "state": "OK",
    "full_state": "Oklahoma",
    "county": "Grady"
  },
  {
    "zip_code": 73019,
    "latitude": 35.208566,
    "longitude": -97.44451,
    "city": "Norman",
    "state": "OK",
    "full_state": "Oklahoma",
    "county": "Cleveland"
  },
  {
    "zip_code": 73020,
    "latitude": 35.51876,
    "longitude": -97.249071,
    "city": "Choctaw",
    "state": "OK",
    "full_state": "Oklahoma",
    "county": "Oklahoma"
  },
  {
    "zip_code": 73021,
    "latitude": 35.281428,
    "longitude": -98.991373,
    "city": "Colony",
    "state": "OK",
    "full_state": "Oklahoma",
    "county": "Washita"
  },
  {
    "zip_code": 73022,
    "latitude": 35.525192,
    "longitude": -97.992347,
    "city": "Concho",
    "state": "OK",
    "full_state": "Oklahoma",
    "county": "Canadian"
  },
  {
    "zip_code": 73023,
    "latitude": 35.031247,
    "longitude": -97.881959,
    "city": "Chickasha",
    "state": "OK",
    "full_state": "Oklahoma",
    "county": "Grady"
  },
  {
    "zip_code": 73024,
    "latitude": 35.378409,
    "longitude": -98.781794,
    "city": "Corn",
    "state": "OK",
    "full_state": "Oklahoma",
    "county": "Washita"
  },
  {
    "zip_code": 73026,
    "latitude": 35.23429,
    "longitude": -97.291356,
    "city": "Norman",
    "state": "OK",
    "full_state": "Oklahoma",
    "county": "Cleveland"
  },
  {
    "zip_code": 73027,
    "latitude": 35.950214,
    "longitude": -97.291688,
    "city": "Coyle",
    "state": "OK",
    "full_state": "Oklahoma",
    "county": "Logan"
  },
  {
    "zip_code": 73028,
    "latitude": 35.977031,
    "longitude": -97.628098,
    "city": "Crescent",
    "state": "OK",
    "full_state": "Oklahoma",
    "county": "Logan"
  },
  {
    "zip_code": 73029,
    "latitude": 34.897258,
    "longitude": -98.204397,
    "city": "Cyril",
    "state": "OK",
    "full_state": "Oklahoma",
    "county": "Caddo"
  },
  {
    "zip_code": 73030,
    "latitude": 34.501771,
    "longitude": -97.047346,
    "city": "Davis",
    "state": "OK",
    "full_state": "Oklahoma",
    "county": "Murray"
  },
  {
    "zip_code": 73031,
    "latitude": 35.095739,
    "longitude": -97.301103,
    "city": "Dibble",
    "state": "OK",
    "full_state": "Oklahoma",
    "county": "Mcclain"
  },
  {
    "zip_code": 73032,
    "latitude": 34.484702,
    "longitude": -97.089708,
    "city": "Dougherty",
    "state": "OK",
    "full_state": "Oklahoma",
    "county": "Murray"
  },
  {
    "zip_code": 73033,
    "latitude": 35.303031,
    "longitude": -98.555431,
    "city": "Eakly",
    "state": "OK",
    "full_state": "Oklahoma",
    "county": "Caddo"
  },
  {
    "zip_code": 73034,
    "latitude": 35.631005,
    "longitude": -97.463291,
    "city": "Edmond",
    "state": "OK",
    "full_state": "Oklahoma",
    "county": "Oklahoma"
  },
  {
    "zip_code": 73036,
    "latitude": 35.508128,
    "longitude": -98.026708,
    "city": "El Reno",
    "state": "OK",
    "full_state": "Oklahoma",
    "county": "Canadian"
  },
  {
    "zip_code": 73038,
    "latitude": 35.100632,
    "longitude": -98.44173,
    "city": "Fort Cobb",
    "state": "OK",
    "full_state": "Oklahoma",
    "county": "Caddo"
  },
  {
    "zip_code": 73040,
    "latitude": 35.630034,
    "longitude": -98.32054,
    "city": "Geary",
    "state": "OK",
    "full_state": "Oklahoma",
    "county": "Blaine"
  },
  {
    "zip_code": 73041,
    "latitude": 35.069516,
    "longitude": -98.875945,
    "city": "Gotebo",
    "state": "OK",
    "full_state": "Oklahoma",
    "county": "Kiowa"
  },
  {
    "zip_code": 73042,
    "latitude": 35.042316,
    "longitude": -98.233336,
    "city": "Gracemont",
    "state": "OK",
    "full_state": "Oklahoma",
    "county": "Caddo"
  },
  {
    "zip_code": 73043,
    "latitude": 35.858554,
    "longitude": -98.421836,
    "city": "Greenfield",
    "state": "OK",
    "full_state": "Oklahoma",
    "county": "Blaine"
  },
  {
    "zip_code": 73044,
    "latitude": 35.877129,
    "longitude": -97.456312,
    "city": "Guthrie",
    "state": "OK",
    "full_state": "Oklahoma",
    "county": "Logan"
  },
  {
    "zip_code": 73045,
    "latitude": 35.53316,
    "longitude": -97.395314,
    "city": "Harrah",
    "state": "OK",
    "full_state": "Oklahoma",
    "county": "Oklahoma"
  },
  {
    "zip_code": 73047,
    "latitude": 35.473233,
    "longitude": -98.36371,
    "city": "Hinton",
    "state": "OK",
    "full_state": "Oklahoma",
    "county": "Caddo"
  },
  {
    "zip_code": 73048,
    "latitude": 35.327225,
    "longitude": -98.43108,
    "city": "Hydro",
    "state": "OK",
    "full_state": "Oklahoma",
    "county": "Caddo"
  },
  {
    "zip_code": 73049,
    "latitude": 35.578623,
    "longitude": -97.276428,
    "city": "Jones",
    "state": "OK",
    "full_state": "Oklahoma",
    "county": "Oklahoma"
  },
  {
    "zip_code": 73050,
    "latitude": 35.941924,
    "longitude": -97.25565,
    "city": "Langston",
    "state": "OK",
    "full_state": "Oklahoma",
    "county": "Logan"
  },
  {
    "zip_code": 73051,
    "latitude": 35.057992,
    "longitude": -97.26999,
    "city": "Lexington",
    "state": "OK",
    "full_state": "Oklahoma",
    "county": "Cleveland"
  },
  {
    "zip_code": 73052,
    "latitude": 34.836481,
    "longitude": -97.51668,
    "city": "Lindsay",
    "state": "OK",
    "full_state": "Oklahoma",
    "county": "Garvin"
  },
  {
    "zip_code": 73053,
    "latitude": 35.203206,
    "longitude": -98.357423,
    "city": "Lookeba",
    "state": "OK",
    "full_state": "Oklahoma",
    "county": "Caddo"
  },
  {
    "zip_code": 73054,
    "latitude": 35.632093,
    "longitude": -97.212206,
    "city": "Luther",
    "state": "OK",
    "full_state": "Oklahoma",
    "county": "Oklahoma"
  },
  {
    "zip_code": 73055,
    "latitude": 34.640543,
    "longitude": -97.908875,
    "city": "Marlow",
    "state": "OK",
    "full_state": "Oklahoma",
    "county": "Stephens"
  },
  {
    "zip_code": 73056,
    "latitude": 36.154158,
    "longitude": -97.626084,
    "city": "Marshall",
    "state": "OK",
    "full_state": "Oklahoma",
    "county": "Logan"
  },
  {
    "zip_code": 73057,
    "latitude": 34.816265,
    "longitude": -97.405333,
    "city": "Maysville",
    "state": "OK",
    "full_state": "Oklahoma",
    "county": "Garvin"
  },
  {
    "zip_code": 73058,
    "latitude": 35.775549,
    "longitude": -97.22659,
    "city": "Meridian",
    "state": "OK",
    "full_state": "Oklahoma",
    "county": "Logan"
  },
  {
    "zip_code": 73059,
    "latitude": 35.31278,
    "longitude": -97.950402,
    "city": "Minco",
    "state": "OK",
    "full_state": "Oklahoma",
    "county": "Grady"
  },
  {
    "zip_code": 73061,
    "latitude": 36.288043,
    "longitude": -97.029796,
    "city": "Morrison",
    "state": "OK",
    "full_state": "Oklahoma",
    "county": "Noble"
  },
  {
    "zip_code": 73062,
    "latitude": 35.087227,
    "longitude": -98.806836,
    "city": "Mountain View",
    "state": "OK",
    "full_state": "Oklahoma",
    "county": "Kiowa"
  },
  {
    "zip_code": 73063,
    "latitude": 36.062875,
    "longitude": -97.404562,
    "city": "Mulhall",
    "state": "OK",
    "full_state": "Oklahoma",
    "county": "Logan"
  },
  {
    "zip_code": 73064,
    "latitude": 35.390376,
    "longitude": -97.759874,
    "city": "Mustang",
    "state": "OK",
    "full_state": "Oklahoma",
    "county": "Canadian"
  },
  {
    "zip_code": 73065,
    "latitude": 35.219694,
    "longitude": -97.574274,
    "city": "Newcastle",
    "state": "OK",
    "full_state": "Oklahoma",
    "county": "Mcclain"
  },
  {
    "zip_code": 73066,
    "latitude": 35.469296,
    "longitude": -97.267769,
    "city": "Nicoma Park",
    "state": "OK",
    "full_state": "Oklahoma",
    "county": "Oklahoma"
  },
  {
    "zip_code": 73067,
    "latitude": 34.932908,
    "longitude": -97.939225,
    "city": "Ninnekah",
    "state": "OK",
    "full_state": "Oklahoma",
    "county": "Grady"
  },
  {
    "zip_code": 73068,
    "latitude": 35.152314,
    "longitude": -97.276226,
    "city": "Noble",
    "state": "OK",
    "full_state": "Oklahoma",
    "county": "Cleveland"
  },
  {
    "zip_code": 73069,
    "latitude": 35.232966,
    "longitude": -97.438246,
    "city": "Norman",
    "state": "OK",
    "full_state": "Oklahoma",
    "county": "Cleveland"
  },
  {
    "zip_code": 73070,
    "latitude": 35.187611,
    "longitude": -97.397509,
    "city": "Norman",
    "state": "OK",
    "full_state": "Oklahoma",
    "county": "Cleveland"
  },
  {
    "zip_code": 73071,
    "latitude": 35.254049,
    "longitude": -97.300313,
    "city": "Norman",
    "state": "OK",
    "full_state": "Oklahoma",
    "county": "Cleveland"
  },
  {
    "zip_code": 73072,
    "latitude": 35.218728,
    "longitude": -97.363181,
    "city": "Norman",
    "state": "OK",
    "full_state": "Oklahoma",
    "county": "Cleveland"
  },
  {
    "zip_code": 73073,
    "latitude": 35.944569,
    "longitude": -97.408181,
    "city": "Orlando",
    "state": "OK",
    "full_state": "Oklahoma",
    "county": "Logan"
  },
  {
    "zip_code": 73074,
    "latitude": 34.827711,
    "longitude": -97.262188,
    "city": "Paoli",
    "state": "OK",
    "full_state": "Oklahoma",
    "county": "Garvin"
  },
  {
    "zip_code": 73075,
    "latitude": 34.759696,
    "longitude": -97.308819,
    "city": "Pauls Valley",
    "state": "OK",
    "full_state": "Oklahoma",
    "county": "Garvin"
  },
  {
    "zip_code": 73077,
    "latitude": 36.318709,
    "longitude": -97.285561,
    "city": "Perry",
    "state": "OK",
    "full_state": "Oklahoma",
    "county": "Noble"
  },
  {
    "zip_code": 73078,
    "latitude": 35.653019,
    "longitude": -97.753948,
    "city": "Piedmont",
    "state": "OK",
    "full_state": "Oklahoma",
    "county": "Canadian"
  },
  {
    "zip_code": 73079,
    "latitude": 35.031247,
    "longitude": -97.881959,
    "city": "Pocasset",
    "state": "OK",
    "full_state": "Oklahoma",
    "county": "Grady"
  },
  {
    "zip_code": 73080,
    "latitude": 35.00181,
    "longitude": -97.379902,
    "city": "Purcell",
    "state": "OK",
    "full_state": "Oklahoma",
    "county": "Mcclain"
  },
  {
    "zip_code": 73082,
    "latitude": 34.775535,
    "longitude": -97.954459,
    "city": "Rush Springs",
    "state": "OK",
    "full_state": "Oklahoma",
    "county": "Grady"
  },
  {
    "zip_code": 73083,
    "latitude": 35.666481,
    "longitude": -97.465436,
    "city": "Edmond",
    "state": "OK",
    "full_state": "Oklahoma",
    "county": "Oklahoma"
  },
  {
    "zip_code": 73084,
    "latitude": 35.540113,
    "longitude": -97.387602,
    "city": "Spencer",
    "state": "OK",
    "full_state": "Oklahoma",
    "county": "Oklahoma"
  },
  {
    "zip_code": 73085,
    "latitude": 35.489527,
    "longitude": -97.750009,
    "city": "Yukon",
    "state": "OK",
    "full_state": "Oklahoma",
    "county": "Canadian"
  },
  {
    "zip_code": 73086,
    "latitude": 34.520837,
    "longitude": -96.996244,
    "city": "Sulphur",
    "state": "OK",
    "full_state": "Oklahoma",
    "county": "Murray"
  },
  {
    "zip_code": 73089,
    "latitude": 35.058651,
    "longitude": -97.81648,
    "city": "Tuttle",
    "state": "OK",
    "full_state": "Oklahoma",
    "county": "Grady"
  },
  {
    "zip_code": 73090,
    "latitude": 35.392567,
    "longitude": -97.944388,
    "city": "Union City",
    "state": "OK",
    "full_state": "Oklahoma",
    "county": "Canadian"
  },
  {
    "zip_code": 73092,
    "latitude": 35.081997,
    "longitude": -98.087971,
    "city": "Verden",
    "state": "OK",
    "full_state": "Oklahoma",
    "county": "Grady"
  },
  {
    "zip_code": 73093,
    "latitude": 35.105058,
    "longitude": -97.468258,
    "city": "Washington",
    "state": "OK",
    "full_state": "Oklahoma",
    "county": "Mcclain"
  },
  {
    "zip_code": 73094,
    "latitude": 35.203206,
    "longitude": -98.357423,
    "city": "Washita",
    "state": "OK",
    "full_state": "Oklahoma",
    "county": "Caddo"
  },
  {
    "zip_code": 73095,
    "latitude": 34.917497,
    "longitude": -97.315974,
    "city": "Wayne",
    "state": "OK",
    "full_state": "Oklahoma",
    "county": "Mcclain"
  },
  {
    "zip_code": 73096,
    "latitude": 35.538228,
    "longitude": -98.703175,
    "city": "Weatherford",
    "state": "OK",
    "full_state": "Oklahoma",
    "county": "Custer"
  },
  {
    "zip_code": 73097,
    "latitude": 35.400759,
    "longitude": -97.644368,
    "city": "Wheatland",
    "state": "OK",
    "full_state": "Oklahoma",
    "county": "Oklahoma"
  },
  {
    "zip_code": 73098,
    "latitude": 34.645418,
    "longitude": -97.162257,
    "city": "Wynnewood",
    "state": "OK",
    "full_state": "Oklahoma",
    "county": "Garvin"
  },
  {
    "zip_code": 73099,
    "latitude": 35.521448,
    "longitude": -97.770532,
    "city": "Yukon",
    "state": "OK",
    "full_state": "Oklahoma",
    "county": "Canadian"
  },
  {
    "zip_code": 73101,
    "latitude": 35.491608,
    "longitude": -97.562817,
    "city": "Oklahoma City",
    "state": "OK",
    "full_state": "Oklahoma",
    "county": "Oklahoma"
  },
  {
    "zip_code": 73102,
    "latitude": 35.475209,
    "longitude": -97.518916,
    "city": "Oklahoma City",
    "state": "OK",
    "full_state": "Oklahoma",
    "county": "Oklahoma"
  },
  {
    "zip_code": 73103,
    "latitude": 35.549197,
    "longitude": -97.486407,
    "city": "Oklahoma City",
    "state": "OK",
    "full_state": "Oklahoma",
    "county": "Oklahoma"
  },
  {
    "zip_code": 73104,
    "latitude": 35.44541,
    "longitude": -97.506415,
    "city": "Oklahoma City",
    "state": "OK",
    "full_state": "Oklahoma",
    "county": "Oklahoma"
  },
  {
    "zip_code": 73105,
    "latitude": 35.518576,
    "longitude": -97.505416,
    "city": "Oklahoma City",
    "state": "OK",
    "full_state": "Oklahoma",
    "county": "Oklahoma"
  },
  {
    "zip_code": 73106,
    "latitude": 35.482014,
    "longitude": -97.536666,
    "city": "Oklahoma City",
    "state": "OK",
    "full_state": "Oklahoma",
    "county": "Oklahoma"
  },
  {
    "zip_code": 73107,
    "latitude": 35.481908,
    "longitude": -97.542666,
    "city": "Oklahoma City",
    "state": "OK",
    "full_state": "Oklahoma",
    "county": "Oklahoma"
  },
  {
    "zip_code": 73108,
    "latitude": 35.447559,
    "longitude": -97.566497,
    "city": "Oklahoma City",
    "state": "OK",
    "full_state": "Oklahoma",
    "county": "Oklahoma"
  },
  {
    "zip_code": 73109,
    "latitude": 35.435221,
    "longitude": -97.525265,
    "city": "Oklahoma City",
    "state": "OK",
    "full_state": "Oklahoma",
    "county": "Oklahoma"
  },
  {
    "zip_code": 73110,
    "latitude": 35.460511,
    "longitude": -97.397441,
    "city": "Oklahoma City",
    "state": "OK",
    "full_state": "Oklahoma",
    "county": "Oklahoma"
  },
  {
    "zip_code": 73111,
    "latitude": 35.526182,
    "longitude": -97.502631,
    "city": "Oklahoma City",
    "state": "OK",
    "full_state": "Oklahoma",
    "county": "Oklahoma"
  },
  {
    "zip_code": 73112,
    "latitude": 35.511007,
    "longitude": -97.578865,
    "city": "Oklahoma City",
    "state": "OK",
    "full_state": "Oklahoma",
    "county": "Oklahoma"
  },
  {
    "zip_code": 73113,
    "latitude": 35.551409,
    "longitude": -97.407537,
    "city": "Oklahoma City",
    "state": "OK",
    "full_state": "Oklahoma",
    "county": "Oklahoma"
  },
  {
    "zip_code": 73114,
    "latitude": 35.544882,
    "longitude": -97.499605,
    "city": "Oklahoma City",
    "state": "OK",
    "full_state": "Oklahoma",
    "county": "Oklahoma"
  },
  {
    "zip_code": 73115,
    "latitude": 35.444931,
    "longitude": -97.446013,
    "city": "Oklahoma City",
    "state": "OK",
    "full_state": "Oklahoma",
    "county": "Oklahoma"
  },
  {
    "zip_code": 73116,
    "latitude": 35.551571,
    "longitude": -97.556318,
    "city": "Oklahoma City",
    "state": "OK",
    "full_state": "Oklahoma",
    "county": "Oklahoma"
  },
  {
    "zip_code": 73117,
    "latitude": 35.485021,
    "longitude": -97.463314,
    "city": "Oklahoma City",
    "state": "OK",
    "full_state": "Oklahoma",
    "county": "Oklahoma"
  },
  {
    "zip_code": 73118,
    "latitude": 35.518458,
    "longitude": -97.523316,
    "city": "Oklahoma City",
    "state": "OK",
    "full_state": "Oklahoma",
    "county": "Oklahoma"
  },
  {
    "zip_code": 73119,
    "latitude": 35.462144,
    "longitude": -97.583267,
    "city": "Oklahoma City",
    "state": "OK",
    "full_state": "Oklahoma",
    "county": "Oklahoma"
  },
  {
    "zip_code": 73120,
    "latitude": 35.587155,
    "longitude": -97.568418,
    "city": "Oklahoma City",
    "state": "OK",
    "full_state": "Oklahoma",
    "county": "Oklahoma"
  },
  {
    "zip_code": 73121,
    "latitude": 35.532257,
    "longitude": -97.451938,
    "city": "Oklahoma City",
    "state": "OK",
    "full_state": "Oklahoma",
    "county": "Oklahoma"
  },
  {
    "zip_code": 73122,
    "latitude": 35.518768,
    "longitude": -97.636119,
    "city": "Oklahoma City",
    "state": "OK",
    "full_state": "Oklahoma",
    "county": "Oklahoma"
  },
  {
    "zip_code": 73123,
    "latitude": 35.535989,
    "longitude": -97.202331,
    "city": "Oklahoma City",
    "state": "OK",
    "full_state": "Oklahoma",
    "county": "Oklahoma"
  },
  {
    "zip_code": 73124,
    "latitude": 35.551409,
    "longitude": -97.407537,
    "city": "Oklahoma City",
    "state": "OK",
    "full_state": "Oklahoma",
    "county": "Oklahoma"
  },
  {
    "zip_code": 73125,
    "latitude": 35.465418,
    "longitude": -97.521816,
    "city": "Oklahoma City",
    "state": "OK",
    "full_state": "Oklahoma",
    "county": "Oklahoma"
  },
  {
    "zip_code": 73126,
    "latitude": 35.551409,
    "longitude": -97.407537,
    "city": "Oklahoma City",
    "state": "OK",
    "full_state": "Oklahoma",
    "county": "Oklahoma"
  },
  {
    "zip_code": 73127,
    "latitude": 35.475459,
    "longitude": -97.600817,
    "city": "Oklahoma City",
    "state": "OK",
    "full_state": "Oklahoma",
    "county": "Oklahoma"
  },
  {
    "zip_code": 73128,
    "latitude": 35.427335,
    "longitude": -97.636284,
    "city": "Oklahoma City",
    "state": "OK",
    "full_state": "Oklahoma",
    "county": "Oklahoma"
  },
  {
    "zip_code": 73129,
    "latitude": 35.428579,
    "longitude": -97.486065,
    "city": "Oklahoma City",
    "state": "OK",
    "full_state": "Oklahoma",
    "county": "Oklahoma"
  },
  {
    "zip_code": 73130,
    "latitude": 35.459312,
    "longitude": -97.298733,
    "city": "Oklahoma City",
    "state": "OK",
    "full_state": "Oklahoma",
    "county": "Oklahoma"
  },
  {
    "zip_code": 73131,
    "latitude": 35.566004,
    "longitude": -97.459414,
    "city": "Oklahoma City",
    "state": "OK",
    "full_state": "Oklahoma",
    "county": "Oklahoma"
  },
  {
    "zip_code": 73132,
    "latitude": 35.558349,
    "longitude": -97.637519,
    "city": "Oklahoma City",
    "state": "OK",
    "full_state": "Oklahoma",
    "county": "Oklahoma"
  },
  {
    "zip_code": 73134,
    "latitude": 35.624134,
    "longitude": -97.567199,
    "city": "Oklahoma City",
    "state": "OK",
    "full_state": "Oklahoma",
    "county": "Oklahoma"
  },
  {
    "zip_code": 73135,
    "latitude": 35.401512,
    "longitude": -97.416562,
    "city": "Oklahoma City",
    "state": "OK",
    "full_state": "Oklahoma",
    "county": "Oklahoma"
  },
  {
    "zip_code": 73136,
    "latitude": 35.61534,
    "longitude": -97.326151,
    "city": "Oklahoma City",
    "state": "OK",
    "full_state": "Oklahoma",
    "county": "Oklahoma"
  },
  {
    "zip_code": 73137,
    "latitude": 35.551409,
    "longitude": -97.407537,
    "city": "Oklahoma City",
    "state": "OK",
    "full_state": "Oklahoma",
    "county": "Oklahoma"
  },
  {
    "zip_code": 73139,
    "latitude": 35.370262,
    "longitude": -97.525464,
    "city": "Oklahoma City",
    "state": "OK",
    "full_state": "Oklahoma",
    "county": "Cleveland"
  },
  {
    "zip_code": 73140,
    "latitude": 35.518509,
    "longitude": -97.427464,
    "city": "Oklahoma City",
    "state": "OK",
    "full_state": "Oklahoma",
    "county": "Oklahoma"
  },
  {
    "zip_code": 73141,
    "latitude": 35.583757,
    "longitude": -97.397064,
    "city": "Oklahoma City",
    "state": "OK",
    "full_state": "Oklahoma",
    "county": "Oklahoma"
  },
  {
    "zip_code": 73142,
    "latitude": 35.62034,
    "longitude": -97.612588,
    "city": "Oklahoma City",
    "state": "OK",
    "full_state": "Oklahoma",
    "county": "Oklahoma"
  },
  {
    "zip_code": 73143,
    "latitude": 35.551409,
    "longitude": -97.407537,
    "city": "Oklahoma City",
    "state": "OK",
    "full_state": "Oklahoma",
    "county": "Oklahoma"
  },
  {
    "zip_code": 73144,
    "latitude": 35.551409,
    "longitude": -97.407537,
    "city": "Oklahoma City",
    "state": "OK",
    "full_state": "Oklahoma",
    "county": "Oklahoma"
  },
  {
    "zip_code": 73145,
    "latitude": 35.430406,
    "longitude": -97.396184,
    "city": "Oklahoma City",
    "state": "OK",
    "full_state": "Oklahoma",
    "county": "Oklahoma"
  },
  {
    "zip_code": 73146,
    "latitude": 35.551409,
    "longitude": -97.407537,
    "city": "Oklahoma City",
    "state": "OK",
    "full_state": "Oklahoma",
    "county": "Oklahoma"
  },
  {
    "zip_code": 73147,
    "latitude": 35.551409,
    "longitude": -97.407537,
    "city": "Oklahoma City",
    "state": "OK",
    "full_state": "Oklahoma",
    "county": "Oklahoma"
  },
  {
    "zip_code": 73148,
    "latitude": 35.551409,
    "longitude": -97.407537,
    "city": "Oklahoma City",
    "state": "OK",
    "full_state": "Oklahoma",
    "county": "Oklahoma"
  },
  {
    "zip_code": 73149,
    "latitude": 35.391712,
    "longitude": -97.477463,
    "city": "Oklahoma City",
    "state": "OK",
    "full_state": "Oklahoma",
    "county": "Oklahoma"
  },
  {
    "zip_code": 73150,
    "latitude": 35.406963,
    "longitude": -97.320363,
    "city": "Oklahoma City",
    "state": "OK",
    "full_state": "Oklahoma",
    "county": "Oklahoma"
  },
  {
    "zip_code": 73151,
    "latitude": 35.574858,
    "longitude": -97.371621,
    "city": "Oklahoma City",
    "state": "OK",
    "full_state": "Oklahoma",
    "county": "Oklahoma"
  },
  {
    "zip_code": 73152,
    "latitude": 35.551409,
    "longitude": -97.407537,
    "city": "Oklahoma City",
    "state": "OK",
    "full_state": "Oklahoma",
    "county": "Oklahoma"
  },
  {
    "zip_code": 73153,
    "latitude": 35.551409,
    "longitude": -97.407537,
    "city": "Oklahoma City",
    "state": "OK",
    "full_state": "Oklahoma",
    "county": "Oklahoma"
  },
  {
    "zip_code": 73154,
    "latitude": 35.523758,
    "longitude": -97.525467,
    "city": "Oklahoma City",
    "state": "OK",
    "full_state": "Oklahoma",
    "county": "Oklahoma"
  },
  {
    "zip_code": 73155,
    "latitude": 35.551409,
    "longitude": -97.407537,
    "city": "Oklahoma City",
    "state": "OK",
    "full_state": "Oklahoma",
    "county": "Oklahoma"
  },
  {
    "zip_code": 73156,
    "latitude": 35.551409,
    "longitude": -97.407537,
    "city": "Oklahoma City",
    "state": "OK",
    "full_state": "Oklahoma",
    "county": "Oklahoma"
  },
  {
    "zip_code": 73157,
    "latitude": 35.551409,
    "longitude": -97.407537,
    "city": "Oklahoma City",
    "state": "OK",
    "full_state": "Oklahoma",
    "county": "Oklahoma"
  },
  {
    "zip_code": 73159,
    "latitude": 35.394212,
    "longitude": -97.566716,
    "city": "Oklahoma City",
    "state": "OK",
    "full_state": "Oklahoma",
    "county": "Oklahoma"
  },
  {
    "zip_code": 73160,
    "latitude": 35.326895,
    "longitude": -97.406805,
    "city": "Oklahoma City",
    "state": "OK",
    "full_state": "Oklahoma",
    "county": "Cleveland"
  },
  {
    "zip_code": 73162,
    "latitude": 35.565419,
    "longitude": -97.575218,
    "city": "Oklahoma City",
    "state": "OK",
    "full_state": "Oklahoma",
    "county": "Oklahoma"
  },
  {
    "zip_code": 73163,
    "latitude": 35.551409,
    "longitude": -97.407537,
    "city": "Oklahoma City",
    "state": "OK",
    "full_state": "Oklahoma",
    "county": "Oklahoma"
  },
  {
    "zip_code": 73164,
    "latitude": 35.551409,
    "longitude": -97.407537,
    "city": "Oklahoma City",
    "state": "OK",
    "full_state": "Oklahoma",
    "county": "Oklahoma"
  },
  {
    "zip_code": 73165,
    "latitude": 35.326665,
    "longitude": -97.353359,
    "city": "Oklahoma City",
    "state": "OK",
    "full_state": "Oklahoma",
    "county": "Cleveland"
  },
  {
    "zip_code": 73167,
    "latitude": 35.551409,
    "longitude": -97.407537,
    "city": "Oklahoma City",
    "state": "OK",
    "full_state": "Oklahoma",
    "county": "Oklahoma"
  },
  {
    "zip_code": 73169,
    "latitude": 35.392473,
    "longitude": -97.636161,
    "city": "Oklahoma City",
    "state": "OK",
    "full_state": "Oklahoma",
    "county": "Oklahoma"
  },
  {
    "zip_code": 73170,
    "latitude": 35.2972,
    "longitude": -97.501459,
    "city": "Oklahoma City",
    "state": "OK",
    "full_state": "Oklahoma",
    "county": "Cleveland"
  },
  {
    "zip_code": 73172,
    "latitude": 35.517456,
    "longitude": -97.621769,
    "city": "Oklahoma City",
    "state": "OK",
    "full_state": "Oklahoma",
    "county": "Oklahoma"
  },
  {
    "zip_code": 73173,
    "latitude": 35.343003,
    "longitude": -97.625383,
    "city": "Oklahoma City",
    "state": "OK",
    "full_state": "Oklahoma",
    "county": "Cleveland"
  },
  {
    "zip_code": 73177,
    "latitude": 35.551409,
    "longitude": -97.407537,
    "city": "Oklahoma City",
    "state": "OK",
    "full_state": "Oklahoma",
    "county": "Oklahoma"
  },
  {
    "zip_code": 73178,
    "latitude": 35.551409,
    "longitude": -97.407537,
    "city": "Oklahoma City",
    "state": "OK",
    "full_state": "Oklahoma",
    "county": "Oklahoma"
  },
  {
    "zip_code": 73179,
    "latitude": 35.424819,
    "longitude": -97.6363,
    "city": "Oklahoma City",
    "state": "OK",
    "full_state": "Oklahoma",
    "county": "Oklahoma"
  },
  {
    "zip_code": 73180,
    "latitude": 35.551409,
    "longitude": -97.407537,
    "city": "Oklahoma City",
    "state": "OK",
    "full_state": "Oklahoma",
    "county": "Oklahoma"
  },
  {
    "zip_code": 73184,
    "latitude": 35.551409,
    "longitude": -97.407537,
    "city": "Oklahoma City",
    "state": "OK",
    "full_state": "Oklahoma",
    "county": "Oklahoma"
  },
  {
    "zip_code": 73185,
    "latitude": 35.551409,
    "longitude": -97.407537,
    "city": "Oklahoma City",
    "state": "OK",
    "full_state": "Oklahoma",
    "county": "Oklahoma"
  },
  {
    "zip_code": 73189,
    "latitude": 35.551409,
    "longitude": -97.407537,
    "city": "Oklahoma City",
    "state": "OK",
    "full_state": "Oklahoma",
    "county": "Oklahoma"
  },
  {
    "zip_code": 73190,
    "latitude": 35.551409,
    "longitude": -97.407537,
    "city": "Oklahoma City",
    "state": "OK",
    "full_state": "Oklahoma",
    "county": "Oklahoma"
  },
  {
    "zip_code": 73193,
    "latitude": 35.551409,
    "longitude": -97.407537,
    "city": "Oklahoma City",
    "state": "OK",
    "full_state": "Oklahoma",
    "county": "Oklahoma"
  },
  {
    "zip_code": 73194,
    "latitude": 35.551409,
    "longitude": -97.407537,
    "city": "Oklahoma City",
    "state": "OK",
    "full_state": "Oklahoma",
    "county": "Oklahoma"
  },
  {
    "zip_code": 73195,
    "latitude": 35.400731,
    "longitude": -97.594754,
    "city": "Oklahoma City",
    "state": "OK",
    "full_state": "Oklahoma",
    "county": "Oklahoma"
  },
  {
    "zip_code": 73196,
    "latitude": 35.551409,
    "longitude": -97.407537,
    "city": "Oklahoma City",
    "state": "OK",
    "full_state": "Oklahoma",
    "county": "Oklahoma"
  },
  {
    "zip_code": 73197,
    "latitude": 35.551409,
    "longitude": -97.407537,
    "city": "Oklahoma City",
    "state": "OK",
    "full_state": "Oklahoma",
    "county": "Oklahoma"
  },
  {
    "zip_code": 73198,
    "latitude": 35.551409,
    "longitude": -97.407537,
    "city": "Oklahoma City",
    "state": "OK",
    "full_state": "Oklahoma",
    "county": "Oklahoma"
  },
  {
    "zip_code": 73199,
    "latitude": 35.551409,
    "longitude": -97.407537,
    "city": "Oklahoma City",
    "state": "OK",
    "full_state": "Oklahoma",
    "county": "Oklahoma"
  },
  {
    "zip_code": 73301,
    "latitude": 30.326374,
    "longitude": -97.771258,
    "city": "Austin",
    "state": "TX",
    "full_state": "Texas",
    "county": "Travis"
  },
  {
    "zip_code": 73344,
    "latitude": 30.326374,
    "longitude": -97.771258,
    "city": "Austin",
    "state": "TX",
    "full_state": "Texas",
    "county": "Travis"
  },
  {
    "zip_code": 73401,
    "latitude": 34.156627,
    "longitude": -97.179214,
    "city": "Ardmore",
    "state": "OK",
    "full_state": "Oklahoma",
    "county": "Carter"
  },
  {
    "zip_code": 73402,
    "latitude": 34.288884,
    "longitude": -97.248074,
    "city": "Ardmore",
    "state": "OK",
    "full_state": "Oklahoma",
    "county": "Carter"
  },
  {
    "zip_code": 73403,
    "latitude": 34.288884,
    "longitude": -97.248074,
    "city": "Ardmore",
    "state": "OK",
    "full_state": "Oklahoma",
    "county": "Carter"
  },
  {
    "zip_code": 73425,
    "latitude": 34.48532,
    "longitude": -97.852223,
    "city": "Countyline",
    "state": "OK",
    "full_state": "Oklahoma",
    "county": "Stephens"
  },
  {
    "zip_code": 73430,
    "latitude": 33.925982,
    "longitude": -97.310324,
    "city": "Burneyville",
    "state": "OK",
    "full_state": "Oklahoma",
    "county": "Love"
  },
  {
    "zip_code": 73432,
    "latitude": 34.310191,
    "longitude": -96.670349,
    "city": "Coleman",
    "state": "OK",
    "full_state": "Oklahoma",
    "county": "Johnston"
  },
  {
    "zip_code": 73433,
    "latitude": 34.719832,
    "longitude": -97.34077,
    "city": "Elmore City",
    "state": "OK",
    "full_state": "Oklahoma",
    "county": "Garvin"
  },
  {
    "zip_code": 73434,
    "latitude": 34.48532,
    "longitude": -97.852223,
    "city": "Foster",
    "state": "OK",
    "full_state": "Oklahoma",
    "county": "Stephens"
  },
  {
    "zip_code": 73435,
    "latitude": 34.288884,
    "longitude": -97.248074,
    "city": "Fox",
    "state": "OK",
    "full_state": "Oklahoma",
    "county": "Carter"
  },
  {
    "zip_code": 73436,
    "latitude": 34.293948,
    "longitude": -97.033905,
    "city": "Gene Autry",
    "state": "OK",
    "full_state": "Oklahoma",
    "county": "Carter"
  },
  {
    "zip_code": 73437,
    "latitude": 34.288884,
    "longitude": -97.248074,
    "city": "Graham",
    "state": "OK",
    "full_state": "Oklahoma",
    "county": "Carter"
  },
  {
    "zip_code": 73438,
    "latitude": 34.217164,
    "longitude": -97.402923,
    "city": "Healdton",
    "state": "OK",
    "full_state": "Oklahoma",
    "county": "Carter"
  },
  {
    "zip_code": 73439,
    "latitude": 33.974518,
    "longitude": -96.698204,
    "city": "Kingston",
    "state": "OK",
    "full_state": "Oklahoma",
    "county": "Marshall"
  },
  {
    "zip_code": 73440,
    "latitude": 33.998567,
    "longitude": -96.758835,
    "city": "Lebanon",
    "state": "OK",
    "full_state": "Oklahoma",
    "county": "Marshall"
  },
  {
    "zip_code": 73441,
    "latitude": 33.894135,
    "longitude": -97.247886,
    "city": "Leon",
    "state": "OK",
    "full_state": "Oklahoma",
    "county": "Love"
  },
  {
    "zip_code": 73442,
    "latitude": 34.48532,
    "longitude": -97.852223,
    "city": "Loco",
    "state": "OK",
    "full_state": "Oklahoma",
    "county": "Stephens"
  },
  {
    "zip_code": 73443,
    "latitude": 34.141332,
    "longitude": -97.321977,
    "city": "Lone Grove",
    "state": "OK",
    "full_state": "Oklahoma",
    "county": "Carter"
  },
  {
    "zip_code": 73444,
    "latitude": 34.680871,
    "longitude": -97.300429,
    "city": "Hennepin",
    "state": "OK",
    "full_state": "Oklahoma",
    "county": "Garvin"
  },
  {
    "zip_code": 73446,
    "latitude": 34.010202,
    "longitude": -96.754984,
    "city": "Madill",
    "state": "OK",
    "full_state": "Oklahoma",
    "county": "Marshall"
  },
  {
    "zip_code": 73447,
    "latitude": 34.183418,
    "longitude": -96.878673,
    "city": "Mannsville",
    "state": "OK",
    "full_state": "Oklahoma",
    "county": "Johnston"
  },
  {
    "zip_code": 73448,
    "latitude": 33.935268,
    "longitude": -97.111939,
    "city": "Marietta",
    "state": "OK",
    "full_state": "Oklahoma",
    "county": "Love"
  },
  {
    "zip_code": 73449,
    "latitude": 33.971979,
    "longitude": -96.457371,
    "city": "Mead",
    "state": "OK",
    "full_state": "Oklahoma",
    "county": "Bryan"
  },
  {
    "zip_code": 73450,
    "latitude": 34.310191,
    "longitude": -96.670349,
    "city": "Milburn",
    "state": "OK",
    "full_state": "Oklahoma",
    "county": "Johnston"
  },
  {
    "zip_code": 73453,
    "latitude": 33.894135,
    "longitude": -97.247886,
    "city": "Overbrook",
    "state": "OK",
    "full_state": "Oklahoma",
    "county": "Love"
  },
  {
    "zip_code": 73455,
    "latitude": 34.244023,
    "longitude": -96.752906,
    "city": "Ravia",
    "state": "OK",
    "full_state": "Oklahoma",
    "county": "Johnston"
  },
  {
    "zip_code": 73456,
    "latitude": 34.200318,
    "longitude": -97.810259,
    "city": "Ringling",
    "state": "OK",
    "full_state": "Oklahoma",
    "county": "Jefferson"
  },
  {
    "zip_code": 73458,
    "latitude": 34.304534,
    "longitude": -97.134372,
    "city": "Springer",
    "state": "OK",
    "full_state": "Oklahoma",
    "county": "Carter"
  },
  {
    "zip_code": 73459,
    "latitude": 33.894135,
    "longitude": -97.247886,
    "city": "Thackerville",
    "state": "OK",
    "full_state": "Oklahoma",
    "county": "Love"
  },
  {
    "zip_code": 73460,
    "latitude": 34.275856,
    "longitude": -96.655188,
    "city": "Tishomingo",
    "state": "OK",
    "full_state": "Oklahoma",
    "county": "Johnston"
  },
  {
    "zip_code": 73461,
    "latitude": 34.371445,
    "longitude": -96.429558,
    "city": "Wapanucka",
    "state": "OK",
    "full_state": "Oklahoma",
    "county": "Johnston"
  },
  {
    "zip_code": 73463,
    "latitude": 34.169282,
    "longitude": -97.354691,
    "city": "Wilson",
    "state": "OK",
    "full_state": "Oklahoma",
    "county": "Carter"
  },
  {
    "zip_code": 73476,
    "latitude": 34.680871,
    "longitude": -97.300429,
    "city": "Pernell",
    "state": "OK",
    "full_state": "Oklahoma",
    "county": "Garvin"
  },
  {
    "zip_code": 73481,
    "latitude": 34.288884,
    "longitude": -97.248074,
    "city": "Ratliff City",
    "state": "OK",
    "full_state": "Oklahoma",
    "county": "Carter"
  },
  {
    "zip_code": 73487,
    "latitude": 34.288884,
    "longitude": -97.248074,
    "city": "Tatums",
    "state": "OK",
    "full_state": "Oklahoma",
    "county": "Carter"
  },
  {
    "zip_code": 73488,
    "latitude": 34.288884,
    "longitude": -97.248074,
    "city": "Tussy",
    "state": "OK",
    "full_state": "Oklahoma",
    "county": "Carter"
  },
  {
    "zip_code": 73491,
    "latitude": 34.456505,
    "longitude": -97.668866,
    "city": "Velma",
    "state": "OK",
    "full_state": "Oklahoma",
    "county": "Stephens"
  },
  {
    "zip_code": 73501,
    "latitude": 34.635378,
    "longitude": -98.448452,
    "city": "Lawton",
    "state": "OK",
    "full_state": "Oklahoma",
    "county": "Comanche"
  },
  {
    "zip_code": 73502,
    "latitude": 34.630879,
    "longitude": -98.457646,
    "city": "Lawton",
    "state": "OK",
    "full_state": "Oklahoma",
    "county": "Comanche"
  },
  {
    "zip_code": 73503,
    "latitude": 34.663978,
    "longitude": -98.437482,
    "city": "Fort Sill",
    "state": "OK",
    "full_state": "Oklahoma",
    "county": "Comanche"
  },
  {
    "zip_code": 73505,
    "latitude": 34.678734,
    "longitude": -98.436365,
    "city": "Lawton",
    "state": "OK",
    "full_state": "Oklahoma",
    "county": "Comanche"
  },
  {
    "zip_code": 73506,
    "latitude": 34.630879,
    "longitude": -98.457646,
    "city": "Lawton",
    "state": "OK",
    "full_state": "Oklahoma",
    "county": "Comanche"
  },
  {
    "zip_code": 73507,
    "latitude": 34.560957,
    "longitude": -98.387482,
    "city": "Lawton",
    "state": "OK",
    "full_state": "Oklahoma",
    "county": "Comanche"
  },
  {
    "zip_code": 73520,
    "latitude": 34.069661,
    "longitude": -97.838026,
    "city": "Addington",
    "state": "OK",
    "full_state": "Oklahoma",
    "county": "Jefferson"
  },
  {
    "zip_code": 73521,
    "latitude": 34.663039,
    "longitude": -99.280343,
    "city": "Altus",
    "state": "OK",
    "full_state": "Oklahoma",
    "county": "Jackson"
  },
  {
    "zip_code": 73522,
    "latitude": 34.723795,
    "longitude": -99.383928,
    "city": "Altus",
    "state": "OK",
    "full_state": "Oklahoma",
    "county": "Jackson"
  },
  {
    "zip_code": 73523,
    "latitude": 34.598197,
    "longitude": -99.440839,
    "city": "Altus Afb",
    "state": "OK",
    "full_state": "Oklahoma",
    "county": "Jackson"
  },
  {
    "zip_code": 73526,
    "latitude": 34.783568,
    "longitude": -99.331758,
    "city": "Blair",
    "state": "OK",
    "full_state": "Oklahoma",
    "county": "Jackson"
  },
  {
    "zip_code": 73527,
    "latitude": 34.545031,
    "longitude": -98.508297,
    "city": "Cache",
    "state": "OK",
    "full_state": "Oklahoma",
    "county": "Comanche"
  },
  {
    "zip_code": 73528,
    "latitude": 34.424316,
    "longitude": -98.654352,
    "city": "Chattanooga",
    "state": "OK",
    "full_state": "Oklahoma",
    "county": "Comanche"
  },
  {
    "zip_code": 73529,
    "latitude": 34.393689,
    "longitude": -97.970651,
    "city": "Comanche",
    "state": "OK",
    "full_state": "Oklahoma",
    "county": "Stephens"
  },
  {
    "zip_code": 73530,
    "latitude": 34.242236,
    "longitude": -99.076314,
    "city": "Davidson",
    "state": "OK",
    "full_state": "Oklahoma",
    "county": "Tillman"
  },
  {
    "zip_code": 73531,
    "latitude": 34.284738,
    "longitude": -98.40044,
    "city": "Devol",
    "state": "OK",
    "full_state": "Oklahoma",
    "county": "Cotton"
  },
  {
    "zip_code": 73532,
    "latitude": 34.663508,
    "longitude": -99.569018,
    "city": "Duke",
    "state": "OK",
    "full_state": "Oklahoma",
    "county": "Jackson"
  },
  {
    "zip_code": 73533,
    "latitude": 34.547749,
    "longitude": -97.933279,
    "city": "Duncan",
    "state": "OK",
    "full_state": "Oklahoma",
    "county": "Stephens"
  },
  {
    "zip_code": 73534,
    "latitude": 34.518944,
    "longitude": -97.973331,
    "city": "Duncan",
    "state": "OK",
    "full_state": "Oklahoma",
    "county": "Stephens"
  },
  {
    "zip_code": 73536,
    "latitude": 34.48532,
    "longitude": -97.852223,
    "city": "Duncan",
    "state": "OK",
    "full_state": "Oklahoma",
    "county": "Stephens"
  },
  {
    "zip_code": 73537,
    "latitude": 34.472021,
    "longitude": -99.647324,
    "city": "Eldorado",
    "state": "OK",
    "full_state": "Oklahoma",
    "county": "Jackson"
  },
  {
    "zip_code": 73538,
    "latitude": 34.609391,
    "longitude": -98.406833,
    "city": "Elgin",
    "state": "OK",
    "full_state": "Oklahoma",
    "county": "Comanche"
  },
  {
    "zip_code": 73539,
    "latitude": 34.481717,
    "longitude": -99.347951,
    "city": "Elmer",
    "state": "OK",
    "full_state": "Oklahoma",
    "county": "Jackson"
  },
  {
    "zip_code": 73540,
    "latitude": 34.630879,
    "longitude": -98.457646,
    "city": "Faxon",
    "state": "OK",
    "full_state": "Oklahoma",
    "county": "Comanche"
  },
  {
    "zip_code": 73541,
    "latitude": 34.826905,
    "longitude": -98.228076,
    "city": "Fletcher",
    "state": "OK",
    "full_state": "Oklahoma",
    "county": "Comanche"
  },
  {
    "zip_code": 73542,
    "latitude": 34.386281,
    "longitude": -99.001688,
    "city": "Frederick",
    "state": "OK",
    "full_state": "Oklahoma",
    "county": "Tillman"
  },
  {
    "zip_code": 73543,
    "latitude": 34.482402,
    "longitude": -98.381879,
    "city": "Geronimo",
    "state": "OK",
    "full_state": "Oklahoma",
    "county": "Comanche"
  },
  {
    "zip_code": 73544,
    "latitude": 34.768632,
    "longitude": -99.833341,
    "city": "Gould",
    "state": "OK",
    "full_state": "Oklahoma",
    "county": "Harmon"
  },
  {
    "zip_code": 73546,
    "latitude": 34.362887,
    "longitude": -98.911705,
    "city": "Grandfield",
    "state": "OK",
    "full_state": "Oklahoma",
    "county": "Tillman"
  },
  {
    "zip_code": 73547,
    "latitude": 34.950884,
    "longitude": -99.394148,
    "city": "Granite",
    "state": "OK",
    "full_state": "Oklahoma",
    "county": "Greer"
  },
  {
    "zip_code": 73548,
    "latitude": 34.069661,
    "longitude": -97.838026,
    "city": "Hastings",
    "state": "OK",
    "full_state": "Oklahoma",
    "county": "Jefferson"
  },
  {
    "zip_code": 73549,
    "latitude": 34.626509,
    "longitude": -99.139047,
    "city": "Headrick",
    "state": "OK",
    "full_state": "Oklahoma",
    "county": "Jackson"
  },
  {
    "zip_code": 73550,
    "latitude": 34.694028,
    "longitude": -99.912395,
    "city": "Hollis",
    "state": "OK",
    "full_state": "Oklahoma",
    "county": "Harmon"
  },
  {
    "zip_code": 73551,
    "latitude": 34.381102,
    "longitude": -98.923769,
    "city": "Hollister",
    "state": "OK",
    "full_state": "Oklahoma",
    "county": "Tillman"
  },
  {
    "zip_code": 73552,
    "latitude": 34.618969,
    "longitude": -98.75235,
    "city": "Indiahoma",
    "state": "OK",
    "full_state": "Oklahoma",
    "county": "Comanche"
  },
  {
    "zip_code": 73553,
    "latitude": 34.381102,
    "longitude": -98.923769,
    "city": "Loveland",
    "state": "OK",
    "full_state": "Oklahoma",
    "county": "Tillman"
  },
  {
    "zip_code": 73554,
    "latitude": 34.912592,
    "longitude": -99.460577,
    "city": "Mangum",
    "state": "OK",
    "full_state": "Oklahoma",
    "county": "Greer"
  },
  {
    "zip_code": 73555,
    "latitude": 34.507462,
    "longitude": -98.979191,
    "city": "Manitou",
    "state": "OK",
    "full_state": "Oklahoma",
    "county": "Tillman"
  },
  {
    "zip_code": 73556,
    "latitude": 34.719237,
    "longitude": -99.4154,
    "city": "Martha",
    "state": "OK",
    "full_state": "Oklahoma",
    "county": "Jackson"
  },
  {
    "zip_code": 73557,
    "latitude": 34.630879,
    "longitude": -98.457646,
    "city": "Medicine Park",
    "state": "OK",
    "full_state": "Oklahoma",
    "county": "Comanche"
  },
  {
    "zip_code": 73558,
    "latitude": 34.630879,
    "longitude": -98.457646,
    "city": "Meers",
    "state": "OK",
    "full_state": "Oklahoma",
    "county": "Comanche"
  },
  {
    "zip_code": 73559,
    "latitude": 34.69694,
    "longitude": -98.94888,
    "city": "Mountain Park",
    "state": "OK",
    "full_state": "Oklahoma",
    "county": "Kiowa"
  },
  {
    "zip_code": 73560,
    "latitude": 34.54794,
    "longitude": -99.421959,
    "city": "Olustee",
    "state": "OK",
    "full_state": "Oklahoma",
    "county": "Jackson"
  },
  {
    "zip_code": 73561,
    "latitude": 34.069661,
    "longitude": -97.838026,
    "city": "Oscar",
    "state": "OK",
    "full_state": "Oklahoma",
    "county": "Jefferson"
  },
  {
    "zip_code": 73562,
    "latitude": 34.284738,
    "longitude": -98.40044,
    "city": "Randlett",
    "state": "OK",
    "full_state": "Oklahoma",
    "county": "Cotton"
  },
  {
    "zip_code": 73564,
    "latitude": 34.850598,
    "longitude": -99.021205,
    "city": "Roosevelt",
    "state": "OK",
    "full_state": "Oklahoma",
    "county": "Kiowa"
  },
  {
    "zip_code": 73565,
    "latitude": 34.021911,
    "longitude": -97.954867,
    "city": "Ryan",
    "state": "OK",
    "full_state": "Oklahoma",
    "county": "Jefferson"
  },
  {
    "zip_code": 73566,
    "latitude": 34.673689,
    "longitude": -98.95239,
    "city": "Snyder",
    "state": "OK",
    "full_state": "Oklahoma",
    "county": "Kiowa"
  },
  {
    "zip_code": 73567,
    "latitude": 34.749594,
    "longitude": -98.167941,
    "city": "Sterling",
    "state": "OK",
    "full_state": "Oklahoma",
    "county": "Comanche"
  },
  {
    "zip_code": 73568,
    "latitude": 34.271467,
    "longitude": -98.260334,
    "city": "Temple",
    "state": "OK",
    "full_state": "Oklahoma",
    "county": "Cotton"
  },
  {
    "zip_code": 73569,
    "latitude": 34.069661,
    "longitude": -97.838026,
    "city": "Terral",
    "state": "OK",
    "full_state": "Oklahoma",
    "county": "Jefferson"
  },
  {
    "zip_code": 73570,
    "latitude": 34.488104,
    "longitude": -99.158545,
    "city": "Tipton",
    "state": "OK",
    "full_state": "Oklahoma",
    "county": "Tillman"
  },
  {
    "zip_code": 73571,
    "latitude": 34.768632,
    "longitude": -99.833341,
    "city": "Vinson",
    "state": "OK",
    "full_state": "Oklahoma",
    "county": "Harmon"
  },
  {
    "zip_code": 73572,
    "latitude": 34.321541,
    "longitude": -98.319264,
    "city": "Walters",
    "state": "OK",
    "full_state": "Oklahoma",
    "county": "Cotton"
  },
  {
    "zip_code": 73573,
    "latitude": 34.168309,
    "longitude": -98.000691,
    "city": "Waurika",
    "state": "OK",
    "full_state": "Oklahoma",
    "county": "Jefferson"
  },
  {
    "zip_code": 73575,
    "latitude": 34.48532,
    "longitude": -97.852223,
    "city": "Duncan",
    "state": "OK",
    "full_state": "Oklahoma",
    "county": "Stephens"
  },
  {
    "zip_code": 73601,
    "latitude": 35.60603,
    "longitude": -98.902136,
    "city": "Clinton",
    "state": "OK",
    "full_state": "Oklahoma",
    "county": "Custer"
  },
  {
    "zip_code": 73620,
    "latitude": 35.566643,
    "longitude": -98.960209,
    "city": "Arapaho",
    "state": "OK",
    "full_state": "Oklahoma",
    "county": "Custer"
  },
  {
    "zip_code": 73622,
    "latitude": 35.387478,
    "longitude": -98.989778,
    "city": "Bessie",
    "state": "OK",
    "full_state": "Oklahoma",
    "county": "Washita"
  },
  {
    "zip_code": 73624,
    "latitude": 35.349154,
    "longitude": -99.187984,
    "city": "Burns Flat",
    "state": "OK",
    "full_state": "Oklahoma",
    "county": "Washita"
  },
  {
    "zip_code": 73625,
    "latitude": 35.63862,
    "longitude": -99.00005,
    "city": "Butler",
    "state": "OK",
    "full_state": "Oklahoma",
    "county": "Custer"
  },
  {
    "zip_code": 73626,
    "latitude": 35.418882,
    "longitude": -99.280304,
    "city": "Canute",
    "state": "OK",
    "full_state": "Oklahoma",
    "county": "Washita"
  },
  {
    "zip_code": 73627,
    "latitude": 35.26946,
    "longitude": -99.680146,
    "city": "Carter",
    "state": "OK",
    "full_state": "Oklahoma",
    "county": "Beckham"
  },
  {
    "zip_code": 73628,
    "latitude": 35.608071,
    "longitude": -99.672542,
    "city": "Cheyenne",
    "state": "OK",
    "full_state": "Oklahoma",
    "county": "Roger Mills"
  },
  {
    "zip_code": 73632,
    "latitude": 35.232961,
    "longitude": -99.05841,
    "city": "Cordell",
    "state": "OK",
    "full_state": "Oklahoma",
    "county": "Washita"
  },
  {
    "zip_code": 73638,
    "latitude": 35.717616,
    "longitude": -99.682177,
    "city": "Crawford",
    "state": "OK",
    "full_state": "Oklahoma",
    "county": "Roger Mills"
  },
  {
    "zip_code": 73639,
    "latitude": 35.62389,
    "longitude": -98.912212,
    "city": "Custer City",
    "state": "OK",
    "full_state": "Oklahoma",
    "county": "Custer"
  },
  {
    "zip_code": 73641,
    "latitude": 35.224845,
    "longitude": -99.150331,
    "city": "Dill City",
    "state": "OK",
    "full_state": "Oklahoma",
    "county": "Washita"
  },
  {
    "zip_code": 73642,
    "latitude": 35.717616,
    "longitude": -99.682177,
    "city": "Durham",
    "state": "OK",
    "full_state": "Oklahoma",
    "county": "Roger Mills"
  },
  {
    "zip_code": 73644,
    "latitude": 35.320621,
    "longitude": -99.624253,
    "city": "Elk City",
    "state": "OK",
    "full_state": "Oklahoma",
    "county": "Beckham"
  },
  {
    "zip_code": 73645,
    "latitude": 35.203883,
    "longitude": -99.870825,
    "city": "Erick",
    "state": "OK",
    "full_state": "Oklahoma",
    "county": "Beckham"
  },
  {
    "zip_code": 73646,
    "latitude": 35.988409,
    "longitude": -99.007165,
    "city": "Fay",
    "state": "OK",
    "full_state": "Oklahoma",
    "county": "Dewey"
  },
  {
    "zip_code": 73647,
    "latitude": 35.281428,
    "longitude": -98.991373,
    "city": "Foss",
    "state": "OK",
    "full_state": "Oklahoma",
    "county": "Washita"
  },
  {
    "zip_code": 73648,
    "latitude": 35.26946,
    "longitude": -99.680146,
    "city": "Elk City",
    "state": "OK",
    "full_state": "Oklahoma",
    "county": "Beckham"
  },
  {
    "zip_code": 73650,
    "latitude": 35.630294,
    "longitude": -99.381869,
    "city": "Hammon",
    "state": "OK",
    "full_state": "Oklahoma",
    "county": "Roger Mills"
  },
  {
    "zip_code": 73651,
    "latitude": 35.012688,
    "longitude": -99.136501,
    "city": "Hobart",
    "state": "OK",
    "full_state": "Oklahoma",
    "county": "Kiowa"
  },
  {
    "zip_code": 73654,
    "latitude": 35.868275,
    "longitude": -99.344373,
    "city": "Leedey",
    "state": "OK",
    "full_state": "Oklahoma",
    "county": "Dewey"
  },
  {
    "zip_code": 73655,
    "latitude": 34.989694,
    "longitude": -99.24543,
    "city": "Lone Wolf",
    "state": "OK",
    "full_state": "Oklahoma",
    "county": "Kiowa"
  },
  {
    "zip_code": 73658,
    "latitude": 35.93284,
    "longitude": -98.706518,
    "city": "Oakwood",
    "state": "OK",
    "full_state": "Oklahoma",
    "county": "Dewey"
  },
  {
    "zip_code": 73659,
    "latitude": 35.854883,
    "longitude": -98.966584,
    "city": "Putnam",
    "state": "OK",
    "full_state": "Oklahoma",
    "county": "Dewey"
  },
  {
    "zip_code": 73660,
    "latitude": 35.633338,
    "longitude": -99.819077,
    "city": "Reydon",
    "state": "OK",
    "full_state": "Oklahoma",
    "county": "Roger Mills"
  },
  {
    "zip_code": 73661,
    "latitude": 35.155439,
    "longitude": -99.059758,
    "city": "Rocky",
    "state": "OK",
    "full_state": "Oklahoma",
    "county": "Washita"
  },
  {
    "zip_code": 73662,
    "latitude": 35.237521,
    "longitude": -99.74838,
    "city": "Sayre",
    "state": "OK",
    "full_state": "Oklahoma",
    "county": "Beckham"
  },
  {
    "zip_code": 73663,
    "latitude": 36.100391,
    "longitude": -98.94537,
    "city": "Seiling",
    "state": "OK",
    "full_state": "Oklahoma",
    "county": "Dewey"
  },
  {
    "zip_code": 73664,
    "latitude": 35.283787,
    "longitude": -99.170439,
    "city": "Sentinel",
    "state": "OK",
    "full_state": "Oklahoma",
    "county": "Washita"
  },
  {
    "zip_code": 73666,
    "latitude": 35.717616,
    "longitude": -99.682177,
    "city": "Sweetwater",
    "state": "OK",
    "full_state": "Oklahoma",
    "county": "Roger Mills"
  },
  {
    "zip_code": 73667,
    "latitude": 36.040765,
    "longitude": -98.961606,
    "city": "Taloga",
    "state": "OK",
    "full_state": "Oklahoma",
    "county": "Dewey"
  },
  {
    "zip_code": 73668,
    "latitude": 35.26946,
    "longitude": -99.680146,
    "city": "Texola",
    "state": "OK",
    "full_state": "Oklahoma",
    "county": "Beckham"
  },
  {
    "zip_code": 73669,
    "latitude": 35.709894,
    "longitude": -98.81099,
    "city": "Thomas",
    "state": "OK",
    "full_state": "Oklahoma",
    "county": "Custer"
  },
  {
    "zip_code": 73673,
    "latitude": 34.920817,
    "longitude": -99.567494,
    "city": "Willow",
    "state": "OK",
    "full_state": "Oklahoma",
    "county": "Greer"
  },
  {
    "zip_code": 73701,
    "latitude": 36.402681,
    "longitude": -97.843091,
    "city": "Enid",
    "state": "OK",
    "full_state": "Oklahoma",
    "county": "Garfield"
  },
  {
    "zip_code": 73702,
    "latitude": 36.379072,
    "longitude": -97.782595,
    "city": "Enid",
    "state": "OK",
    "full_state": "Oklahoma",
    "county": "Garfield"
  },
  {
    "zip_code": 73703,
    "latitude": 36.398065,
    "longitude": -97.943813,
    "city": "Enid",
    "state": "OK",
    "full_state": "Oklahoma",
    "county": "Garfield"
  },
  {
    "zip_code": 73705,
    "latitude": 36.379072,
    "longitude": -97.782595,
    "city": "Enid",
    "state": "OK",
    "full_state": "Oklahoma",
    "county": "Garfield"
  },
  {
    "zip_code": 73706,
    "latitude": 36.379072,
    "longitude": -97.782595,
    "city": "Enid",
    "state": "OK",
    "full_state": "Oklahoma",
    "county": "Garfield"
  },
  {
    "zip_code": 73716,
    "latitude": 36.51176,
    "longitude": -98.449895,
    "city": "Aline",
    "state": "OK",
    "full_state": "Oklahoma",
    "county": "Alfalfa"
  },
  {
    "zip_code": 73717,
    "latitude": 36.826594,
    "longitude": -98.640045,
    "city": "Alva",
    "state": "OK",
    "full_state": "Oklahoma",
    "county": "Woods"
  },
  {
    "zip_code": 73718,
    "latitude": 36.246582,
    "longitude": -98.185445,
    "city": "Ames",
    "state": "OK",
    "full_state": "Oklahoma",
    "county": "Major"
  },
  {
    "zip_code": 73719,
    "latitude": 36.925116,
    "longitude": -98.29243,
    "city": "Amorita",
    "state": "OK",
    "full_state": "Oklahoma",
    "county": "Alfalfa"
  },
  {
    "zip_code": 73720,
    "latitude": 36.379072,
    "longitude": -97.782595,
    "city": "Bison",
    "state": "OK",
    "full_state": "Oklahoma",
    "county": "Garfield"
  },
  {
    "zip_code": 73722,
    "latitude": 36.730959,
    "longitude": -98.324548,
    "city": "Burlington",
    "state": "OK",
    "full_state": "Oklahoma",
    "county": "Alfalfa"
  },
  {
    "zip_code": 73724,
    "latitude": 36.09281,
    "longitude": -98.577618,
    "city": "Canton",
    "state": "OK",
    "full_state": "Oklahoma",
    "county": "Blaine"
  },
  {
    "zip_code": 73726,
    "latitude": 36.578946,
    "longitude": -98.45608,
    "city": "Carmen",
    "state": "OK",
    "full_state": "Oklahoma",
    "county": "Alfalfa"
  },
  {
    "zip_code": 73727,
    "latitude": 36.379072,
    "longitude": -97.782595,
    "city": "Carrier",
    "state": "OK",
    "full_state": "Oklahoma",
    "county": "Garfield"
  },
  {
    "zip_code": 73728,
    "latitude": 36.665351,
    "longitude": -98.366783,
    "city": "Cherokee",
    "state": "OK",
    "full_state": "Oklahoma",
    "county": "Alfalfa"
  },
  {
    "zip_code": 73729,
    "latitude": 36.4053,
    "longitude": -98.453278,
    "city": "Cleo Springs",
    "state": "OK",
    "full_state": "Oklahoma",
    "county": "Major"
  },
  {
    "zip_code": 73730,
    "latitude": 36.30749,
    "longitude": -97.58643,
    "city": "Covington",
    "state": "OK",
    "full_state": "Oklahoma",
    "county": "Garfield"
  },
  {
    "zip_code": 73731,
    "latitude": 36.662062,
    "longitude": -98.562972,
    "city": "Dacoma",
    "state": "OK",
    "full_state": "Oklahoma",
    "county": "Woods"
  },
  {
    "zip_code": 73733,
    "latitude": 36.379072,
    "longitude": -97.782595,
    "city": "Douglas",
    "state": "OK",
    "full_state": "Oklahoma",
    "county": "Garfield"
  },
  {
    "zip_code": 73734,
    "latitude": 35.982319,
    "longitude": -97.912342,
    "city": "Dover",
    "state": "OK",
    "full_state": "Oklahoma",
    "county": "Kingfisher"
  },
  {
    "zip_code": 73735,
    "latitude": 36.307449,
    "longitude": -98.04182,
    "city": "Drummond",
    "state": "OK",
    "full_state": "Oklahoma",
    "county": "Garfield"
  },
  {
    "zip_code": 73736,
    "latitude": 36.379072,
    "longitude": -97.782595,
    "city": "Fairmont",
    "state": "OK",
    "full_state": "Oklahoma",
    "county": "Garfield"
  },
  {
    "zip_code": 73737,
    "latitude": 36.323942,
    "longitude": -98.337597,
    "city": "Fairview",
    "state": "OK",
    "full_state": "Oklahoma",
    "county": "Major"
  },
  {
    "zip_code": 73738,
    "latitude": 36.436334,
    "longitude": -97.580931,
    "city": "Garber",
    "state": "OK",
    "full_state": "Oklahoma",
    "county": "Garfield"
  },
  {
    "zip_code": 73739,
    "latitude": 36.531985,
    "longitude": -98.151279,
    "city": "Goltry",
    "state": "OK",
    "full_state": "Oklahoma",
    "county": "Alfalfa"
  },
  {
    "zip_code": 73741,
    "latitude": 36.546639,
    "longitude": -98.271091,
    "city": "Helena",
    "state": "OK",
    "full_state": "Oklahoma",
    "county": "Alfalfa"
  },
  {
    "zip_code": 73742,
    "latitude": 35.924916,
    "longitude": -97.938778,
    "city": "Hennessey",
    "state": "OK",
    "full_state": "Oklahoma",
    "county": "Kingfisher"
  },
  {
    "zip_code": 73743,
    "latitude": 36.379072,
    "longitude": -97.782595,
    "city": "Hillsdale",
    "state": "OK",
    "full_state": "Oklahoma",
    "county": "Garfield"
  },
  {
    "zip_code": 73744,
    "latitude": 35.970011,
    "longitude": -98.350529,
    "city": "Hitchcock",
    "state": "OK",
    "full_state": "Oklahoma",
    "county": "Blaine"
  },
  {
    "zip_code": 73746,
    "latitude": 36.695512,
    "longitude": -98.994721,
    "city": "Hopeton",
    "state": "OK",
    "full_state": "Oklahoma",
    "county": "Woods"
  },
  {
    "zip_code": 73747,
    "latitude": 36.334047,
    "longitude": -98.532338,
    "city": "Isabella",
    "state": "OK",
    "full_state": "Oklahoma",
    "county": "Major"
  },
  {
    "zip_code": 73749,
    "latitude": 36.666492,
    "longitude": -98.181223,
    "city": "Jet",
    "state": "OK",
    "full_state": "Oklahoma",
    "county": "Alfalfa"
  },
  {
    "zip_code": 73750,
    "latitude": 35.897508,
    "longitude": -97.92563,
    "city": "Kingfisher",
    "state": "OK",
    "full_state": "Oklahoma",
    "county": "Kingfisher"
  },
  {
    "zip_code": 73753,
    "latitude": 36.528516,
    "longitude": -97.849762,
    "city": "Kremlin",
    "state": "OK",
    "full_state": "Oklahoma",
    "county": "Garfield"
  },
  {
    "zip_code": 73754,
    "latitude": 36.388985,
    "longitude": -98.091121,
    "city": "Lahoma",
    "state": "OK",
    "full_state": "Oklahoma",
    "county": "Garfield"
  },
  {
    "zip_code": 73755,
    "latitude": 36.133739,
    "longitude": -98.551349,
    "city": "Longdale",
    "state": "OK",
    "full_state": "Oklahoma",
    "county": "Blaine"
  },
  {
    "zip_code": 73756,
    "latitude": 35.945046,
    "longitude": -97.942225,
    "city": "Loyal",
    "state": "OK",
    "full_state": "Oklahoma",
    "county": "Kingfisher"
  },
  {
    "zip_code": 73757,
    "latitude": 36.272842,
    "longitude": -97.454971,
    "city": "Lucien",
    "state": "OK",
    "full_state": "Oklahoma",
    "county": "Noble"
  },
  {
    "zip_code": 73758,
    "latitude": 36.79613,
    "longitude": -97.787099,
    "city": "Manchester",
    "state": "OK",
    "full_state": "Oklahoma",
    "county": "Grant"
  },
  {
    "zip_code": 73759,
    "latitude": 36.7394,
    "longitude": -97.889923,
    "city": "Medford",
    "state": "OK",
    "full_state": "Oklahoma",
    "county": "Grant"
  },
  {
    "zip_code": 73760,
    "latitude": 36.384201,
    "longitude": -98.209947,
    "city": "Meno",
    "state": "OK",
    "full_state": "Oklahoma",
    "county": "Major"
  },
  {
    "zip_code": 73761,
    "latitude": 36.664875,
    "longitude": -98.0517,
    "city": "Nash",
    "state": "OK",
    "full_state": "Oklahoma",
    "county": "Grant"
  },
  {
    "zip_code": 73762,
    "latitude": 35.732016,
    "longitude": -97.97746,
    "city": "Okarche",
    "state": "OK",
    "full_state": "Oklahoma",
    "county": "Canadian"
  },
  {
    "zip_code": 73763,
    "latitude": 36.122914,
    "longitude": -98.42913,
    "city": "Okeene",
    "state": "OK",
    "full_state": "Oklahoma",
    "county": "Blaine"
  },
  {
    "zip_code": 73764,
    "latitude": 35.945046,
    "longitude": -97.942225,
    "city": "Omega",
    "state": "OK",
    "full_state": "Oklahoma",
    "county": "Kingfisher"
  },
  {
    "zip_code": 73766,
    "latitude": 36.661992,
    "longitude": -97.841842,
    "city": "Pond Creek",
    "state": "OK",
    "full_state": "Oklahoma",
    "county": "Grant"
  },
  {
    "zip_code": 73768,
    "latitude": 36.379012,
    "longitude": -98.243516,
    "city": "Ringwood",
    "state": "OK",
    "full_state": "Oklahoma",
    "county": "Major"
  },
  {
    "zip_code": 73770,
    "latitude": 36.058133,
    "longitude": -98.588383,
    "city": "Southard",
    "state": "OK",
    "full_state": "Oklahoma",
    "county": "Blaine"
  },
  {
    "zip_code": 73771,
    "latitude": 36.882468,
    "longitude": -97.923858,
    "city": "Wakita",
    "state": "OK",
    "full_state": "Oklahoma",
    "county": "Grant"
  },
  {
    "zip_code": 73772,
    "latitude": 35.980824,
    "longitude": -98.37882,
    "city": "Watonga",
    "state": "OK",
    "full_state": "Oklahoma",
    "county": "Blaine"
  },
  {
    "zip_code": 73773,
    "latitude": 36.241968,
    "longitude": -97.911828,
    "city": "Waukomis",
    "state": "OK",
    "full_state": "Oklahoma",
    "county": "Garfield"
  },
  {
    "zip_code": 73801,
    "latitude": 36.438017,
    "longitude": -99.442977,
    "city": "Woodward",
    "state": "OK",
    "full_state": "Oklahoma",
    "county": "Woodward"
  },
  {
    "zip_code": 73802,
    "latitude": 36.431095,
    "longitude": -99.534157,
    "city": "Woodward",
    "state": "OK",
    "full_state": "Oklahoma",
    "county": "Woodward"
  },
  {
    "zip_code": 73832,
    "latitude": 36.204191,
    "longitude": -99.818311,
    "city": "Arnett",
    "state": "OK",
    "full_state": "Oklahoma",
    "county": "Ellis"
  },
  {
    "zip_code": 73834,
    "latitude": 36.791802,
    "longitude": -99.753511,
    "city": "Buffalo",
    "state": "OK",
    "full_state": "Oklahoma",
    "county": "Harper"
  },
  {
    "zip_code": 73835,
    "latitude": 36.019939,
    "longitude": -99.287978,
    "city": "Camargo",
    "state": "OK",
    "full_state": "Oklahoma",
    "county": "Dewey"
  },
  {
    "zip_code": 73838,
    "latitude": 36.334047,
    "longitude": -98.532338,
    "city": "Chester",
    "state": "OK",
    "full_state": "Oklahoma",
    "county": "Major"
  },
  {
    "zip_code": 73840,
    "latitude": 36.373497,
    "longitude": -99.622067,
    "city": "Fargo",
    "state": "OK",
    "full_state": "Oklahoma",
    "county": "Ellis"
  },
  {
    "zip_code": 73841,
    "latitude": 36.572183,
    "longitude": -99.573764,
    "city": "Fort Supply",
    "state": "OK",
    "full_state": "Oklahoma",
    "county": "Woodward"
  },
  {
    "zip_code": 73842,
    "latitude": 36.768905,
    "longitude": -99.112676,
    "city": "Freedom",
    "state": "OK",
    "full_state": "Oklahoma",
    "county": "Woods"
  },
  {
    "zip_code": 73843,
    "latitude": 36.255493,
    "longitude": -99.753814,
    "city": "Gage",
    "state": "OK",
    "full_state": "Oklahoma",
    "county": "Ellis"
  },
  {
    "zip_code": 73844,
    "latitude": 36.750783,
    "longitude": -100.478393,
    "city": "Gate",
    "state": "OK",
    "full_state": "Oklahoma",
    "county": "Beaver"
  },
  {
    "zip_code": 73847,
    "latitude": 36.750783,
    "longitude": -100.478393,
    "city": "Knowles",
    "state": "OK",
    "full_state": "Oklahoma",
    "county": "Beaver"
  },
  {
    "zip_code": 73848,
    "latitude": 36.764793,
    "longitude": -99.765785,
    "city": "Laverne",
    "state": "OK",
    "full_state": "Oklahoma",
    "county": "Harper"
  },
  {
    "zip_code": 73851,
    "latitude": 36.797229,
    "longitude": -99.64949,
    "city": "May",
    "state": "OK",
    "full_state": "Oklahoma",
    "county": "Harper"
  },
  {
    "zip_code": 73852,
    "latitude": 36.460397,
    "longitude": -99.202631,
    "city": "Mooreland",
    "state": "OK",
    "full_state": "Oklahoma",
    "county": "Woodward"
  },
  {
    "zip_code": 73853,
    "latitude": 36.490567,
    "longitude": -99.280828,
    "city": "Mutual",
    "state": "OK",
    "full_state": "Oklahoma",
    "county": "Woodward"
  },
  {
    "zip_code": 73855,
    "latitude": 36.797229,
    "longitude": -99.64949,
    "city": "Rosston",
    "state": "OK",
    "full_state": "Oklahoma",
    "county": "Harper"
  },
  {
    "zip_code": 73857,
    "latitude": 36.27581,
    "longitude": -99.33784,
    "city": "Sharon",
    "state": "OK",
    "full_state": "Oklahoma",
    "county": "Woodward"
  },
  {
    "zip_code": 73858,
    "latitude": 36.318631,
    "longitude": -99.758319,
    "city": "Shattuck",
    "state": "OK",
    "full_state": "Oklahoma",
    "county": "Ellis"
  },
  {
    "zip_code": 73859,
    "latitude": 36.149508,
    "longitude": -99.301912,
    "city": "Vici",
    "state": "OK",
    "full_state": "Oklahoma",
    "county": "Dewey"
  },
  {
    "zip_code": 73860,
    "latitude": 36.671897,
    "longitude": -98.974629,
    "city": "Waynoka",
    "state": "OK",
    "full_state": "Oklahoma",
    "county": "Woods"
  },
  {
    "zip_code": 73901,
    "latitude": 36.755,
    "longitude": -101.077969,
    "city": "Adams",
    "state": "OK",
    "full_state": "Oklahoma",
    "county": "Texas"
  },
  {
    "zip_code": 73931,
    "latitude": 36.750783,
    "longitude": -100.478393,
    "city": "Balko",
    "state": "OK",
    "full_state": "Oklahoma",
    "county": "Beaver"
  },
  {
    "zip_code": 73932,
    "latitude": 36.834113,
    "longitude": -100.51773,
    "city": "Beaver",
    "state": "OK",
    "full_state": "Oklahoma",
    "county": "Beaver"
  },
  {
    "zip_code": 73933,
    "latitude": 36.742042,
    "longitude": -102.510484,
    "city": "Boise City",
    "state": "OK",
    "full_state": "Oklahoma",
    "county": "Cimarron"
  },
  {
    "zip_code": 73937,
    "latitude": 36.75051,
    "longitude": -102.515316,
    "city": "Felt",
    "state": "OK",
    "full_state": "Oklahoma",
    "county": "Cimarron"
  },
  {
    "zip_code": 73938,
    "latitude": 36.86081,
    "longitude": -100.531611,
    "city": "Forgan",
    "state": "OK",
    "full_state": "Oklahoma",
    "county": "Beaver"
  },
  {
    "zip_code": 73939,
    "latitude": 36.594672,
    "longitude": -101.630164,
    "city": "Goodwell",
    "state": "OK",
    "full_state": "Oklahoma",
    "county": "Texas"
  },
  {
    "zip_code": 73942,
    "latitude": 36.729713,
    "longitude": -101.426147,
    "city": "Guymon",
    "state": "OK",
    "full_state": "Oklahoma",
    "county": "Texas"
  },
  {
    "zip_code": 73944,
    "latitude": 36.615367,
    "longitude": -101.198155,
    "city": "Hardesty",
    "state": "OK",
    "full_state": "Oklahoma",
    "county": "Texas"
  },
  {
    "zip_code": 73945,
    "latitude": 36.810851,
    "longitude": -101.216333,
    "city": "Hooker",
    "state": "OK",
    "full_state": "Oklahoma",
    "county": "Texas"
  },
  {
    "zip_code": 73946,
    "latitude": 36.903144,
    "longitude": -102.965301,
    "city": "Kenton",
    "state": "OK",
    "full_state": "Oklahoma",
    "county": "Cimarron"
  },
  {
    "zip_code": 73947,
    "latitude": 36.8079,
    "longitude": -102.250924,
    "city": "Keyes",
    "state": "OK",
    "full_state": "Oklahoma",
    "county": "Cimarron"
  },
  {
    "zip_code": 73949,
    "latitude": 36.507508,
    "longitude": -101.780668,
    "city": "Texhoma",
    "state": "OK",
    "full_state": "Oklahoma",
    "county": "Texas"
  },
  {
    "zip_code": 73950,
    "latitude": 36.866365,
    "longitude": -100.877878,
    "city": "Turpin",
    "state": "OK",
    "full_state": "Oklahoma",
    "county": "Beaver"
  },
  {
    "zip_code": 73951,
    "latitude": 36.971874,
    "longitude": -101.073973,
    "city": "Tyrone",
    "state": "OK",
    "full_state": "Oklahoma",
    "county": "Texas"
  },
  {
    "zip_code": 74001,
    "latitude": 36.490056,
    "longitude": -96.061608,
    "city": "Avant",
    "state": "OK",
    "full_state": "Oklahoma",
    "county": "Osage"
  },
  {
    "zip_code": 74002,
    "latitude": 36.561588,
    "longitude": -96.162409,
    "city": "Barnsdall",
    "state": "OK",
    "full_state": "Oklahoma",
    "county": "Osage"
  },
  {
    "zip_code": 74003,
    "latitude": 36.759485,
    "longitude": -95.970182,
    "city": "Bartlesville",
    "state": "OK",
    "full_state": "Oklahoma",
    "county": "Washington"
  },
  {
    "zip_code": 74004,
    "latitude": 36.711386,
    "longitude": -95.894042,
    "city": "Bartlesville",
    "state": "OK",
    "full_state": "Oklahoma",
    "county": "Washington"
  },
  {
    "zip_code": 74005,
    "latitude": 36.711386,
    "longitude": -95.894042,
    "city": "Bartlesville",
    "state": "OK",
    "full_state": "Oklahoma",
    "county": "Washington"
  },
  {
    "zip_code": 74006,
    "latitude": 36.728057,
    "longitude": -95.89064,
    "city": "Bartlesville",
    "state": "OK",
    "full_state": "Oklahoma",
    "county": "Washington"
  },
  {
    "zip_code": 74008,
    "latitude": 35.93345,
    "longitude": -95.877617,
    "city": "Bixby",
    "state": "OK",
    "full_state": "Oklahoma",
    "county": "Tulsa"
  },
  {
    "zip_code": 74009,
    "latitude": 36.665794,
    "longitude": -96.398424,
    "city": "Bowring",
    "state": "OK",
    "full_state": "Oklahoma",
    "county": "Osage"
  },
  {
    "zip_code": 74010,
    "latitude": 35.835606,
    "longitude": -96.303922,
    "city": "Bristow",
    "state": "OK",
    "full_state": "Oklahoma",
    "county": "Creek"
  },
  {
    "zip_code": 74011,
    "latitude": 35.986399,
    "longitude": -95.818064,
    "city": "Broken Arrow",
    "state": "OK",
    "full_state": "Oklahoma",
    "county": "Tulsa"
  },
  {
    "zip_code": 74012,
    "latitude": 36.14226,
    "longitude": -95.879069,
    "city": "Broken Arrow",
    "state": "OK",
    "full_state": "Oklahoma",
    "county": "Tulsa"
  },
  {
    "zip_code": 74013,
    "latitude": 36.139826,
    "longitude": -96.029725,
    "city": "Broken Arrow",
    "state": "OK",
    "full_state": "Oklahoma",
    "county": "Tulsa"
  },
  {
    "zip_code": 74014,
    "latitude": 36.005673,
    "longitude": -95.654486,
    "city": "Broken Arrow",
    "state": "OK",
    "full_state": "Oklahoma",
    "county": "Wagoner"
  },
  {
    "zip_code": 74015,
    "latitude": 36.212092,
    "longitude": -95.72584,
    "city": "Catoosa",
    "state": "OK",
    "full_state": "Oklahoma",
    "county": "Rogers"
  },
  {
    "zip_code": 74016,
    "latitude": 36.495713,
    "longitude": -95.435688,
    "city": "Chelsea",
    "state": "OK",
    "full_state": "Oklahoma",
    "county": "Rogers"
  },
  {
    "zip_code": 74017,
    "latitude": 36.348616,
    "longitude": -95.604344,
    "city": "Claremore",
    "state": "OK",
    "full_state": "Oklahoma",
    "county": "Rogers"
  },
  {
    "zip_code": 74018,
    "latitude": 36.343579,
    "longitude": -95.605964,
    "city": "Claremore",
    "state": "OK",
    "full_state": "Oklahoma",
    "county": "Rogers"
  },
  {
    "zip_code": 74020,
    "latitude": 36.263766,
    "longitude": -96.443319,
    "city": "Cleveland",
    "state": "OK",
    "full_state": "Oklahoma",
    "county": "Pawnee"
  },
  {
    "zip_code": 74021,
    "latitude": 36.370042,
    "longitude": -95.857143,
    "city": "Collinsville",
    "state": "OK",
    "full_state": "Oklahoma",
    "county": "Tulsa"
  },
  {
    "zip_code": 74022,
    "latitude": 36.800524,
    "longitude": -95.922953,
    "city": "Copan",
    "state": "OK",
    "full_state": "Oklahoma",
    "county": "Washington"
  },
  {
    "zip_code": 74023,
    "latitude": 36.029294,
    "longitude": -96.855949,
    "city": "Cushing",
    "state": "OK",
    "full_state": "Oklahoma",
    "county": "Payne"
  },
  {
    "zip_code": 74026,
    "latitude": 35.708886,
    "longitude": -96.766992,
    "city": "Davenport",
    "state": "OK",
    "full_state": "Oklahoma",
    "county": "Lincoln"
  },
  {
    "zip_code": 74027,
    "latitude": 36.777208,
    "longitude": -95.641981,
    "city": "Delaware",
    "state": "OK",
    "full_state": "Oklahoma",
    "county": "Nowata"
  },
  {
    "zip_code": 74028,
    "latitude": 35.769827,
    "longitude": -96.49192,
    "city": "Depew",
    "state": "OK",
    "full_state": "Oklahoma",
    "county": "Creek"
  },
  {
    "zip_code": 74029,
    "latitude": 36.676086,
    "longitude": -95.896743,
    "city": "Dewey",
    "state": "OK",
    "full_state": "Oklahoma",
    "county": "Washington"
  },
  {
    "zip_code": 74030,
    "latitude": 36.012363,
    "longitude": -96.548022,
    "city": "Drumright",
    "state": "OK",
    "full_state": "Oklahoma",
    "county": "Creek"
  },
  {
    "zip_code": 74031,
    "latitude": 36.336457,
    "longitude": -95.571646,
    "city": "Foyil",
    "state": "OK",
    "full_state": "Oklahoma",
    "county": "Rogers"
  },
  {
    "zip_code": 74032,
    "latitude": 36.225349,
    "longitude": -96.933795,
    "city": "Glencoe",
    "state": "OK",
    "full_state": "Oklahoma",
    "county": "Payne"
  },
  {
    "zip_code": 74033,
    "latitude": 36.102858,
    "longitude": -95.998172,
    "city": "Glenpool",
    "state": "OK",
    "full_state": "Oklahoma",
    "county": "Tulsa"
  },
  {
    "zip_code": 74034,
    "latitude": 36.36216,
    "longitude": -96.637553,
    "city": "Hallett",
    "state": "OK",
    "full_state": "Oklahoma",
    "county": "Pawnee"
  },
  {
    "zip_code": 74035,
    "latitude": 36.363731,
    "longitude": -96.236595,
    "city": "Hominy",
    "state": "OK",
    "full_state": "Oklahoma",
    "county": "Osage"
  },
  {
    "zip_code": 74036,
    "latitude": 36.169526,
    "longitude": -95.521145,
    "city": "Inola",
    "state": "OK",
    "full_state": "Oklahoma",
    "county": "Rogers"
  },
  {
    "zip_code": 74037,
    "latitude": 36.006567,
    "longitude": -95.980972,
    "city": "Jenks",
    "state": "OK",
    "full_state": "Oklahoma",
    "county": "Tulsa"
  },
  {
    "zip_code": 74038,
    "latitude": 36.180965,
    "longitude": -96.570239,
    "city": "Jennings",
    "state": "OK",
    "full_state": "Oklahoma",
    "county": "Pawnee"
  },
  {
    "zip_code": 74039,
    "latitude": 35.908301,
    "longitude": -96.240843,
    "city": "Kellyville",
    "state": "OK",
    "full_state": "Oklahoma",
    "county": "Creek"
  },
  {
    "zip_code": 74041,
    "latitude": 35.948245,
    "longitude": -96.071685,
    "city": "Kiefer",
    "state": "OK",
    "full_state": "Oklahoma",
    "county": "Creek"
  },
  {
    "zip_code": 74042,
    "latitude": 36.922429,
    "longitude": -95.629628,
    "city": "Lenapah",
    "state": "OK",
    "full_state": "Oklahoma",
    "county": "Nowata"
  },
  {
    "zip_code": 74043,
    "latitude": 35.918277,
    "longitude": -95.798809,
    "city": "Leonard",
    "state": "OK",
    "full_state": "Oklahoma",
    "county": "Tulsa"
  },
  {
    "zip_code": 74044,
    "latitude": 36.079255,
    "longitude": -96.378373,
    "city": "Mannford",
    "state": "OK",
    "full_state": "Oklahoma",
    "county": "Creek"
  },
  {
    "zip_code": 74045,
    "latitude": 36.36216,
    "longitude": -96.637553,
    "city": "Maramec",
    "state": "OK",
    "full_state": "Oklahoma",
    "county": "Pawnee"
  },
  {
    "zip_code": 74046,
    "latitude": 35.901277,
    "longitude": -96.326053,
    "city": "Milfay",
    "state": "OK",
    "full_state": "Oklahoma",
    "county": "Creek"
  },
  {
    "zip_code": 74047,
    "latitude": 35.889588,
    "longitude": -96.088684,
    "city": "Mounds",
    "state": "OK",
    "full_state": "Oklahoma",
    "county": "Creek"
  },
  {
    "zip_code": 74048,
    "latitude": 36.69908,
    "longitude": -95.631607,
    "city": "Nowata",
    "state": "OK",
    "full_state": "Oklahoma",
    "county": "Nowata"
  },
  {
    "zip_code": 74050,
    "latitude": 36.07694,
    "longitude": -96.069726,
    "city": "Oakhurst",
    "state": "OK",
    "full_state": "Oklahoma",
    "county": "Tulsa"
  },
  {
    "zip_code": 74051,
    "latitude": 36.624717,
    "longitude": -95.951734,
    "city": "Ochelata",
    "state": "OK",
    "full_state": "Oklahoma",
    "county": "Washington"
  },
  {
    "zip_code": 74052,
    "latitude": 36.068495,
    "longitude": -96.595845,
    "city": "Oilton",
    "state": "OK",
    "full_state": "Oklahoma",
    "county": "Creek"
  },
  {
    "zip_code": 74053,
    "latitude": 36.448241,
    "longitude": -95.704667,
    "city": "Oologah",
    "state": "OK",
    "full_state": "Oklahoma",
    "county": "Rogers"
  },
  {
    "zip_code": 74054,
    "latitude": 36.265311,
    "longitude": -96.341334,
    "city": "Osage",
    "state": "OK",
    "full_state": "Oklahoma",
    "county": "Osage"
  },
  {
    "zip_code": 74055,
    "latitude": 36.140225,
    "longitude": -95.909669,
    "city": "Owasso",
    "state": "OK",
    "full_state": "Oklahoma",
    "county": "Tulsa"
  },
  {
    "zip_code": 74056,
    "latitude": 36.620131,
    "longitude": -96.324443,
    "city": "Pawhuska",
    "state": "OK",
    "full_state": "Oklahoma",
    "county": "Osage"
  },
  {
    "zip_code": 74058,
    "latitude": 36.306976,
    "longitude": -96.706208,
    "city": "Pawnee",
    "state": "OK",
    "full_state": "Oklahoma",
    "county": "Pawnee"
  },
  {
    "zip_code": 74059,
    "latitude": 36.096244,
    "longitude": -97.000469,
    "city": "Perkins",
    "state": "OK",
    "full_state": "Oklahoma",
    "county": "Payne"
  },
  {
    "zip_code": 74060,
    "latitude": 36.580102,
    "longitude": -96.532552,
    "city": "Prue",
    "state": "OK",
    "full_state": "Oklahoma",
    "county": "Osage"
  },
  {
    "zip_code": 74061,
    "latitude": 36.533445,
    "longitude": -95.905906,
    "city": "Ramona",
    "state": "OK",
    "full_state": "Oklahoma",
    "county": "Washington"
  },
  {
    "zip_code": 74062,
    "latitude": 36.049649,
    "longitude": -96.928923,
    "city": "Ripley",
    "state": "OK",
    "full_state": "Oklahoma",
    "county": "Payne"
  },
  {
    "zip_code": 74063,
    "latitude": 36.118535,
    "longitude": -96.186776,
    "city": "Sand Springs",
    "state": "OK",
    "full_state": "Oklahoma",
    "county": "Tulsa"
  },
  {
    "zip_code": 74066,
    "latitude": 35.982642,
    "longitude": -96.163955,
    "city": "Sapulpa",
    "state": "OK",
    "full_state": "Oklahoma",
    "county": "Creek"
  },
  {
    "zip_code": 74067,
    "latitude": 36.019575,
    "longitude": -96.093682,
    "city": "Sapulpa",
    "state": "OK",
    "full_state": "Oklahoma",
    "county": "Creek"
  },
  {
    "zip_code": 74068,
    "latitude": 35.912399,
    "longitude": -96.57803,
    "city": "Shamrock",
    "state": "OK",
    "full_state": "Oklahoma",
    "county": "Creek"
  },
  {
    "zip_code": 74070,
    "latitude": 36.413662,
    "longitude": -96.168498,
    "city": "Skiatook",
    "state": "OK",
    "full_state": "Oklahoma",
    "county": "Tulsa"
  },
  {
    "zip_code": 74071,
    "latitude": 35.901277,
    "longitude": -96.326053,
    "city": "Slick",
    "state": "OK",
    "full_state": "Oklahoma",
    "county": "Creek"
  },
  {
    "zip_code": 74072,
    "latitude": 36.927212,
    "longitude": -95.621099,
    "city": "S Coffeyville",
    "state": "OK",
    "full_state": "Oklahoma",
    "county": "Nowata"
  },
  {
    "zip_code": 74073,
    "latitude": 36.298452,
    "longitude": -95.951622,
    "city": "Sperry",
    "state": "OK",
    "full_state": "Oklahoma",
    "county": "Tulsa"
  },
  {
    "zip_code": 74074,
    "latitude": 36.101521,
    "longitude": -97.069061,
    "city": "Stillwater",
    "state": "OK",
    "full_state": "Oklahoma",
    "county": "Payne"
  },
  {
    "zip_code": 74075,
    "latitude": 36.167933,
    "longitude": -97.068895,
    "city": "Stillwater",
    "state": "OK",
    "full_state": "Oklahoma",
    "county": "Payne"
  },
  {
    "zip_code": 74076,
    "latitude": 36.072372,
    "longitude": -97.055141,
    "city": "Stillwater",
    "state": "OK",
    "full_state": "Oklahoma",
    "county": "Payne"
  },
  {
    "zip_code": 74077,
    "latitude": 36.093665,
    "longitude": -96.987458,
    "city": "Stillwater",
    "state": "OK",
    "full_state": "Oklahoma",
    "county": "Payne"
  },
  {
    "zip_code": 74078,
    "latitude": 36.093665,
    "longitude": -96.987458,
    "city": "Stillwater",
    "state": "OK",
    "full_state": "Oklahoma",
    "county": "Payne"
  },
  {
    "zip_code": 74079,
    "latitude": 35.709676,
    "longitude": -96.745384,
    "city": "Stroud",
    "state": "OK",
    "full_state": "Oklahoma",
    "county": "Lincoln"
  },
  {
    "zip_code": 74080,
    "latitude": 36.496258,
    "longitude": -95.70201,
    "city": "Talala",
    "state": "OK",
    "full_state": "Oklahoma",
    "county": "Rogers"
  },
  {
    "zip_code": 74081,
    "latitude": 36.188021,
    "longitude": -96.491832,
    "city": "Terlton",
    "state": "OK",
    "full_state": "Oklahoma",
    "county": "Pawnee"
  },
  {
    "zip_code": 74082,
    "latitude": 36.450115,
    "longitude": -95.881381,
    "city": "Vera",
    "state": "OK",
    "full_state": "Oklahoma",
    "county": "Washington"
  },
  {
    "zip_code": 74083,
    "latitude": 36.798384,
    "longitude": -95.608896,
    "city": "Wann",
    "state": "OK",
    "full_state": "Oklahoma",
    "county": "Nowata"
  },
  {
    "zip_code": 74084,
    "latitude": 36.546423,
    "longitude": -96.326019,
    "city": "Wynona",
    "state": "OK",
    "full_state": "Oklahoma",
    "county": "Osage"
  },
  {
    "zip_code": 74085,
    "latitude": 36.164752,
    "longitude": -96.803185,
    "city": "Yale",
    "state": "OK",
    "full_state": "Oklahoma",
    "county": "Payne"
  },
  {
    "zip_code": 74101,
    "latitude": 36.039147,
    "longitude": -95.868667,
    "city": "Tulsa",
    "state": "OK",
    "full_state": "Oklahoma",
    "county": "Tulsa"
  },
  {
    "zip_code": 74102,
    "latitude": 36.063095,
    "longitude": -95.804231,
    "city": "Tulsa",
    "state": "OK",
    "full_state": "Oklahoma",
    "county": "Tulsa"
  },
  {
    "zip_code": 74103,
    "latitude": 36.155392,
    "longitude": -95.994424,
    "city": "Tulsa",
    "state": "OK",
    "full_state": "Oklahoma",
    "county": "Tulsa"
  },
  {
    "zip_code": 74104,
    "latitude": 36.146143,
    "longitude": -95.951483,
    "city": "Tulsa",
    "state": "OK",
    "full_state": "Oklahoma",
    "county": "Tulsa"
  },
  {
    "zip_code": 74105,
    "latitude": 36.097094,
    "longitude": -95.91987,
    "city": "Tulsa",
    "state": "OK",
    "full_state": "Oklahoma",
    "county": "Tulsa"
  },
  {
    "zip_code": 74106,
    "latitude": 36.190442,
    "longitude": -95.979824,
    "city": "Tulsa",
    "state": "OK",
    "full_state": "Oklahoma",
    "county": "Tulsa"
  },
  {
    "zip_code": 74107,
    "latitude": 36.076795,
    "longitude": -95.954871,
    "city": "Tulsa",
    "state": "OK",
    "full_state": "Oklahoma",
    "county": "Tulsa"
  },
  {
    "zip_code": 74108,
    "latitude": 36.147696,
    "longitude": -95.797314,
    "city": "Tulsa",
    "state": "OK",
    "full_state": "Oklahoma",
    "county": "Tulsa"
  },
  {
    "zip_code": 74110,
    "latitude": 36.158314,
    "longitude": -95.927771,
    "city": "Tulsa",
    "state": "OK",
    "full_state": "Oklahoma",
    "county": "Tulsa"
  },
  {
    "zip_code": 74112,
    "latitude": 36.146741,
    "longitude": -95.90447,
    "city": "Tulsa",
    "state": "OK",
    "full_state": "Oklahoma",
    "county": "Tulsa"
  },
  {
    "zip_code": 74114,
    "latitude": 36.125893,
    "longitude": -95.947421,
    "city": "Tulsa",
    "state": "OK",
    "full_state": "Oklahoma",
    "county": "Tulsa"
  },
  {
    "zip_code": 74115,
    "latitude": 36.147343,
    "longitude": -95.90717,
    "city": "Tulsa",
    "state": "OK",
    "full_state": "Oklahoma",
    "county": "Tulsa"
  },
  {
    "zip_code": 74116,
    "latitude": 36.189944,
    "longitude": -95.817465,
    "city": "Tulsa",
    "state": "OK",
    "full_state": "Oklahoma",
    "county": "Tulsa"
  },
  {
    "zip_code": 74117,
    "latitude": 36.218091,
    "longitude": -95.947122,
    "city": "Tulsa",
    "state": "OK",
    "full_state": "Oklahoma",
    "county": "Tulsa"
  },
  {
    "zip_code": 74119,
    "latitude": 36.115461,
    "longitude": -95.930271,
    "city": "Tulsa",
    "state": "OK",
    "full_state": "Oklahoma",
    "county": "Tulsa"
  },
  {
    "zip_code": 74120,
    "latitude": 36.148593,
    "longitude": -95.979824,
    "city": "Tulsa",
    "state": "OK",
    "full_state": "Oklahoma",
    "county": "Tulsa"
  },
  {
    "zip_code": 74121,
    "latitude": 36.139826,
    "longitude": -96.029725,
    "city": "Tulsa",
    "state": "OK",
    "full_state": "Oklahoma",
    "county": "Tulsa"
  },