[
  {
    "zip_code": 92242,
    "latitude": 34.201506,
    "longitude": -115.647775,
    "city": "Earp",
    "state": "CA",
    "full_state": "California",
    "county": "San Bernardino"
  },
  {
    "zip_code": 92243,
    "latitude": 32.900509,
    "longitude": -115.503842,
    "city": "El Centro",
    "state": "CA",
    "full_state": "California",
    "county": "Imperial"
  },
  {
    "zip_code": 92244,
    "latitude": 32.79475,
    "longitude": -115.692714,
    "city": "El Centro",
    "state": "CA",
    "full_state": "California",
    "county": "Imperial"
  },
  {
    "zip_code": 92249,
    "latitude": 32.72181,
    "longitude": -115.438271,
    "city": "Heber",
    "state": "CA",
    "full_state": "California",
    "county": "Imperial"
  },
  {
    "zip_code": 92250,
    "latitude": 32.867317,
    "longitude": -115.374769,
    "city": "Holtville",
    "state": "CA",
    "full_state": "California",
    "county": "Imperial"
  },
  {
    "zip_code": 92251,
    "latitude": 33.008903,
    "longitude": -115.640538,
    "city": "Imperial",
    "state": "CA",
    "full_state": "California",
    "county": "Imperial"
  },
  {
    "zip_code": 92252,
    "latitude": 34.175713,
    "longitude": -116.268415,
    "city": "Joshua Tree",
    "state": "CA",
    "full_state": "California",
    "county": "San Bernardino"
  },
  {
    "zip_code": 92253,
    "latitude": 33.670978,
    "longitude": -116.259176,
    "city": "La Quinta",
    "state": "CA",
    "full_state": "California",
    "county": "Riverside"
  },
  {
    "zip_code": 92254,
    "latitude": 33.545034,
    "longitude": -116.018731,
    "city": "Mecca",
    "state": "CA",
    "full_state": "California",
    "county": "Riverside"
  },
  {
    "zip_code": 92255,
    "latitude": 33.752886,
    "longitude": -116.055617,
    "city": "Palm Desert",
    "state": "CA",
    "full_state": "California",
    "county": "Riverside"
  },
  {
    "zip_code": 92256,
    "latitude": 34.146607,
    "longitude": -116.371498,
    "city": "Morongo Valley",
    "state": "CA",
    "full_state": "California",
    "county": "San Bernardino"
  },
  {
    "zip_code": 92257,
    "latitude": 33.124361,
    "longitude": -115.641926,
    "city": "Niland",
    "state": "CA",
    "full_state": "California",
    "county": "Imperial"
  },
  {
    "zip_code": 92258,
    "latitude": 33.924967,
    "longitude": -116.549645,
    "city": "North Palm Springs",
    "state": "CA",
    "full_state": "California",
    "county": "Riverside"
  },
  {
    "zip_code": 92259,
    "latitude": 32.98097,
    "longitude": -115.823448,
    "city": "Ocotillo",
    "state": "CA",
    "full_state": "California",
    "county": "Imperial"
  },
  {
    "zip_code": 92260,
    "latitude": 33.680623,
    "longitude": -116.402695,
    "city": "Palm Desert",
    "state": "CA",
    "full_state": "California",
    "county": "Riverside"
  },
  {
    "zip_code": 92261,
    "latitude": 33.660374,
    "longitude": -116.408249,
    "city": "Palm Desert",
    "state": "CA",
    "full_state": "California",
    "county": "Riverside"
  },
  {
    "zip_code": 92262,
    "latitude": 33.842567,
    "longitude": -116.527996,
    "city": "Palm Springs",
    "state": "CA",
    "full_state": "California",
    "county": "Riverside"
  },
  {
    "zip_code": 92263,
    "latitude": 33.761076,
    "longitude": -116.535887,
    "city": "Palm Springs",
    "state": "CA",
    "full_state": "California",
    "county": "Riverside"
  },
  {
    "zip_code": 92264,
    "latitude": 33.797145,
    "longitude": -116.511883,
    "city": "Palm Springs",
    "state": "CA",
    "full_state": "California",
    "county": "Riverside"
  },
  {
    "zip_code": 92266,
    "latitude": 33.369594,
    "longitude": -114.735544,
    "city": "Palo Verde",
    "state": "CA",
    "full_state": "California",
    "county": "Imperial"
  },
  {
    "zip_code": 92267,
    "latitude": 34.249419,
    "longitude": -114.210609,
    "city": "Parker Dam",
    "state": "CA",
    "full_state": "California",
    "county": "San Bernardino"
  },
  {
    "zip_code": 92268,
    "latitude": 34.188703,
    "longitude": -116.504806,
    "city": "Pioneertown",
    "state": "CA",
    "full_state": "California",
    "county": "San Bernardino"
  },
  {
    "zip_code": 92270,
    "latitude": 33.703598,
    "longitude": -116.431961,
    "city": "Rancho Mirage",
    "state": "CA",
    "full_state": "California",
    "county": "Riverside"
  },
  {
    "zip_code": 92273,
    "latitude": 32.79413,
    "longitude": -115.694768,
    "city": "Seeley",
    "state": "CA",
    "full_state": "California",
    "county": "Imperial"
  },
  {
    "zip_code": 92274,
    "latitude": 33.5578,
    "longitude": -116.157152,
    "city": "Thermal",
    "state": "CA",
    "full_state": "California",
    "county": "Riverside"
  },
  {
    "zip_code": 92275,
    "latitude": 33.309217,
    "longitude": -115.957782,
    "city": "Salton City",
    "state": "CA",
    "full_state": "California",
    "county": "Imperial"
  },
  {
    "zip_code": 92276,
    "latitude": 33.843837,
    "longitude": -116.393413,
    "city": "Thousand Palms",
    "state": "CA",
    "full_state": "California",
    "county": "Riverside"
  },
  {
    "zip_code": 92277,
    "latitude": 34.234411,
    "longitude": -116.235073,
    "city": "Twentynine Palms",
    "state": "CA",
    "full_state": "California",
    "county": "San Bernardino"
  },
  {
    "zip_code": 92278,
    "latitude": 34.311015,
    "longitude": -115.277758,
    "city": "Twentynine Palms",
    "state": "CA",
    "full_state": "California",
    "county": "San Bernardino"
  },
  {
    "zip_code": 92280,
    "latitude": 34.200026,
    "longitude": -115.286691,
    "city": "Vidal",
    "state": "CA",
    "full_state": "California",
    "county": "San Bernardino"
  },
  {
    "zip_code": 92281,
    "latitude": 33.037976,
    "longitude": -115.591387,
    "city": "Westmorland",
    "state": "CA",
    "full_state": "California",
    "county": "Imperial"
  },
  {
    "zip_code": 92282,
    "latitude": 33.945145,
    "longitude": -116.649937,
    "city": "White Water",
    "state": "CA",
    "full_state": "California",
    "county": "Riverside"
  },
  {
    "zip_code": 92283,
    "latitude": 32.981774,
    "longitude": -114.685417,
    "city": "Winterhaven",
    "state": "CA",
    "full_state": "California",
    "county": "Imperial"
  },
  {
    "zip_code": 92284,
    "latitude": 34.451263,
    "longitude": -115.896753,
    "city": "Yucca Valley",
    "state": "CA",
    "full_state": "California",
    "county": "San Bernardino"
  },
  {
    "zip_code": 92285,
    "latitude": 34.310323,
    "longitude": -116.524124,
    "city": "Landers",
    "state": "CA",
    "full_state": "California",
    "county": "San Bernardino"
  },
  {
    "zip_code": 92286,
    "latitude": 34.180251,
    "longitude": -116.350003,
    "city": "Yucca Valley",
    "state": "CA",
    "full_state": "California",
    "county": "San Bernardino"
  },
  {
    "zip_code": 92292,
    "latitude": 33.752886,
    "longitude": -116.055617,
    "city": "Palm Springs",
    "state": "CA",
    "full_state": "California",
    "county": "Riverside"
  },
  {
    "zip_code": 92301,
    "latitude": 34.839964,
    "longitude": -115.967051,
    "city": "Adelanto",
    "state": "CA",
    "full_state": "California",
    "county": "San Bernardino"
  },
  {
    "zip_code": 92304,
    "latitude": 34.6122,
    "longitude": -115.800458,
    "city": "Amboy",
    "state": "CA",
    "full_state": "California",
    "county": "San Bernardino"
  },
  {
    "zip_code": 92305,
    "latitude": 34.153818,
    "longitude": -116.512262,
    "city": "Angelus Oaks",
    "state": "CA",
    "full_state": "California",
    "county": "San Bernardino"
  },
  {
    "zip_code": 92307,
    "latitude": 34.839964,
    "longitude": -115.967051,
    "city": "Apple Valley",
    "state": "CA",
    "full_state": "California",
    "county": "San Bernardino"
  },
  {
    "zip_code": 92308,
    "latitude": 34.450143,
    "longitude": -116.726751,
    "city": "Apple Valley",
    "state": "CA",
    "full_state": "California",
    "county": "San Bernardino"
  },
  {
    "zip_code": 92309,
    "latitude": 35.445323,
    "longitude": -116.142146,
    "city": "Baker",
    "state": "CA",
    "full_state": "California",
    "county": "San Bernardino"
  },
  {
    "zip_code": 92310,
    "latitude": 35.262453,
    "longitude": -116.696561,
    "city": "Fort Irwin",
    "state": "CA",
    "full_state": "California",
    "county": "San Bernardino"
  },
  {
    "zip_code": 92311,
    "latitude": 34.693608,
    "longitude": -115.851819,
    "city": "Barstow",
    "state": "CA",
    "full_state": "California",
    "county": "San Bernardino"
  },
  {
    "zip_code": 92312,
    "latitude": 34.201638,
    "longitude": -116.906215,
    "city": "Barstow",
    "state": "CA",
    "full_state": "California",
    "county": "San Bernardino"
  },
  {
    "zip_code": 92313,
    "latitude": 34.839964,
    "longitude": -115.967051,
    "city": "Grand Terrace",
    "state": "CA",
    "full_state": "California",
    "county": "San Bernardino"
  },
  {
    "zip_code": 92314,
    "latitude": 34.50514,
    "longitude": -116.110086,
    "city": "Big Bear City",
    "state": "CA",
    "full_state": "California",
    "county": "San Bernardino"
  },
  {
    "zip_code": 92315,
    "latitude": 34.223224,
    "longitude": -116.847414,
    "city": "Big Bear Lake",
    "state": "CA",
    "full_state": "California",
    "county": "San Bernardino"
  },
  {
    "zip_code": 92316,
    "latitude": 34.248404,
    "longitude": -116.849826,
    "city": "Bloomington",
    "state": "CA",
    "full_state": "California",
    "county": "San Bernardino"
  },
  {
    "zip_code": 92317,
    "latitude": 34.211175,
    "longitude": -117.079624,
    "city": "Blue Jay",
    "state": "CA",
    "full_state": "California",
    "county": "San Bernardino"
  },
  {
    "zip_code": 92318,
    "latitude": 34.839964,
    "longitude": -115.967051,
    "city": "Bryn Mawr",
    "state": "CA",
    "full_state": "California",
    "county": "San Bernardino"
  },
  {
    "zip_code": 92320,
    "latitude": 33.976814,
    "longitude": -117.038262,
    "city": "Calimesa",
    "state": "CA",
    "full_state": "California",
    "county": "Riverside"
  },
  {
    "zip_code": 92321,
    "latitude": 34.839964,
    "longitude": -115.967051,
    "city": "Cedar Glen",
    "state": "CA",
    "full_state": "California",
    "county": "San Bernardino"
  },
  {
    "zip_code": 92322,
    "latitude": 34.839964,
    "longitude": -115.967051,
    "city": "Cedarpines Park",
    "state": "CA",
    "full_state": "California",
    "county": "San Bernardino"
  },
  {
    "zip_code": 92323,
    "latitude": 34.839964,
    "longitude": -115.967051,
    "city": "Cima",
    "state": "CA",
    "full_state": "California",
    "county": "San Bernardino"
  },
  {
    "zip_code": 92324,
    "latitude": 34.151161,
    "longitude": -116.900557,
    "city": "Colton",
    "state": "CA",
    "full_state": "California",
    "county": "San Bernardino"
  },
  {
    "zip_code": 92325,
    "latitude": 34.850671,
    "longitude": -116.701168,
    "city": "Crestline",
    "state": "CA",
    "full_state": "California",
    "county": "San Bernardino"
  },
  {
    "zip_code": 92326,
    "latitude": 34.839964,
    "longitude": -115.967051,
    "city": "Crest Park",
    "state": "CA",
    "full_state": "California",
    "county": "San Bernardino"
  },
  {
    "zip_code": 92327,
    "latitude": 34.899805,
    "longitude": -116.77035,
    "city": "Daggett",
    "state": "CA",
    "full_state": "California",
    "county": "San Bernardino"
  },
  {
    "zip_code": 92328,
    "latitude": 36.235817,
    "longitude": -117.144513,
    "city": "Death Valley",
    "state": "CA",
    "full_state": "California",
    "county": "Inyo"
  },
  {
    "zip_code": 92329,
    "latitude": 34.839964,
    "longitude": -115.967051,
    "city": "Phelan",
    "state": "CA",
    "full_state": "California",
    "county": "San Bernardino"
  },
  {
    "zip_code": 92332,
    "latitude": 34.588133,
    "longitude": -115.577138,
    "city": "Essex",
    "state": "CA",
    "full_state": "California",
    "county": "San Bernardino"
  },
  {
    "zip_code": 92333,
    "latitude": 34.258346,
    "longitude": -116.951508,
    "city": "Fawnskin",
    "state": "CA",
    "full_state": "California",
    "county": "San Bernardino"
  },
  {
    "zip_code": 92334,
    "latitude": 34.839964,
    "longitude": -115.967051,
    "city": "Fontana",
    "state": "CA",
    "full_state": "California",
    "county": "San Bernardino"
  },
  {
    "zip_code": 92335,
    "latitude": 34.159844,
    "longitude": -114.301225,
    "city": "Fontana",
    "state": "CA",
    "full_state": "California",
    "county": "San Bernardino"
  },
  {
    "zip_code": 92336,
    "latitude": 34.122307,
    "longitude": -116.247005,
    "city": "Fontana",
    "state": "CA",
    "full_state": "California",
    "county": "San Bernardino"
  },
  {
    "zip_code": 92337,
    "latitude": 34.839964,
    "longitude": -115.967051,
    "city": "Fontana",
    "state": "CA",
    "full_state": "California",
    "county": "San Bernardino"
  },
  {
    "zip_code": 92338,
    "latitude": 34.932852,
    "longitude": -115.802525,
    "city": "Ludlow",
    "state": "CA",
    "full_state": "California",
    "county": "San Bernardino"
  },
  {
    "zip_code": 92339,
    "latitude": 34.133057,
    "longitude": -116.911711,
    "city": "Forest Falls",
    "state": "CA",
    "full_state": "California",
    "county": "San Bernardino"
  },
  {
    "zip_code": 92340,
    "latitude": 34.839964,
    "longitude": -115.967051,
    "city": "Hesperia",
    "state": "CA",
    "full_state": "California",
    "county": "San Bernardino"
  },
  {
    "zip_code": 92341,
    "latitude": 34.241137,
    "longitude": -116.938548,
    "city": "Green Valley Lake",
    "state": "CA",
    "full_state": "California",
    "county": "San Bernardino"
  },
  {
    "zip_code": 92342,
    "latitude": 34.496921,
    "longitude": -116.378323,
    "city": "Helendale",
    "state": "CA",
    "full_state": "California",
    "county": "San Bernardino"
  },
  {
    "zip_code": 92345,
    "latitude": 34.839964,
    "longitude": -115.967051,
    "city": "Hesperia",
    "state": "CA",
    "full_state": "California",
    "county": "San Bernardino"
  },
  {
    "zip_code": 92346,
    "latitude": 34.156543,
    "longitude": -117.14027,
    "city": "Highland",
    "state": "CA",
    "full_state": "California",
    "county": "San Bernardino"
  },
  {
    "zip_code": 92347,
    "latitude": 35.012622,
    "longitude": -116.191575,
    "city": "Hinkley",
    "state": "CA",
    "full_state": "California",
    "county": "San Bernardino"
  },
  {
    "zip_code": 92350,
    "latitude": 34.839964,
    "longitude": -115.967051,
    "city": "Loma Linda",
    "state": "CA",
    "full_state": "California",
    "county": "San Bernardino"
  },
  {
    "zip_code": 92352,
    "latitude": 34.209221,
    "longitude": -117.129213,
    "city": "Lake Arrowhead",
    "state": "CA",
    "full_state": "California",
    "county": "San Bernardino"
  },
  {
    "zip_code": 92354,
    "latitude": 34.839964,
    "longitude": -115.967051,
    "city": "Loma Linda",
    "state": "CA",
    "full_state": "California",
    "county": "San Bernardino"
  },
  {
    "zip_code": 92356,
    "latitude": 34.770403,
    "longitude": -116.206281,
    "city": "Lucerne Valley",
    "state": "CA",
    "full_state": "California",
    "county": "San Bernardino"
  },
  {
    "zip_code": 92357,
    "latitude": 34.839964,
    "longitude": -115.967051,
    "city": "Loma Linda",
    "state": "CA",
    "full_state": "California",
    "county": "San Bernardino"
  },
  {
    "zip_code": 92358,
    "latitude": 34.839964,
    "longitude": -115.967051,
    "city": "Lytle Creek",
    "state": "CA",
    "full_state": "California",
    "county": "San Bernardino"
  },
  {
    "zip_code": 92359,
    "latitude": 34.470317,
    "longitude": -115.969627,
    "city": "Mentone",
    "state": "CA",
    "full_state": "California",
    "county": "San Bernardino"
  },
  {
    "zip_code": 92363,
    "latitude": 34.642102,
    "longitude": -115.558733,
    "city": "Needles",
    "state": "CA",
    "full_state": "California",
    "county": "San Bernardino"
  },
  {
    "zip_code": 92364,
    "latitude": 35.337173,
    "longitude": -115.628153,
    "city": "Nipton",
    "state": "CA",
    "full_state": "California",
    "county": "San Bernardino"
  },
  {
    "zip_code": 92365,
    "latitude": 34.90534,
    "longitude": -115.932613,
    "city": "Newberry Springs",
    "state": "CA",
    "full_state": "California",
    "county": "San Bernardino"
  },
  {
    "zip_code": 92366,
    "latitude": 34.839964,
    "longitude": -115.967051,
    "city": "Mountain Pass",
    "state": "CA",
    "full_state": "California",
    "county": "San Bernardino"
  },
  {
    "zip_code": 92368,
    "latitude": 34.839964,
    "longitude": -115.967051,
    "city": "Oro Grande",
    "state": "CA",
    "full_state": "California",
    "county": "San Bernardino"
  },
  {
    "zip_code": 92369,
    "latitude": 34.839964,
    "longitude": -115.967051,
    "city": "Patton",
    "state": "CA",
    "full_state": "California",
    "county": "San Bernardino"
  },
  {
    "zip_code": 92371,
    "latitude": 34.839964,
    "longitude": -115.967051,
    "city": "Phelan",
    "state": "CA",
    "full_state": "California",
    "county": "San Bernardino"
  },
  {
    "zip_code": 92372,
    "latitude": 34.237294,
    "longitude": -116.855056,
    "city": "Pinon Hills",
    "state": "CA",
    "full_state": "California",
    "county": "San Bernardino"
  },
  {
    "zip_code": 92373,
    "latitude": 34.2409,
    "longitude": -116.889474,
    "city": "Redlands",
    "state": "CA",
    "full_state": "California",
    "county": "San Bernardino"
  },
  {
    "zip_code": 92374,
    "latitude": 34.153575,
    "longitude": -116.898232,
    "city": "Redlands",
    "state": "CA",
    "full_state": "California",
    "county": "San Bernardino"
  },
  {
    "zip_code": 92375,
    "latitude": 34.839964,
    "longitude": -115.967051,
    "city": "Redlands",
    "state": "CA",
    "full_state": "California",
    "county": "San Bernardino"
  },
  {
    "zip_code": 92376,
    "latitude": 34.202339,
    "longitude": -115.567483,
    "city": "Rialto",
    "state": "CA",
    "full_state": "California",
    "county": "San Bernardino"
  },
  {
    "zip_code": 92377,
    "latitude": 34.141501,
    "longitude": -116.982871,
    "city": "Rialto",
    "state": "CA",
    "full_state": "California",
    "county": "San Bernardino"
  },
  {
    "zip_code": 92378,
    "latitude": 34.839964,
    "longitude": -115.967051,
    "city": "Rimforest",
    "state": "CA",
    "full_state": "California",
    "county": "San Bernardino"
  },
  {
    "zip_code": 92382,
    "latitude": 34.210229,
    "longitude": -117.110941,
    "city": "Running Springs",
    "state": "CA",
    "full_state": "California",
    "county": "San Bernardino"
  },
  {
    "zip_code": 92384,
    "latitude": 35.977703,
    "longitude": -116.270561,
    "city": "Shoshone",
    "state": "CA",
    "full_state": "California",
    "county": "Inyo"
  },
  {
    "zip_code": 92385,
    "latitude": 34.839964,
    "longitude": -115.967051,
    "city": "Skyforest",
    "state": "CA",
    "full_state": "California",
    "county": "San Bernardino"
  },
  {
    "zip_code": 92386,
    "latitude": 34.247205,
    "longitude": -116.818764,
    "city": "Sugarloaf",
    "state": "CA",
    "full_state": "California",
    "county": "San Bernardino"
  },
  {
    "zip_code": 92389,
    "latitude": 36.626033,
    "longitude": -117.218616,
    "city": "Tecopa",
    "state": "CA",
    "full_state": "California",
    "county": "Inyo"
  },
  {
    "zip_code": 92391,
    "latitude": 34.839964,
    "longitude": -115.967051,
    "city": "Twin Peaks",
    "state": "CA",
    "full_state": "California",
    "county": "San Bernardino"
  },
  {
    "zip_code": 92392,
    "latitude": 34.491985,
    "longitude": -114.754916,
    "city": "Victorville",
    "state": "CA",
    "full_state": "California",
    "county": "San Bernardino"
  },
  {
    "zip_code": 92393,
    "latitude": 34.839964,
    "longitude": -115.967051,
    "city": "Victorville",
    "state": "CA",
    "full_state": "California",
    "county": "San Bernardino"
  },
  {
    "zip_code": 92394,
    "latitude": 34.527103,
    "longitude": -115.172471,
    "city": "Victorville",
    "state": "CA",
    "full_state": "California",
    "county": "San Bernardino"
  },
  {
    "zip_code": 92397,
    "latitude": 34.839964,
    "longitude": -115.967051,
    "city": "Wrightwood",
    "state": "CA",
    "full_state": "California",
    "county": "San Bernardino"
  },
  {
    "zip_code": 92398,
    "latitude": 34.926948,
    "longitude": -116.709279,
    "city": "Yermo",
    "state": "CA",
    "full_state": "California",
    "county": "San Bernardino"
  },
  {
    "zip_code": 92399,
    "latitude": 34.06226,
    "longitude": -116.971138,
    "city": "Yucaipa",
    "state": "CA",
    "full_state": "California",
    "county": "San Bernardino"
  },
  {
    "zip_code": 92401,
    "latitude": 34.839964,
    "longitude": -115.967051,
    "city": "San Bernardino",
    "state": "CA",
    "full_state": "California",
    "county": "San Bernardino"
  },
  {
    "zip_code": 92402,
    "latitude": 34.21392,
    "longitude": -117.127166,
    "city": "San Bernardino",
    "state": "CA",
    "full_state": "California",
    "county": "San Bernardino"
  },
  {
    "zip_code": 92403,
    "latitude": 34.839964,
    "longitude": -115.967051,
    "city": "San Bernardino",
    "state": "CA",
    "full_state": "California",
    "county": "San Bernardino"
  },
  {
    "zip_code": 92404,
    "latitude": 34.159076,
    "longitude": -116.709044,
    "city": "San Bernardino",
    "state": "CA",
    "full_state": "California",
    "county": "San Bernardino"
  },
  {
    "zip_code": 92405,
    "latitude": 34.134794,
    "longitude": -116.228393,
    "city": "San Bernardino",
    "state": "CA",
    "full_state": "California",
    "county": "San Bernardino"
  },
  {
    "zip_code": 92406,
    "latitude": 34.839964,
    "longitude": -115.967051,
    "city": "San Bernardino",
    "state": "CA",
    "full_state": "California",
    "county": "San Bernardino"
  },
  {
    "zip_code": 92407,
    "latitude": 34.271173,
    "longitude": -116.93655,
    "city": "San Bernardino",
    "state": "CA",
    "full_state": "California",
    "county": "San Bernardino"
  },
  {
    "zip_code": 92408,
    "latitude": 34.839964,
    "longitude": -115.967051,
    "city": "San Bernardino",
    "state": "CA",
    "full_state": "California",
    "county": "San Bernardino"
  },
  {
    "zip_code": 92410,
    "latitude": 34.095956,
    "longitude": -116.479963,
    "city": "San Bernardino",
    "state": "CA",
    "full_state": "California",
    "county": "San Bernardino"
  },
  {
    "zip_code": 92411,
    "latitude": 34.839964,
    "longitude": -115.967051,
    "city": "San Bernardino",
    "state": "CA",
    "full_state": "California",
    "county": "San Bernardino"
  },
  {
    "zip_code": 92412,
    "latitude": 34.839964,
    "longitude": -115.967051,
    "city": "San Bernardino",
    "state": "CA",
    "full_state": "California",
    "county": "San Bernardino"
  },
  {
    "zip_code": 92413,
    "latitude": 34.839964,
    "longitude": -115.967051,
    "city": "San Bernardino",
    "state": "CA",
    "full_state": "California",
    "county": "San Bernardino"
  },
  {
    "zip_code": 92414,
    "latitude": 34.839964,
    "longitude": -115.967051,
    "city": "San Bernardino",
    "state": "CA",
    "full_state": "California",
    "county": "San Bernardino"
  },
  {
    "zip_code": 92415,
    "latitude": 34.839964,
    "longitude": -115.967051,
    "city": "San Bernardino",
    "state": "CA",
    "full_state": "California",
    "county": "San Bernardino"
  },
  {
    "zip_code": 92418,
    "latitude": 34.839964,
    "longitude": -115.967051,
    "city": "San Bernardino",
    "state": "CA",
    "full_state": "California",
    "county": "San Bernardino"
  },
  {
    "zip_code": 92420,
    "latitude": 34.839964,
    "longitude": -115.967051,
    "city": "San Bernardino",
    "state": "CA",
    "full_state": "California",
    "county": "San Bernardino"
  },
  {
    "zip_code": 92423,
    "latitude": 34.839964,
    "longitude": -115.967051,
    "city": "San Bernardino",
    "state": "CA",
    "full_state": "California",
    "county": "San Bernardino"
  },
  {
    "zip_code": 92424,
    "latitude": 34.839964,
    "longitude": -115.967051,
    "city": "San Bernardino",
    "state": "CA",
    "full_state": "California",
    "county": "San Bernardino"
  },
  {
    "zip_code": 92427,
    "latitude": 34.262243,
    "longitude": -116.861506,
    "city": "San Bernardino",
    "state": "CA",
    "full_state": "California",
    "county": "San Bernardino"
  },
  {
    "zip_code": 92501,
    "latitude": 33.752886,
    "longitude": -116.055617,
    "city": "Riverside",
    "state": "CA",
    "full_state": "California",
    "county": "Riverside"
  },
  {
    "zip_code": 92502,
    "latitude": 33.752886,
    "longitude": -116.055617,
    "city": "Riverside",
    "state": "CA",
    "full_state": "California",
    "county": "Riverside"
  },
  {
    "zip_code": 92503,
    "latitude": 33.752886,
    "longitude": -116.055617,
    "city": "Riverside",
    "state": "CA",
    "full_state": "California",
    "county": "Riverside"
  },
  {
    "zip_code": 92504,
    "latitude": 33.752886,
    "longitude": -116.055617,
    "city": "Riverside",
    "state": "CA",
    "full_state": "California",
    "county": "Riverside"
  },
  {
    "zip_code": 92505,
    "latitude": 33.752886,
    "longitude": -116.055617,
    "city": "Riverside",
    "state": "CA",
    "full_state": "California",
    "county": "Riverside"
  },
  {
    "zip_code": 92506,
    "latitude": 33.752886,
    "longitude": -116.055617,
    "city": "Riverside",
    "state": "CA",
    "full_state": "California",
    "county": "Riverside"
  },
  {
    "zip_code": 92507,
    "latitude": 33.752886,
    "longitude": -116.055617,
    "city": "Riverside",
    "state": "CA",
    "full_state": "California",
    "county": "Riverside"
  },
  {
    "zip_code": 92508,
    "latitude": 33.752886,
    "longitude": -116.055617,
    "city": "Riverside",
    "state": "CA",
    "full_state": "California",
    "county": "Riverside"
  },
  {
    "zip_code": 92509,
    "latitude": 33.752886,
    "longitude": -116.055617,
    "city": "Riverside",
    "state": "CA",
    "full_state": "California",
    "county": "Riverside"
  },
  {
    "zip_code": 92513,
    "latitude": 33.752886,
    "longitude": -116.055617,
    "city": "Riverside",
    "state": "CA",
    "full_state": "California",
    "county": "Riverside"
  },
  {
    "zip_code": 92514,
    "latitude": 33.752886,
    "longitude": -116.055617,
    "city": "Riverside",
    "state": "CA",
    "full_state": "California",
    "county": "Riverside"
  },
  {
    "zip_code": 92515,
    "latitude": 33.752886,
    "longitude": -116.055617,
    "city": "Riverside",
    "state": "CA",
    "full_state": "California",
    "county": "Riverside"
  },
  {
    "zip_code": 92516,
    "latitude": 33.752886,
    "longitude": -116.055617,
    "city": "Riverside",
    "state": "CA",
    "full_state": "California",
    "county": "Riverside"
  },
  {
    "zip_code": 92517,
    "latitude": 33.752886,
    "longitude": -116.055617,
    "city": "Riverside",
    "state": "CA",
    "full_state": "California",
    "county": "Riverside"
  },
  {
    "zip_code": 92518,
    "latitude": 33.752886,
    "longitude": -116.055617,
    "city": "March Air Force Base",
    "state": "CA",
    "full_state": "California",
    "county": "Riverside"
  },
  {
    "zip_code": 92519,
    "latitude": 33.752886,
    "longitude": -116.055617,
    "city": "Riverside",
    "state": "CA",
    "full_state": "California",
    "county": "Riverside"
  },
  {
    "zip_code": 92521,
    "latitude": 33.752886,
    "longitude": -116.055617,
    "city": "Riverside",
    "state": "CA",
    "full_state": "California",
    "county": "Riverside"
  },
  {
    "zip_code": 92522,
    "latitude": 33.752886,
    "longitude": -116.055617,
    "city": "Riverside",
    "state": "CA",
    "full_state": "California",
    "county": "Riverside"
  },
  {
    "zip_code": 92530,
    "latitude": 33.658068,
    "longitude": -116.649216,
    "city": "Lake Elsinore",
    "state": "CA",
    "full_state": "California",
    "county": "Riverside"
  },
  {
    "zip_code": 92531,
    "latitude": 33.752886,
    "longitude": -116.055617,
    "city": "Lake Elsinore",
    "state": "CA",
    "full_state": "California",
    "county": "Riverside"
  },
  {
    "zip_code": 92532,
    "latitude": 33.752886,
    "longitude": -116.055617,
    "city": "Lake Elsinore",
    "state": "CA",
    "full_state": "California",
    "county": "Riverside"
  },
  {
    "zip_code": 92536,
    "latitude": 33.519176,
    "longitude": -116.802625,
    "city": "Aguanga",
    "state": "CA",
    "full_state": "California",
    "county": "Riverside"
  },
  {
    "zip_code": 92539,
    "latitude": 33.524988,
    "longitude": -116.679174,
    "city": "Anza",
    "state": "CA",
    "full_state": "California",
    "county": "Riverside"
  },
  {
    "zip_code": 92543,
    "latitude": 33.651652,
    "longitude": -116.777014,
    "city": "Hemet",
    "state": "CA",
    "full_state": "California",
    "county": "Riverside"
  },
  {
    "zip_code": 92544,
    "latitude": 33.617074,
    "longitude": -116.786275,
    "city": "Hemet",
    "state": "CA",
    "full_state": "California",
    "county": "Riverside"
  },
  {
    "zip_code": 92545,
    "latitude": 33.752886,
    "longitude": -116.055617,
    "city": "Hemet",
    "state": "CA",
    "full_state": "California",
    "county": "Riverside"
  },
  {
    "zip_code": 92546,
    "latitude": 33.752886,
    "longitude": -116.055617,
    "city": "Hemet",
    "state": "CA",
    "full_state": "California",
    "county": "Riverside"
  },
  {
    "zip_code": 92548,
    "latitude": 33.752886,
    "longitude": -116.055617,
    "city": "Homeland",
    "state": "CA",
    "full_state": "California",
    "county": "Riverside"
  },
  {
    "zip_code": 92549,
    "latitude": 33.741769,
    "longitude": -116.721444,
    "city": "Idyllwild",
    "state": "CA",
    "full_state": "California",
    "county": "Riverside"
  },
  {
    "zip_code": 92551,
    "latitude": 33.752886,
    "longitude": -116.055617,
    "city": "Moreno Valley",
    "state": "CA",
    "full_state": "California",
    "county": "Riverside"
  },
  {
    "zip_code": 92552,
    "latitude": 33.752886,
    "longitude": -116.055617,
    "city": "Moreno Valley",
    "state": "CA",
    "full_state": "California",
    "county": "Riverside"
  },
  {
    "zip_code": 92553,
    "latitude": 33.857218,
    "longitude": -116.720427,
    "city": "Moreno Valley",
    "state": "CA",
    "full_state": "California",
    "county": "Riverside"
  },
  {
    "zip_code": 92554,
    "latitude": 33.521993,
    "longitude": -115.915905,
    "city": "Moreno Valley",
    "state": "CA",
    "full_state": "California",
    "county": "Riverside"
  },
  {
    "zip_code": 92555,
    "latitude": 33.855098,
    "longitude": -116.920413,
    "city": "Moreno Valley",
    "state": "CA",
    "full_state": "California",
    "county": "Riverside"
  },
  {
    "zip_code": 92556,
    "latitude": 33.752886,
    "longitude": -116.055617,
    "city": "Moreno Valley",
    "state": "CA",
    "full_state": "California",
    "county": "Riverside"
  },
  {
    "zip_code": 92557,
    "latitude": 33.752886,
    "longitude": -116.055617,
    "city": "Moreno Valley",
    "state": "CA",
    "full_state": "California",
    "county": "Riverside"
  },
  {
    "zip_code": 92561,
    "latitude": 33.640142,
    "longitude": -116.556695,
    "city": "Mountain Center",
    "state": "CA",
    "full_state": "California",
    "county": "Riverside"
  },
  {
    "zip_code": 92562,
    "latitude": 33.44204,
    "longitude": -116.861027,
    "city": "Murrieta",
    "state": "CA",
    "full_state": "California",
    "county": "Riverside"
  },
  {
    "zip_code": 92563,
    "latitude": 33.752886,
    "longitude": -116.055617,
    "city": "Murrieta",
    "state": "CA",
    "full_state": "California",
    "county": "Riverside"
  },
  {
    "zip_code": 92564,
    "latitude": 33.752886,
    "longitude": -116.055617,
    "city": "Murrieta",
    "state": "CA",
    "full_state": "California",
    "county": "Riverside"
  },
  {
    "zip_code": 92567,
    "latitude": 33.628192,
    "longitude": -116.406069,
    "city": "Nuevo",
    "state": "CA",
    "full_state": "California",
    "county": "Riverside"
  },
  {
    "zip_code": 92570,
    "latitude": 33.752886,
    "longitude": -116.055617,
    "city": "Perris",
    "state": "CA",
    "full_state": "California",
    "county": "Riverside"
  },
  {
    "zip_code": 92571,
    "latitude": 33.752886,
    "longitude": -116.055617,
    "city": "Perris",
    "state": "CA",
    "full_state": "California",
    "county": "Riverside"
  },
  {
    "zip_code": 92572,
    "latitude": 33.752886,
    "longitude": -116.055617,
    "city": "Perris",
    "state": "CA",
    "full_state": "California",
    "county": "Riverside"
  },
  {
    "zip_code": 92581,
    "latitude": 33.752886,
    "longitude": -116.055617,
    "city": "San Jacinto",
    "state": "CA",
    "full_state": "California",
    "county": "Riverside"
  },
  {
    "zip_code": 92582,
    "latitude": 33.752886,
    "longitude": -116.055617,
    "city": "San Jacinto",
    "state": "CA",
    "full_state": "California",
    "county": "Riverside"
  },
  {
    "zip_code": 92583,
    "latitude": 33.752886,
    "longitude": -116.055617,
    "city": "San Jacinto",
    "state": "CA",
    "full_state": "California",
    "county": "Riverside"
  },
  {
    "zip_code": 92584,
    "latitude": 33.752886,
    "longitude": -116.055617,
    "city": "Menifee",
    "state": "CA",
    "full_state": "California",
    "county": "Riverside"
  },
  {
    "zip_code": 92585,
    "latitude": 33.752886,
    "longitude": -116.055617,
    "city": "Sun City",
    "state": "CA",
    "full_state": "California",
    "county": "Riverside"
  },
  {
    "zip_code": 92586,
    "latitude": 33.48777,
    "longitude": -116.784521,
    "city": "Sun City",
    "state": "CA",
    "full_state": "California",
    "county": "Riverside"
  },
  {
    "zip_code": 92587,
    "latitude": 33.752886,
    "longitude": -116.055617,
    "city": "Sun City",
    "state": "CA",
    "full_state": "California",
    "county": "Riverside"
  },
  {
    "zip_code": 92589,
    "latitude": 33.752886,
    "longitude": -116.055617,
    "city": "Temecula",
    "state": "CA",
    "full_state": "California",
    "county": "Riverside"
  },
  {
    "zip_code": 92590,
    "latitude": 33.752886,
    "longitude": -116.055617,
    "city": "Temecula",
    "state": "CA",
    "full_state": "California",
    "county": "Riverside"
  },
  {
    "zip_code": 92591,
    "latitude": 33.752886,
    "longitude": -116.055617,
    "city": "Temecula",
    "state": "CA",
    "full_state": "California",
    "county": "Riverside"
  },
  {
    "zip_code": 92592,
    "latitude": 33.752886,
    "longitude": -116.055617,
    "city": "Temecula",
    "state": "CA",
    "full_state": "California",
    "county": "Riverside"
  },
  {
    "zip_code": 92593,
    "latitude": 33.752886,
    "longitude": -116.055617,
    "city": "Temecula",
    "state": "CA",
    "full_state": "California",
    "county": "Riverside"
  },
  {
    "zip_code": 92595,
    "latitude": 33.752886,
    "longitude": -116.055617,
    "city": "Wildomar",
    "state": "CA",
    "full_state": "California",
    "county": "Riverside"
  },
  {
    "zip_code": 92596,
    "latitude": 33.752886,
    "longitude": -116.055617,
    "city": "Winchester",
    "state": "CA",
    "full_state": "California",
    "county": "Riverside"
  },
  {
    "zip_code": 92599,
    "latitude": 33.752886,
    "longitude": -116.055617,
    "city": "Perris",
    "state": "CA",
    "full_state": "California",
    "county": "Riverside"
  },
  {
    "zip_code": 92602,
    "latitude": 33.718018,
    "longitude": -117.72222,
    "city": "Irvine",
    "state": "CA",
    "full_state": "California",
    "county": "Orange"
  },
  {
    "zip_code": 92603,
    "latitude": 33.648871,
    "longitude": -117.764637,
    "city": "Irvine",
    "state": "CA",
    "full_state": "California",
    "county": "Orange"
  },
  {
    "zip_code": 92604,
    "latitude": 33.690475,
    "longitude": -117.790059,
    "city": "Irvine",
    "state": "CA",
    "full_state": "California",
    "county": "Orange"
  },
  {
    "zip_code": 92605,
    "latitude": 33.640302,
    "longitude": -117.769442,
    "city": "Huntington Beach",
    "state": "CA",
    "full_state": "California",
    "county": "Orange"
  },
  {
    "zip_code": 92606,
    "latitude": 33.701121,
    "longitude": -117.817338,
    "city": "Irvine",
    "state": "CA",
    "full_state": "California",
    "county": "Orange"
  },
  {
    "zip_code": 92607,
    "latitude": 33.640302,
    "longitude": -117.769442,
    "city": "Laguna Niguel",
    "state": "CA",
    "full_state": "California",
    "county": "Orange"
  },
  {
    "zip_code": 92609,
    "latitude": 33.622146,
    "longitude": -117.701917,
    "city": "El Toro",
    "state": "CA",
    "full_state": "California",
    "county": "Orange"
  },
  {
    "zip_code": 92610,
    "latitude": 33.663011,
    "longitude": -117.730745,
    "city": "Foothill Ranch",
    "state": "CA",
    "full_state": "California",
    "county": "Orange"
  },
  {
    "zip_code": 92612,
    "latitude": 33.615525,
    "longitude": -117.782805,
    "city": "Irvine",
    "state": "CA",
    "full_state": "California",
    "county": "Orange"
  },
  {
    "zip_code": 92614,
    "latitude": 33.685319,
    "longitude": -117.827913,
    "city": "Irvine",
    "state": "CA",
    "full_state": "California",
    "county": "Orange"
  },
  {
    "zip_code": 92615,
    "latitude": 33.640302,
    "longitude": -117.769442,
    "city": "Huntington Beach",
    "state": "CA",
    "full_state": "California",
    "county": "Orange"
  },
  {
    "zip_code": 92616,
    "latitude": 33.640302,
    "longitude": -117.769442,
    "city": "Irvine",
    "state": "CA",
    "full_state": "California",
    "county": "Orange"
  },
  {
    "zip_code": 92618,
    "latitude": 33.641579,
    "longitude": -117.73269,
    "city": "Irvine",
    "state": "CA",
    "full_state": "California",
    "county": "Orange"
  },
  {
    "zip_code": 92619,
    "latitude": 33.66985,
    "longitude": -117.765939,
    "city": "Irvine",
    "state": "CA",
    "full_state": "California",
    "county": "Orange"
  },
  {
    "zip_code": 92620,
    "latitude": 33.691619,
    "longitude": -117.765186,
    "city": "Irvine",
    "state": "CA",
    "full_state": "California",
    "county": "Orange"
  },
  {
    "zip_code": 92623,
    "latitude": 33.686519,
    "longitude": -117.830788,
    "city": "Irvine",
    "state": "CA",
    "full_state": "California",
    "county": "Orange"
  },
  {
    "zip_code": 92624,
    "latitude": 33.455277,
    "longitude": -117.662824,
    "city": "Capistrano Beach",
    "state": "CA",
    "full_state": "California",
    "county": "Orange"
  },
  {
    "zip_code": 92625,
    "latitude": 33.599956,
    "longitude": -117.865325,
    "city": "Corona Del Mar",
    "state": "CA",
    "full_state": "California",
    "county": "Orange"
  },
  {
    "zip_code": 92626,
    "latitude": 33.6829,
    "longitude": -117.778398,
    "city": "Costa Mesa",
    "state": "CA",
    "full_state": "California",
    "county": "Orange"
  },
  {
    "zip_code": 92627,
    "latitude": 33.685069,
    "longitude": -117.763886,
    "city": "Costa Mesa",
    "state": "CA",
    "full_state": "California",
    "county": "Orange"
  },
  {
    "zip_code": 92628,
    "latitude": 33.640302,
    "longitude": -117.769442,
    "city": "Costa Mesa",
    "state": "CA",
    "full_state": "California",
    "county": "Orange"
  },
  {
    "zip_code": 92629,
    "latitude": 33.485903,
    "longitude": -117.696366,
    "city": "Dana Point",
    "state": "CA",
    "full_state": "California",
    "county": "Orange"
  },
  {
    "zip_code": 92630,
    "latitude": 33.64079,
    "longitude": -117.693074,
    "city": "Lake Forest",
    "state": "CA",
    "full_state": "California",
    "county": "Orange"
  },
  {
    "zip_code": 92637,
    "latitude": 33.608229,
    "longitude": -117.726099,
    "city": "Laguna Hills",
    "state": "CA",
    "full_state": "California",
    "county": "Orange"
  },
  {
    "zip_code": 92646,
    "latitude": 33.640302,
    "longitude": -117.769442,
    "city": "Huntington Beach",
    "state": "CA",
    "full_state": "California",
    "county": "Orange"
  },
  {
    "zip_code": 92647,
    "latitude": 33.640302,
    "longitude": -117.769442,
    "city": "Huntington Beach",
    "state": "CA",
    "full_state": "California",
    "county": "Orange"
  },
  {
    "zip_code": 92648,
    "latitude": 33.640302,
    "longitude": -117.769442,
    "city": "Huntington Beach",
    "state": "CA",
    "full_state": "California",
    "county": "Orange"
  },
  {
    "zip_code": 92649,
    "latitude": 33.640302,
    "longitude": -117.769442,
    "city": "Huntington Beach",
    "state": "CA",
    "full_state": "California",
    "county": "Orange"
  },
  {
    "zip_code": 92650,
    "latitude": 33.640302,
    "longitude": -117.769442,
    "city": "East Irvine",
    "state": "CA",
    "full_state": "California",
    "county": "Orange"
  },
  {
    "zip_code": 92651,
    "latitude": 33.520941,
    "longitude": -117.741315,
    "city": "Laguna Beach",
    "state": "CA",
    "full_state": "California",
    "county": "Orange"
  },
  {
    "zip_code": 92652,
    "latitude": 33.640302,
    "longitude": -117.769442,
    "city": "Laguna Beach",
    "state": "CA",
    "full_state": "California",
    "county": "Orange"
  },
  {
    "zip_code": 92653,
    "latitude": 33.595714,
    "longitude": -117.715535,
    "city": "Laguna Hills",
    "state": "CA",
    "full_state": "California",
    "county": "Orange"
  },
  {
    "zip_code": 92654,
    "latitude": 33.601673,
    "longitude": -117.716885,
    "city": "Laguna Hills",
    "state": "CA",
    "full_state": "California",
    "county": "Orange"
  },
  {
    "zip_code": 92655,
    "latitude": 33.640302,
    "longitude": -117.769442,
    "city": "Midway City",
    "state": "CA",
    "full_state": "California",
    "county": "Orange"
  },
  {
    "zip_code": 92656,
    "latitude": 33.603459,
    "longitude": -117.751341,
    "city": "Aliso Viejo",
    "state": "CA",
    "full_state": "California",
    "county": "Orange"
  },
  {
    "zip_code": 92657,
    "latitude": 33.597128,
    "longitude": -117.835987,
    "city": "Newport Coast",
    "state": "CA",
    "full_state": "California",
    "county": "Orange"
  },
  {
    "zip_code": 92658,
    "latitude": 33.640302,
    "longitude": -117.769442,
    "city": "Newport Beach",
    "state": "CA",
    "full_state": "California",
    "county": "Orange"
  },
  {
    "zip_code": 92659,
    "latitude": 33.611198,
    "longitude": -117.886731,
    "city": "Newport Beach",
    "state": "CA",
    "full_state": "California",
    "county": "Orange"
  },
  {
    "zip_code": 92660,
    "latitude": 33.637771,
    "longitude": -117.875189,
    "city": "Newport Beach",
    "state": "CA",
    "full_state": "California",
    "county": "Orange"
  },
  {
    "zip_code": 92661,
    "latitude": 33.555291,
    "longitude": -117.833298,
    "city": "Newport Beach",
    "state": "CA",
    "full_state": "California",
    "county": "Orange"
  },
  {
    "zip_code": 92662,
    "latitude": 33.606521,
    "longitude": -117.89274,
    "city": "Newport Beach",
    "state": "CA",
    "full_state": "California",
    "county": "Orange"
  },
  {
    "zip_code": 92663,
    "latitude": 33.61837,
    "longitude": -117.91709,
    "city": "Newport Beach",
    "state": "CA",
    "full_state": "California",
    "county": "Orange"
  },
  {
    "zip_code": 92672,
    "latitude": 33.568923,
    "longitude": -117.616082,
    "city": "San Clemente",
    "state": "CA",
    "full_state": "California",
    "county": "Orange"
  },
  {
    "zip_code": 92673,
    "latitude": 33.459745,
    "longitude": -117.625076,
    "city": "San Clemente",
    "state": "CA",
    "full_state": "California",
    "county": "Orange"
  },
  {
    "zip_code": 92674,
    "latitude": 33.438428,
    "longitude": -117.623131,
    "city": "San Clemente",
    "state": "CA",
    "full_state": "California",
    "county": "Orange"
  },
  {
    "zip_code": 92675,
    "latitude": 33.530631,
    "longitude": -117.618932,
    "city": "San Juan Capistrano",
    "state": "CA",
    "full_state": "California",
    "county": "Orange"
  },
  {
    "zip_code": 92676,
    "latitude": 33.741994,
    "longitude": -117.727416,
    "city": "Silverado",
    "state": "CA",
    "full_state": "California",
    "county": "Orange"
  },
  {
    "zip_code": 92677,
    "latitude": 33.532817,
    "longitude": -117.710262,
    "city": "Laguna Niguel",
    "state": "CA",
    "full_state": "California",
    "county": "Orange"
  },
  {
    "zip_code": 92678,
    "latitude": 33.673979,
    "longitude": -117.59457,
    "city": "Trabuco Canyon",
    "state": "CA",
    "full_state": "California",
    "county": "Orange"
  },
  {
    "zip_code": 92679,
    "latitude": 33.612322,
    "longitude": -117.595826,
    "city": "Trabuco Canyon",
    "state": "CA",
    "full_state": "California",
    "county": "Orange"
  },
  {
    "zip_code": 92683,
    "latitude": 33.640302,
    "longitude": -117.769442,
    "city": "Westminster",
    "state": "CA",
    "full_state": "California",
    "county": "Orange"
  },
  {
    "zip_code": 92684,
    "latitude": 33.640302,
    "longitude": -117.769442,
    "city": "Westminster",
    "state": "CA",
    "full_state": "California",
    "county": "Orange"
  },
  {
    "zip_code": 92685,
    "latitude": 33.640302,
    "longitude": -117.769442,
    "city": "Westminster",
    "state": "CA",
    "full_state": "California",
    "county": "Orange"
  },
  {
    "zip_code": 92688,
    "latitude": 33.601944,
    "longitude": -117.603684,
    "city": "Rancho Santa Margarita",
    "state": "CA",
    "full_state": "California",
    "county": "Orange"
  },
  {
    "zip_code": 92690,
    "latitude": 33.640302,
    "longitude": -117.769442,
    "city": "Mission Viejo",
    "state": "CA",
    "full_state": "California",
    "county": "Orange"
  },
  {
    "zip_code": 92691,
    "latitude": 33.605527,
    "longitude": -117.667923,
    "city": "Mission Viejo",
    "state": "CA",
    "full_state": "California",
    "county": "Orange"
  },
  {
    "zip_code": 92692,
    "latitude": 33.575026,
    "longitude": -117.659899,
    "city": "Mission Viejo",
    "state": "CA",
    "full_state": "California",
    "county": "Orange"
  },
  {
    "zip_code": 92693,
    "latitude": 33.555323,
    "longitude": -117.564,
    "city": "San Juan Capistrano",
    "state": "CA",
    "full_state": "California",
    "county": "Orange"
  },
  {
    "zip_code": 92694,
    "latitude": 33.640302,
    "longitude": -117.769442,
    "city": "Ladera Ranch",
    "state": "CA",
    "full_state": "California",
    "county": "Orange"
  },
  {
    "zip_code": 92697,
    "latitude": 33.640302,
    "longitude": -117.769442,
    "city": "Irvine",
    "state": "CA",
    "full_state": "California",
    "county": "Orange"
  },
  {
    "zip_code": 92698,
    "latitude": 33.640302,
    "longitude": -117.769442,
    "city": "Aliso Viejo",
    "state": "CA",
    "full_state": "California",
    "county": "Orange"
  },
  {
    "zip_code": 92701,
    "latitude": 33.640302,
    "longitude": -117.769442,
    "city": "Santa Ana",
    "state": "CA",
    "full_state": "California",
    "county": "Orange"
  },
  {
    "zip_code": 92702,
    "latitude": 33.640302,
    "longitude": -117.769442,
    "city": "Santa Ana",
    "state": "CA",
    "full_state": "California",
    "county": "Orange"
  },
  {
    "zip_code": 92703,
    "latitude": 33.640302,
    "longitude": -117.769442,
    "city": "Santa Ana",
    "state": "CA",
    "full_state": "California",
    "county": "Orange"
  },
  {
    "zip_code": 92704,
    "latitude": 33.640302,
    "longitude": -117.769442,
    "city": "Santa Ana",
    "state": "CA",
    "full_state": "California",
    "county": "Orange"
  },
  {
    "zip_code": 92705,
    "latitude": 33.707568,
    "longitude": -117.845746,
    "city": "Santa Ana",
    "state": "CA",
    "full_state": "California",
    "county": "Orange"
  },
  {
    "zip_code": 92706,
    "latitude": 33.640302,
    "longitude": -117.769442,
    "city": "Santa Ana",
    "state": "CA",
    "full_state": "California",
    "county": "Orange"
  },
  {
    "zip_code": 92707,
    "latitude": 33.679069,
    "longitude": -117.876789,
    "city": "Santa Ana",
    "state": "CA",
    "full_state": "California",
    "county": "Orange"
  },
  {
    "zip_code": 92708,
    "latitude": 33.640302,
    "longitude": -117.769442,
    "city": "Fountain Valley",
    "state": "CA",
    "full_state": "California",
    "county": "Orange"
  },
  {
    "zip_code": 92709,
    "latitude": 33.640302,
    "longitude": -117.769442,
    "city": "Irvine",
    "state": "CA",
    "full_state": "California",
    "county": "Orange"
  },
  {
    "zip_code": 92710,
    "latitude": 33.711552,
    "longitude": -117.809881,
    "city": "Irvine",
    "state": "CA",
    "full_state": "California",
    "county": "Orange"
  },
  {
    "zip_code": 92711,
    "latitude": 33.640302,
    "longitude": -117.769442,
    "city": "Santa Ana",
    "state": "CA",
    "full_state": "California",
    "county": "Orange"
  },
  {
    "zip_code": 92712,
    "latitude": 33.640302,
    "longitude": -117.769442,
    "city": "Santa Ana",
    "state": "CA",
    "full_state": "California",
    "county": "Orange"
  },
  {
    "zip_code": 92728,
    "latitude": 33.640302,
    "longitude": -117.769442,
    "city": "Fountain Valley",
    "state": "CA",
    "full_state": "California",
    "county": "Orange"
  },
  {
    "zip_code": 92735,
    "latitude": 33.640302,
    "longitude": -117.769442,
    "city": "Santa Ana",
    "state": "CA",
    "full_state": "California",
    "county": "Orange"
  },
  {
    "zip_code": 92780,
    "latitude": 33.579122,
    "longitude": -117.731534,
    "city": "Tustin",
    "state": "CA",
    "full_state": "California",
    "county": "Orange"
  },
  {
    "zip_code": 92781,
    "latitude": 33.640302,
    "longitude": -117.769442,
    "city": "Tustin",
    "state": "CA",
    "full_state": "California",
    "county": "Orange"
  },
  {
    "zip_code": 92782,
    "latitude": 33.705787,
    "longitude": -117.816189,
    "city": "Tustin",
    "state": "CA",
    "full_state": "California",
    "county": "Orange"
  },
  {
    "zip_code": 92799,
    "latitude": 33.640302,
    "longitude": -117.769442,
    "city": "Santa Ana",
    "state": "CA",
    "full_state": "California",
    "county": "Orange"
  },
  {
    "zip_code": 92801,
    "latitude": 33.640302,
    "longitude": -117.769442,
    "city": "Anaheim",
    "state": "CA",
    "full_state": "California",
    "county": "Orange"
  },
  {
    "zip_code": 92802,
    "latitude": 33.640302,
    "longitude": -117.769442,
    "city": "Anaheim",
    "state": "CA",
    "full_state": "California",
    "county": "Orange"
  },
  {
    "zip_code": 92803,
    "latitude": 33.640302,
    "longitude": -117.769442,
    "city": "Anaheim",
    "state": "CA",
    "full_state": "California",
    "county": "Orange"
  },
  {
    "zip_code": 92804,
    "latitude": 33.640302,
    "longitude": -117.769442,
    "city": "Anaheim",
    "state": "CA",
    "full_state": "California",
    "county": "Orange"
  },
  {
    "zip_code": 92805,
    "latitude": 33.640302,
    "longitude": -117.769442,
    "city": "Anaheim",
    "state": "CA",
    "full_state": "California",
    "county": "Orange"
  },
  {
    "zip_code": 92806,
    "latitude": 33.640302,
    "longitude": -117.769442,
    "city": "Anaheim",
    "state": "CA",
    "full_state": "California",
    "county": "Orange"
  },
  {
    "zip_code": 92807,
    "latitude": 33.640302,
    "longitude": -117.769442,
    "city": "Anaheim",
    "state": "CA",
    "full_state": "California",
    "county": "Orange"
  },
  {
    "zip_code": 92808,
    "latitude": 33.640302,
    "longitude": -117.769442,
    "city": "Anaheim",
    "state": "CA",
    "full_state": "California",
    "county": "Orange"
  },
  {
    "zip_code": 92809,
    "latitude": 33.865843,
    "longitude": -117.744003,
    "city": "Anaheim",
    "state": "CA",
    "full_state": "California",
    "county": "Orange"
  },
  {
    "zip_code": 92811,
    "latitude": 33.640302,
    "longitude": -117.769442,
    "city": "Atwood",
    "state": "CA",
    "full_state": "California",
    "county": "Orange"
  },
  {
    "zip_code": 92812,
    "latitude": 33.640302,
    "longitude": -117.769442,
    "city": "Anaheim",
    "state": "CA",
    "full_state": "California",
    "county": "Orange"
  },
  {
    "zip_code": 92814,
    "latitude": 33.640302,
    "longitude": -117.769442,
    "city": "Anaheim",
    "state": "CA",
    "full_state": "California",
    "county": "Orange"
  },
  {
    "zip_code": 92815,
    "latitude": 33.640302,
    "longitude": -117.769442,
    "city": "Anaheim",
    "state": "CA",
    "full_state": "California",
    "county": "Orange"
  },
  {
    "zip_code": 92816,
    "latitude": 33.640302,
    "longitude": -117.769442,
    "city": "Anaheim",
    "state": "CA",
    "full_state": "California",
    "county": "Orange"
  },
  {
    "zip_code": 92817,
    "latitude": 33.640302,
    "longitude": -117.769442,
    "city": "Anaheim",
    "state": "CA",
    "full_state": "California",
    "county": "Orange"
  },
  {
    "zip_code": 92821,
    "latitude": 33.640302,
    "longitude": -117.769442,
    "city": "Brea",
    "state": "CA",
    "full_state": "California",
    "county": "Orange"
  },
  {
    "zip_code": 92822,
    "latitude": 33.640302,
    "longitude": -117.769442,
    "city": "Brea",
    "state": "CA",
    "full_state": "California",
    "county": "Orange"
  },
  {
    "zip_code": 92823,
    "latitude": 33.640302,
    "longitude": -117.769442,
    "city": "Brea",
    "state": "CA",
    "full_state": "California",
    "county": "Orange"
  },
  {
    "zip_code": 92825,
    "latitude": 33.640302,
    "longitude": -117.769442,
    "city": "Anaheim",
    "state": "CA",
    "full_state": "California",
    "county": "Orange"
  },
  {
    "zip_code": 92831,
    "latitude": 33.640302,
    "longitude": -117.769442,
    "city": "Fullerton",
    "state": "CA",
    "full_state": "California",
    "county": "Orange"
  },
  {
    "zip_code": 92832,
    "latitude": 33.640302,
    "longitude": -117.769442,
    "city": "Fullerton",
    "state": "CA",
    "full_state": "California",
    "county": "Orange"
  },
  {
    "zip_code": 92833,
    "latitude": 33.640302,
    "longitude": -117.769442,
    "city": "Fullerton",
    "state": "CA",
    "full_state": "California",
    "county": "Orange"
  },
  {
    "zip_code": 92834,
    "latitude": 33.640302,
    "longitude": -117.769442,
    "city": "Fullerton",
    "state": "CA",
    "full_state": "California",
    "county": "Orange"
  },
  {
    "zip_code": 92835,
    "latitude": 33.640302,
    "longitude": -117.769442,
    "city": "Fullerton",
    "state": "CA",
    "full_state": "California",
    "county": "Orange"
  },
  {
    "zip_code": 92836,
    "latitude": 33.640302,
    "longitude": -117.769442,
    "city": "Fullerton",
    "state": "CA",
    "full_state": "California",
    "county": "Orange"
  },
  {
    "zip_code": 92837,
    "latitude": 33.640302,
    "longitude": -117.769442,
    "city": "Fullerton",
    "state": "CA",
    "full_state": "California",
    "county": "Orange"
  },
  {
    "zip_code": 92838,
    "latitude": 33.640302,
    "longitude": -117.769442,
    "city": "Fullerton",
    "state": "CA",
    "full_state": "California",
    "county": "Orange"
  },
  {
    "zip_code": 92840,
    "latitude": 33.640302,
    "longitude": -117.769442,
    "city": "Garden Grove",
    "state": "CA",
    "full_state": "California",
    "county": "Orange"
  },
  {
    "zip_code": 92841,
    "latitude": 33.640302,
    "longitude": -117.769442,
    "city": "Garden Grove",
    "state": "CA",
    "full_state": "California",
    "county": "Orange"
  },
  {
    "zip_code": 92842,
    "latitude": 33.640302,
    "longitude": -117.769442,
    "city": "Garden Grove",
    "state": "CA",
    "full_state": "California",
    "county": "Orange"
  },
  {
    "zip_code": 92843,
    "latitude": 33.640302,
    "longitude": -117.769442,
    "city": "Garden Grove",
    "state": "CA",
    "full_state": "California",
    "county": "Orange"
  },
  {
    "zip_code": 92844,
    "latitude": 33.640302,
    "longitude": -117.769442,
    "city": "Garden Grove",
    "state": "CA",
    "full_state": "California",
    "county": "Orange"
  },
  {
    "zip_code": 92845,
    "latitude": 33.640302,
    "longitude": -117.769442,
    "city": "Garden Grove",
    "state": "CA",
    "full_state": "California",
    "county": "Orange"
  },
  {
    "zip_code": 92846,
    "latitude": 33.640302,
    "longitude": -117.769442,
    "city": "Garden Grove",
    "state": "CA",
    "full_state": "California",
    "county": "Orange"
  },
  {
    "zip_code": 92850,
    "latitude": 33.640302,
    "longitude": -117.769442,
    "city": "Anaheim",
    "state": "CA",
    "full_state": "California",
    "county": "Orange"
  },
  {
    "zip_code": 92856,
    "latitude": 33.640302,
    "longitude": -117.769442,
    "city": "Orange",
    "state": "CA",
    "full_state": "California",
    "county": "Orange"
  },
  {
    "zip_code": 92857,
    "latitude": 33.640302,
    "longitude": -117.769442,
    "city": "Orange",
    "state": "CA",
    "full_state": "California",
    "county": "Orange"
  },
  {
    "zip_code": 92859,
    "latitude": 33.640302,
    "longitude": -117.769442,
    "city": "Orange",
    "state": "CA",
    "full_state": "California",
    "county": "Orange"
  },
  {
    "zip_code": 92860,
    "latitude": 33.752886,
    "longitude": -116.055617,
    "city": "Norco",
    "state": "CA",
    "full_state": "California",
    "county": "Riverside"
  },
  {
    "zip_code": 92861,
    "latitude": 33.640302,
    "longitude": -117.769442,
    "city": "Villa Park",
    "state": "CA",
    "full_state": "California",
    "county": "Orange"
  },
  {
    "zip_code": 92862,
    "latitude": 33.640302,
    "longitude": -117.769442,
    "city": "Orange",
    "state": "CA",
    "full_state": "California",
    "county": "Orange"
  },
  {
    "zip_code": 92863,
    "latitude": 33.640302,
    "longitude": -117.769442,
    "city": "Orange",
    "state": "CA",
    "full_state": "California",
    "county": "Orange"
  },
  {
    "zip_code": 92864,
    "latitude": 33.640302,
    "longitude": -117.769442,
    "city": "Orange",
    "state": "CA",
    "full_state": "California",
    "county": "Orange"
  },
  {
    "zip_code": 92865,
    "latitude": 33.640302,
    "longitude": -117.769442,
    "city": "Orange",
    "state": "CA",
    "full_state": "California",
    "county": "Orange"
  },
  {
    "zip_code": 92866,
    "latitude": 33.640302,
    "longitude": -117.769442,
    "city": "Orange",
    "state": "CA",
    "full_state": "California",
    "county": "Orange"
  },
  {
    "zip_code": 92867,
    "latitude": 33.640302,
    "longitude": -117.769442,
    "city": "Orange",
    "state": "CA",
    "full_state": "California",
    "county": "Orange"
  },
  {
    "zip_code": 92868,
    "latitude": 33.640302,
    "longitude": -117.769442,
    "city": "Orange",
    "state": "CA",
    "full_state": "California",
    "county": "Orange"
  },
  {
    "zip_code": 92869,
    "latitude": 33.640302,
    "longitude": -117.769442,
    "city": "Orange",
    "state": "CA",
    "full_state": "California",
    "county": "Orange"
  },
  {
    "zip_code": 92870,
    "latitude": 33.640302,
    "longitude": -117.769442,
    "city": "Placentia",
    "state": "CA",
    "full_state": "California",
    "county": "Orange"
  },
  {
    "zip_code": 92871,
    "latitude": 33.640302,
    "longitude": -117.769442,
    "city": "Placentia",
    "state": "CA",
    "full_state": "California",
    "county": "Orange"
  },
  {
    "zip_code": 92877,
    "latitude": 33.752886,
    "longitude": -116.055617,
    "city": "Corona",
    "state": "CA",
    "full_state": "California",
    "county": "Riverside"
  },
  {
    "zip_code": 92878,
    "latitude": 33.752886,
    "longitude": -116.055617,
    "city": "Corona",
    "state": "CA",
    "full_state": "California",
    "county": "Riverside"
  },
  {
    "zip_code": 92879,
    "latitude": 33.752886,
    "longitude": -116.055617,
    "city": "Corona",
    "state": "CA",
    "full_state": "California",
    "county": "Riverside"
  },
  {
    "zip_code": 92880,
    "latitude": 33.752886,
    "longitude": -116.055617,
    "city": "Corona",
    "state": "CA",
    "full_state": "California",
    "county": "Riverside"
  },
  {
    "zip_code": 92881,
    "latitude": 33.752886,
    "longitude": -116.055617,
    "city": "Corona",
    "state": "CA",
    "full_state": "California",
    "county": "Riverside"
  },
  {
    "zip_code": 92882,
    "latitude": 33.752886,
    "longitude": -116.055617,
    "city": "Corona",
    "state": "CA",
    "full_state": "California",
    "county": "Riverside"
  },
  {
    "zip_code": 92883,
    "latitude": 33.752886,
    "longitude": -116.055617,
    "city": "Corona",
    "state": "CA",
    "full_state": "California",
    "county": "Riverside"
  },
  {
    "zip_code": 92885,
    "latitude": 33.640302,
    "longitude": -117.769442,
    "city": "Yorba Linda",
    "state": "CA",
    "full_state": "California",
    "county": "Orange"
  },
  {
    "zip_code": 92886,
    "latitude": 33.674044,
    "longitude": -117.588233,
    "city": "Yorba Linda",
    "state": "CA",
    "full_state": "California",
    "county": "Orange"
  },
  {
    "zip_code": 92887,
    "latitude": 33.640302,
    "longitude": -117.769442,
    "city": "Yorba Linda",
    "state": "CA",
    "full_state": "California",
    "county": "Orange"
  },
  {
    "zip_code": 92899,
    "latitude": 33.640302,
    "longitude": -117.769442,
    "city": "Anaheim",
    "state": "CA",
    "full_state": "California",
    "county": "Orange"
  },
  {
    "zip_code": 93001,
    "latitude": 34.330829,
    "longitude": -119.358352,
    "city": "Ventura",
    "state": "CA",
    "full_state": "California",
    "county": "Ventura"
  },
  {
    "zip_code": 93002,
    "latitude": 34.032383,
    "longitude": -119.1343,
    "city": "Ventura",
    "state": "CA",
    "full_state": "California",
    "county": "Ventura"
  },
  {
    "zip_code": 93003,
    "latitude": 34.230353,
    "longitude": -119.221299,
    "city": "Ventura",
    "state": "CA",
    "full_state": "California",
    "county": "Ventura"
  },
  {
    "zip_code": 93004,
    "latitude": 34.278752,
    "longitude": -119.16509,
    "city": "Ventura",
    "state": "CA",
    "full_state": "California",
    "county": "Ventura"
  },
  {
    "zip_code": 93005,
    "latitude": 34.032383,
    "longitude": -119.1343,
    "city": "Ventura",
    "state": "CA",
    "full_state": "California",
    "county": "Ventura"
  },
  {
    "zip_code": 93006,
    "latitude": 34.032383,
    "longitude": -119.1343,
    "city": "Ventura",
    "state": "CA",
    "full_state": "California",
    "county": "Ventura"
  },
  {
    "zip_code": 93007,
    "latitude": 34.032383,
    "longitude": -119.1343,
    "city": "Ventura",
    "state": "CA",
    "full_state": "California",
    "county": "Ventura"
  },
  {
    "zip_code": 93009,
    "latitude": 34.356248,
    "longitude": -119.146228,
    "city": "Ventura",
    "state": "CA",
    "full_state": "California",
    "county": "Ventura"
  },
  {
    "zip_code": 93010,
    "latitude": 34.307783,
    "longitude": -119.084253,
    "city": "Camarillo",
    "state": "CA",
    "full_state": "California",
    "county": "Ventura"
  },
  {
    "zip_code": 93011,
    "latitude": 34.032383,
    "longitude": -119.1343,
    "city": "Camarillo",
    "state": "CA",
    "full_state": "California",
    "county": "Ventura"
  },
  {
    "zip_code": 93012,
    "latitude": 34.204429,
    "longitude": -118.974355,
    "city": "Camarillo",
    "state": "CA",
    "full_state": "California",
    "county": "Ventura"
  },
  {
    "zip_code": 93013,
    "latitude": 34.405045,
    "longitude": -119.520525,
    "city": "Carpinteria",
    "state": "CA",
    "full_state": "California",
    "county": "Santa Barbara"
  },
  {
    "zip_code": 93014,
    "latitude": 34.262834,
    "longitude": -119.848555,
    "city": "Carpinteria",
    "state": "CA",
    "full_state": "California",
    "county": "Santa Barbara"
  },
  {
    "zip_code": 93015,
    "latitude": 34.393387,
    "longitude": -118.864285,
    "city": "Fillmore",
    "state": "CA",
    "full_state": "California",
    "county": "Ventura"
  },
  {
    "zip_code": 93016,
    "latitude": 34.032383,
    "longitude": -119.1343,
    "city": "Fillmore",
    "state": "CA",
    "full_state": "California",
    "county": "Ventura"
  },
  {
    "zip_code": 93020,
    "latitude": 34.032383,
    "longitude": -119.1343,
    "city": "Moorpark",
    "state": "CA",
    "full_state": "California",
    "county": "Ventura"
  },
  {
    "zip_code": 93021,
    "latitude": 34.301347,
    "longitude": -118.901098,
    "city": "Moorpark",
    "state": "CA",
    "full_state": "California",
    "county": "Ventura"
  },
  {
    "zip_code": 93022,
    "latitude": 34.412169,
    "longitude": -119.292335,
    "city": "Oak View",
    "state": "CA",
    "full_state": "California",
    "county": "Ventura"
  },
  {
    "zip_code": 93023,
    "latitude": 34.478806,
    "longitude": -119.25876,
    "city": "Ojai",
    "state": "CA",
    "full_state": "California",
    "county": "Ventura"
  },
  {
    "zip_code": 93024,
    "latitude": 34.032383,
    "longitude": -119.1343,
    "city": "Ojai",
    "state": "CA",
    "full_state": "California",
    "county": "Ventura"
  },
  {
    "zip_code": 93030,
    "latitude": 34.224892,
    "longitude": -119.17749,
    "city": "Oxnard",
    "state": "CA",
    "full_state": "California",
    "county": "Ventura"
  },
  {
    "zip_code": 93031,
    "latitude": 34.032383,
    "longitude": -119.1343,
    "city": "Oxnard",
    "state": "CA",
    "full_state": "California",
    "county": "Ventura"
  },
  {
    "zip_code": 93032,
    "latitude": 34.032383,
    "longitude": -119.1343,
    "city": "Oxnard",
    "state": "CA",
    "full_state": "California",
    "county": "Ventura"
  },
  {
    "zip_code": 93033,
    "latitude": 34.154141,
    "longitude": -119.131326,
    "city": "Oxnard",
    "state": "CA",
    "full_state": "California",
    "county": "Ventura"
  },
  {
    "zip_code": 93034,
    "latitude": 34.032383,
    "longitude": -119.1343,
    "city": "Oxnard",
    "state": "CA",
    "full_state": "California",
    "county": "Ventura"
  },
  {
    "zip_code": 93035,
    "latitude": 34.221157,
    "longitude": -119.202365,
    "city": "Oxnard",
    "state": "CA",
    "full_state": "California",
    "county": "Ventura"
  },
  {
    "zip_code": 93040,
    "latitude": 34.435224,
    "longitude": -118.785517,
    "city": "Piru",
    "state": "CA",
    "full_state": "California",
    "county": "Ventura"
  },
  {
    "zip_code": 93041,
    "latitude": 34.148893,
    "longitude": -119.15458,
    "city": "Port Hueneme",
    "state": "CA",
    "full_state": "California",
    "county": "Ventura"
  },
  {
    "zip_code": 93042,
    "latitude": 34.113389,
    "longitude": -119.112432,
    "city": "Point Mugu Nawc",
    "state": "CA",
    "full_state": "California",
    "county": "Ventura"
  },
  {
    "zip_code": 93043,
    "latitude": 34.162124,
    "longitude": -119.207364,
    "city": "Port Hueneme Cbc Base",
    "state": "CA",
    "full_state": "California",
    "county": "Ventura"
  },
  {
    "zip_code": 93044,
    "latitude": 34.032383,
    "longitude": -119.1343,
    "city": "Port Hueneme",
    "state": "CA",
    "full_state": "California",
    "county": "Ventura"
  },
  {
    "zip_code": 93060,
    "latitude": 34.364943,
    "longitude": -119.085704,
    "city": "Santa Paula",
    "state": "CA",
    "full_state": "California",
    "county": "Ventura"
  },
  {
    "zip_code": 93061,
    "latitude": 34.032383,
    "longitude": -119.1343,
    "city": "Santa Paula",
    "state": "CA",
    "full_state": "California",
    "county": "Ventura"
  },
  {
    "zip_code": 93062,
    "latitude": 34.032383,
    "longitude": -119.1343,
    "city": "Simi Valley",
    "state": "CA",
    "full_state": "California",
    "county": "Ventura"
  },
  {
    "zip_code": 93063,
    "latitude": 34.292301,
    "longitude": -118.82033,
    "city": "Simi Valley",
    "state": "CA",
    "full_state": "California",
    "county": "Ventura"
  },
  {
    "zip_code": 93064,
    "latitude": 34.258203,
    "longitude": -118.710724,
    "city": "Brandeis",
    "state": "CA",
    "full_state": "California",
    "county": "Ventura"
  },
  {
    "zip_code": 93065,
    "latitude": 34.272162,
    "longitude": -118.733903,
    "city": "Simi Valley",
    "state": "CA",
    "full_state": "California",
    "county": "Ventura"
  },
  {
    "zip_code": 93066,
    "latitude": 34.304034,
    "longitude": -119.039305,
    "city": "Somis",
    "state": "CA",
    "full_state": "California",
    "county": "Ventura"
  },
  {
    "zip_code": 93067,
    "latitude": 34.422045,
    "longitude": -119.592561,
    "city": "Summerland",
    "state": "CA",
    "full_state": "California",
    "county": "Santa Barbara"
  },
  {
    "zip_code": 93093,
    "latitude": 34.032383,
    "longitude": -119.1343,
    "city": "Simi Valley",
    "state": "CA",
    "full_state": "California",
    "county": "Ventura"
  },
  {
    "zip_code": 93094,
    "latitude": 34.032383,
    "longitude": -119.1343,
    "city": "Simi Valley",
    "state": "CA",
    "full_state": "California",
    "county": "Ventura"
  },
  {
    "zip_code": 93099,
    "latitude": 34.032383,
    "longitude": -119.1343,
    "city": "Simi Valley",
    "state": "CA",
    "full_state": "California",
    "county": "Ventura"
  },
  {
    "zip_code": 93101,
    "latitude": 34.421897,
    "longitude": -119.707135,
    "city": "Santa Barbara",
    "state": "CA",
    "full_state": "California",
    "county": "Santa Barbara"
  },
  {
    "zip_code": 93102,
    "latitude": 34.262834,
    "longitude": -119.848555,
    "city": "Santa Barbara",
    "state": "CA",
    "full_state": "California",
    "county": "Santa Barbara"
  },
  {
    "zip_code": 93103,
    "latitude": 34.430908,
    "longitude": -119.626863,
    "city": "Santa Barbara",
    "state": "CA",
    "full_state": "California",
    "county": "Santa Barbara"
  },
  {
    "zip_code": 93105,
    "latitude": 34.508099,
    "longitude": -119.868622,
    "city": "Santa Barbara",
    "state": "CA",
    "full_state": "California",
    "county": "Santa Barbara"
  },
  {
    "zip_code": 93106,
    "latitude": 34.432896,
    "longitude": -119.837072,
    "city": "Santa Barbara",
    "state": "CA",
    "full_state": "California",
    "county": "Santa Barbara"
  },
  {
    "zip_code": 93107,
    "latitude": 34.421795,
    "longitude": -119.863722,
    "city": "Santa Barbara",
    "state": "CA",
    "full_state": "California",
    "county": "Santa Barbara"
  },
  {
    "zip_code": 93108,
    "latitude": 34.437795,
    "longitude": -119.615862,
    "city": "Santa Barbara",
    "state": "CA",
    "full_state": "California",
    "county": "Santa Barbara"
  },
  {
    "zip_code": 93109,
    "latitude": 34.406997,
    "longitude": -119.723668,
    "city": "Santa Barbara",
    "state": "CA",
    "full_state": "California",
    "county": "Santa Barbara"
  },
  {
    "zip_code": 93110,
    "latitude": 34.539027,
    "longitude": -119.906198,
    "city": "Santa Barbara",
    "state": "CA",
    "full_state": "California",
    "county": "Santa Barbara"
  },
  {
    "zip_code": 93111,
    "latitude": 34.453046,
    "longitude": -119.798472,
    "city": "Santa Barbara",
    "state": "CA",
    "full_state": "California",
    "county": "Santa Barbara"
  },
  {
    "zip_code": 93116,
    "latitude": 34.262834,
    "longitude": -119.848555,
    "city": "Goleta",
    "state": "CA",
    "full_state": "California",
    "county": "Santa Barbara"
  },
  {
    "zip_code": 93117,
    "latitude": 34.503802,
    "longitude": -120.038806,
    "city": "Goleta",
    "state": "CA",
    "full_state": "California",
    "county": "Santa Barbara"
  },
  {
    "zip_code": 93118,
    "latitude": 34.262834,
    "longitude": -119.848555,
    "city": "Goleta",
    "state": "CA",
    "full_state": "California",
    "county": "Santa Barbara"
  },
  {
    "zip_code": 93120,
    "latitude": 34.262834,
    "longitude": -119.848555,
    "city": "Santa Barbara",
    "state": "CA",
    "full_state": "California",
    "county": "Santa Barbara"
  },
  {
    "zip_code": 93121,
    "latitude": 34.262834,
    "longitude": -119.848555,
    "city": "Santa Barbara",
    "state": "CA",
    "full_state": "California",
    "county": "Santa Barbara"
  },
  {
    "zip_code": 93130,
    "latitude": 34.262834,
    "longitude": -119.848555,
    "city": "Santa Barbara",
    "state": "CA",
    "full_state": "California",
    "county": "Santa Barbara"
  },
  {
    "zip_code": 93140,
    "latitude": 34.262834,
    "longitude": -119.848555,
    "city": "Santa Barbara",
    "state": "CA",
    "full_state": "California",
    "county": "Santa Barbara"
  },
  {
    "zip_code": 93150,
    "latitude": 34.262834,
    "longitude": -119.848555,
    "city": "Santa Barbara",
    "state": "CA",
    "full_state": "California",
    "county": "Santa Barbara"
  },
  {
    "zip_code": 93160,
    "latitude": 34.262834,
    "longitude": -119.848555,
    "city": "Santa Barbara",
    "state": "CA",
    "full_state": "California",
    "county": "Santa Barbara"
  },
  {
    "zip_code": 93190,
    "latitude": 34.262834,
    "longitude": -119.848555,
    "city": "Santa Barbara",
    "state": "CA",
    "full_state": "California",
    "county": "Santa Barbara"
  },
  {
    "zip_code": 93199,
    "latitude": 34.262834,
    "longitude": -119.848555,
    "city": "Goleta",
    "state": "CA",
    "full_state": "California",
    "county": "Santa Barbara"
  },
  {
    "zip_code": 93201,
    "latitude": 35.85829,
    "longitude": -119.303735,
    "city": "Alpaugh",
    "state": "CA",
    "full_state": "California",
    "county": "Tulare"
  },
  {
    "zip_code": 93202,
    "latitude": 36.316529,
    "longitude": -119.704594,
    "city": "Armona",
    "state": "CA",
    "full_state": "California",
    "county": "Kings"
  },
  {
    "zip_code": 93203,
    "latitude": 35.311064,
    "longitude": -118.659604,
    "city": "Arvin",
    "state": "CA",
    "full_state": "California",
    "county": "Kern"
  },
  {
    "zip_code": 93204,
    "latitude": 36.003134,
    "longitude": -120.128716,
    "city": "Avenal",
    "state": "CA",
    "full_state": "California",
    "county": "Kings"
  },
  {
    "zip_code": 93205,
    "latitude": 35.569608,
    "longitude": -118.487681,
    "city": "Bodfish",
    "state": "CA",
    "full_state": "California",
    "county": "Kern"
  },
  {
    "zip_code": 93206,
    "latitude": 35.294405,
    "longitude": -118.905173,
    "city": "Buttonwillow",
    "state": "CA",
    "full_state": "California",
    "county": "Kern"
  },
  {
    "zip_code": 93207,
    "latitude": 35.881776,
    "longitude": -118.656086,
    "city": "California Hot Springs",
    "state": "CA",
    "full_state": "California",
    "county": "Tulare"
  },
  {
    "zip_code": 93208,
    "latitude": 36.139789,
    "longitude": -118.694576,
    "city": "Camp Nelson",
    "state": "CA",
    "full_state": "California",
    "county": "Tulare"
  },
  {
    "zip_code": 93210,
    "latitude": 36.247025,
    "longitude": -120.381432,
    "city": "Coalinga",
    "state": "CA",
    "full_state": "California",
    "county": "Fresno"
  },
  {
    "zip_code": 93212,
    "latitude": 36.067399,
    "longitude": -119.622634,
    "city": "Corcoran",
    "state": "CA",
    "full_state": "California",
    "county": "Kings"
  },
  {
    "zip_code": 93215,
    "latitude": 35.294405,
    "longitude": -118.905173,
    "city": "Delano",
    "state": "CA",
    "full_state": "California",
    "county": "Kern"
  },
  {
    "zip_code": 93216,
    "latitude": 35.294405,
    "longitude": -118.905173,
    "city": "Delano",
    "state": "CA",
    "full_state": "California",
    "county": "Kern"
  },
  {
    "zip_code": 93218,
    "latitude": 36.082002,
    "longitude": -119.036316,
    "city": "Ducor",
    "state": "CA",
    "full_state": "California",
    "county": "Tulare"
  },
  {
    "zip_code": 93219,
    "latitude": 35.875918,
    "longitude": -119.262323,
    "city": "Earlimart",
    "state": "CA",
    "full_state": "California",
    "county": "Tulare"
  },
  {
    "zip_code": 93220,
    "latitude": 35.357018,
    "longitude": -118.810069,
    "city": "Edison",
    "state": "CA",
    "full_state": "California",
    "county": "Kern"
  },
  {
    "zip_code": 93221,
    "latitude": 36.344716,
    "longitude": -119.088371,
    "city": "Exeter",
    "state": "CA",
    "full_state": "California",
    "county": "Tulare"
  },
  {
    "zip_code": 93222,
    "latitude": 35.294405,
    "longitude": -118.905173,
    "city": "Frazier Park",
    "state": "CA",
    "full_state": "California",
    "county": "Kern"
  },
  {
    "zip_code": 93223,
    "latitude": 36.304981,
    "longitude": -119.202664,
    "city": "Farmersville",
    "state": "CA",
    "full_state": "California",
    "county": "Tulare"
  },
  {
    "zip_code": 93224,
    "latitude": 35.294405,
    "longitude": -118.905173,
    "city": "Fellows",
    "state": "CA",
    "full_state": "California",
    "county": "Kern"
  },
  {
    "zip_code": 93225,
    "latitude": 35.674205,
    "longitude": -118.475381,
    "city": "Frazier Park",
    "state": "CA",
    "full_state": "California",
    "county": "Kern"
  },
  {
    "zip_code": 93226,
    "latitude": 35.73296,
    "longitude": -118.709978,
    "city": "Glennville",
    "state": "CA",
    "full_state": "California",
    "county": "Kern"
  },
  {
    "zip_code": 93227,
    "latitude": 36.357151,
    "longitude": -119.425371,
    "city": "Goshen",
    "state": "CA",
    "full_state": "California",
    "county": "Tulare"
  },
  {
    "zip_code": 93230,
    "latitude": 36.220468,
    "longitude": -119.71776,
    "city": "Hanford",
    "state": "CA",
    "full_state": "California",
    "county": "Kings"
  },
  {
    "zip_code": 93232,
    "latitude": 36.138861,
    "longitude": -119.894727,
    "city": "Hanford",
    "state": "CA",
    "full_state": "California",
    "county": "Kings"
  },
  {
    "zip_code": 93234,
    "latitude": 36.207165,
    "longitude": -120.103363,
    "city": "Huron",
    "state": "CA",
    "full_state": "California",
    "county": "Fresno"
  },
  {
    "zip_code": 93235,
    "latitude": 36.375844,
    "longitude": -119.134101,
    "city": "Ivanhoe",
    "state": "CA",
    "full_state": "California",
    "county": "Tulare"
  },
  {
    "zip_code": 93237,
    "latitude": 36.472713,
    "longitude": -118.902899,
    "city": "Kaweah",
    "state": "CA",
    "full_state": "California",
    "county": "Tulare"
  },
  {
    "zip_code": 93238,
    "latitude": 35.708701,
    "longitude": -118.405385,
    "city": "Kernville",
    "state": "CA",
    "full_state": "California",
    "county": "Kern"
  },
  {
    "zip_code": 93239,
    "latitude": 36.005488,
    "longitude": -120.027031,
    "city": "Kettleman City",
    "state": "CA",
    "full_state": "California",
    "county": "Kings"
  },
  {
    "zip_code": 93240,
    "latitude": 35.668987,
    "longitude": -118.457002,
    "city": "Lake Isabella",
    "state": "CA",
    "full_state": "California",
    "county": "Kern"
  },
  {
    "zip_code": 93241,
    "latitude": 35.405369,
    "longitude": -118.699098,
    "city": "Lamont",
    "state": "CA",
    "full_state": "California",
    "county": "Kern"
  },
  {
    "zip_code": 93242,
    "latitude": 36.445649,
    "longitude": -119.696386,
    "city": "Laton",
    "state": "CA",
    "full_state": "California",
    "county": "Fresno"
  },
  {
    "zip_code": 93243,
    "latitude": 34.881773,
    "longitude": -118.856562,
    "city": "Lebec",
    "state": "CA",
    "full_state": "California",
    "county": "Kern"
  },
  {
    "zip_code": 93244,
    "latitude": 36.496901,
    "longitude": -118.99412,
    "city": "Lemon Cove",
    "state": "CA",
    "full_state": "California",
    "county": "Tulare"
  },
  {
    "zip_code": 93245,
    "latitude": 36.268194,
    "longitude": -119.817274,
    "city": "Lemoore",
    "state": "CA",
    "full_state": "California",
    "county": "Kings"
  },
  {
    "zip_code": 93246,
    "latitude": 36.138861,
    "longitude": -119.894727,
    "city": "Lemoore",
    "state": "CA",
    "full_state": "California",
    "county": "Kings"
  },
  {
    "zip_code": 93247,
    "latitude": 36.073033,
    "longitude": -119.129166,
    "city": "Lindsay",
    "state": "CA",
    "full_state": "California",
    "county": "Tulare"
  },
  {
    "zip_code": 93249,
    "latitude": 35.294405,
    "longitude": -118.905173,
    "city": "Lost Hills",
    "state": "CA",
    "full_state": "California",
    "county": "Kern"
  },
  {
    "zip_code": 93250,
    "latitude": 35.674813,
    "longitude": -118.489938,
    "city": "Mc Farland",
    "state": "CA",
    "full_state": "California",
    "county": "Kern"
  },
  {
    "zip_code": 93251,
    "latitude": 35.294405,
    "longitude": -118.905173,
    "city": "Mc Kittrick",
    "state": "CA",
    "full_state": "California",
    "county": "Kern"
  },
  {
    "zip_code": 93252,
    "latitude": 35.294405,
    "longitude": -118.905173,
    "city": "Maricopa",
    "state": "CA",
    "full_state": "California",
    "county": "Kern"
  },
  {
    "zip_code": 93254,
    "latitude": 34.922283,
    "longitude": -119.590275,
    "city": "New Cuyama",
    "state": "CA",
    "full_state": "California",
    "county": "Santa Barbara"
  },
  {
    "zip_code": 93255,
    "latitude": 35.63952,
    "longitude": -117.988136,
    "city": "Onyx",
    "state": "CA",
    "full_state": "California",
    "county": "Kern"
  },
  {
    "zip_code": 93256,
    "latitude": 35.959881,
    "longitude": -119.13645,
    "city": "Pixley",
    "state": "CA",
    "full_state": "California",
    "county": "Tulare"
  },
  {
    "zip_code": 93257,
    "latitude": 35.973777,
    "longitude": -118.703592,
    "city": "Porterville",
    "state": "CA",
    "full_state": "California",
    "county": "Tulare"
  },
  {
    "zip_code": 93258,
    "latitude": 36.033126,
    "longitude": -119.007265,
    "city": "Porterville",
    "state": "CA",
    "full_state": "California",
    "county": "Tulare"
  },
  {
    "zip_code": 93260,
    "latitude": 35.819334,
    "longitude": -118.730136,
    "city": "Posey",
    "state": "CA",
    "full_state": "California",
    "county": "Tulare"
  },
  {
    "zip_code": 93261,
    "latitude": 35.805046,
    "longitude": -119.131527,
    "city": "Richgrove",
    "state": "CA",
    "full_state": "California",
    "county": "Tulare"
  },
  {
    "zip_code": 93262,
    "latitude": 36.36444,
    "longitude": -118.722755,
    "city": "Sequoia National Park",
    "state": "CA",
    "full_state": "California",
    "county": "Tulare"
  },
  {
    "zip_code": 93263,
    "latitude": 35.763646,
    "longitude": -118.435693,
    "city": "Shafter",
    "state": "CA",
    "full_state": "California",
    "county": "Kern"
  },
  {
    "zip_code": 93265,
    "latitude": 36.126506,
    "longitude": -118.928478,
    "city": "Springville",
    "state": "CA",
    "full_state": "California",
    "county": "Tulare"
  },
  {
    "zip_code": 93266,
    "latitude": 36.189441,
    "longitude": -119.851865,
    "city": "Stratford",
    "state": "CA",
    "full_state": "California",
    "county": "Kings"
  },
  {
    "zip_code": 93267,
    "latitude": 36.137375,
    "longitude": -119.039111,
    "city": "Strathmore",
    "state": "CA",
    "full_state": "California",
    "county": "Tulare"
  },
  {
    "zip_code": 93268,
    "latitude": 35.703306,
    "longitude": -118.413077,
    "city": "Taft",
    "state": "CA",
    "full_state": "California",
    "county": "Kern"
  },
  {
    "zip_code": 93270,
    "latitude": 35.904767,
    "longitude": -119.044239,
    "city": "Terra Bella",
    "state": "CA",
    "full_state": "California",
    "county": "Tulare"
  },
  {
    "zip_code": 93271,
    "latitude": 36.435485,
    "longitude": -118.82759,
    "city": "Three Rivers",
    "state": "CA",
    "full_state": "California",
    "county": "Tulare"
  },
  {
    "zip_code": 93272,
    "latitude": 36.005985,
    "longitude": -119.333512,
    "city": "Tipton",
    "state": "CA",
    "full_state": "California",
    "county": "Tulare"
  },
  {
    "zip_code": 93274,
    "latitude": 36.133527,
    "longitude": -119.299856,
    "city": "Tulare",
    "state": "CA",
    "full_state": "California",
    "county": "Tulare"
  },
  {
    "zip_code": 93275,
    "latitude": 36.26699,
    "longitude": -118.776902,
    "city": "Tulare",
    "state": "CA",
    "full_state": "California",
    "county": "Tulare"
  },
  {
    "zip_code": 93276,
    "latitude": 35.294405,
    "longitude": -118.905173,
    "city": "Tupman",
    "state": "CA",
    "full_state": "California",
    "county": "Kern"
  },
  {
    "zip_code": 93277,
    "latitude": 36.13188,
    "longitude": -119.355559,
    "city": "Visalia",
    "state": "CA",
    "full_state": "California",
    "county": "Tulare"
  },
  {
    "zip_code": 93278,
    "latitude": 36.126621,
    "longitude": -118.819365,
    "city": "Visalia",
    "state": "CA",
    "full_state": "California",
    "county": "Tulare"
  },
  {
    "zip_code": 93279,
    "latitude": 36.393615,
    "longitude": -119.118982,
    "city": "Visalia",
    "state": "CA",
    "full_state": "California",
    "county": "Tulare"
  },
  {
    "zip_code": 93280,
    "latitude": 35.467934,
    "longitude": -118.704037,
    "city": "Wasco",
    "state": "CA",
    "full_state": "California",
    "county": "Kern"
  },
  {
    "zip_code": 93282,
    "latitude": 36.129557,
    "longitude": -119.516076,
    "city": "Waukena",
    "state": "CA",
    "full_state": "California",
    "county": "Tulare"
  },
  {
    "zip_code": 93283,
    "latitude": 35.54194,
    "longitude": -118.578135,
    "city": "Weldon",
    "state": "CA",
    "full_state": "California",
    "county": "Kern"
  },
  {
    "zip_code": 93285,
    "latitude": 35.472296,
    "longitude": -118.552613,
    "city": "Wofford Heights",
    "state": "CA",
    "full_state": "California",
    "county": "Kern"
  },
  {
    "zip_code": 93286,
    "latitude": 36.465943,
    "longitude": -119.122283,
    "city": "Woodlake",
    "state": "CA",
    "full_state": "California",
    "county": "Tulare"
  },
  {
    "zip_code": 93287,
    "latitude": 35.608372,
    "longitude": -118.79575,
    "city": "Woody",
    "state": "CA",
    "full_state": "California",
    "county": "Kern"
  },
  {
    "zip_code": 93291,
    "latitude": 36.184014,
    "longitude": -119.363349,
    "city": "Visalia",
    "state": "CA",
    "full_state": "California",
    "county": "Tulare"
  },
  {
    "zip_code": 93292,
    "latitude": 36.19457,
    "longitude": -119.228324,
    "city": "Visalia",
    "state": "CA",
    "full_state": "California",
    "county": "Tulare"
  },
  {
    "zip_code": 93301,
    "latitude": 35.483501,
    "longitude": -119.007662,
    "city": "Bakersfield",
    "state": "CA",
    "full_state": "California",
    "county": "Kern"
  },
  {
    "zip_code": 93302,
    "latitude": 35.294405,
    "longitude": -118.905173,
    "city": "Bakersfield",
    "state": "CA",
    "full_state": "California",
    "county": "Kern"
  },
  {
    "zip_code": 93303,
    "latitude": 35.294405,
    "longitude": -118.905173,
    "city": "Bakersfield",
    "state": "CA",
    "full_state": "California",
    "county": "Kern"
  },
  {
    "zip_code": 93304,
    "latitude": 35.332109,
    "longitude": -119.022134,
    "city": "Bakersfield",
    "state": "CA",
    "full_state": "California",
    "county": "Kern"
  },
  {
    "zip_code": 93305,
    "latitude": 35.385489,
    "longitude": -118.985984,
    "city": "Bakersfield",
    "state": "CA",
    "full_state": "California",
    "county": "Kern"
  },
  {
    "zip_code": 93306,
    "latitude": 35.413048,
    "longitude": -118.867478,
    "city": "Bakersfield",
    "state": "CA",
    "full_state": "California",
    "county": "Kern"
  },
  {
    "zip_code": 93307,
    "latitude": 35.105383,
    "longitude": -118.716613,
    "city": "Bakersfield",
    "state": "CA",
    "full_state": "California",
    "county": "Kern"
  },
  {
    "zip_code": 93308,
    "latitude": 35.567657,
    "longitude": -118.892932,
    "city": "Bakersfield",
    "state": "CA",
    "full_state": "California",
    "county": "Kern"
  },
  {
    "zip_code": 93309,
    "latitude": 35.294405,
    "longitude": -118.905173,
    "city": "Bakersfield",
    "state": "CA",
    "full_state": "California",
    "county": "Kern"
  },
  {
    "zip_code": 93311,
    "latitude": 35.294405,
    "longitude": -118.905173,
    "city": "Bakersfield",
    "state": "CA",
    "full_state": "California",
    "county": "Kern"
  },
  {
    "zip_code": 93312,
    "latitude": 35.240577,
    "longitude": -118.917413,
    "city": "Bakersfield",
    "state": "CA",
    "full_state": "California",
    "county": "Kern"
  },
  {
    "zip_code": 93313,
    "latitude": 35.27581,
    "longitude": -119.013543,
    "city": "Bakersfield",
    "state": "CA",
    "full_state": "California",
    "county": "Kern"
  },
  {
    "zip_code": 93380,
    "latitude": 35.294405,
    "longitude": -118.905173,
    "city": "Bakersfield",
    "state": "CA",
    "full_state": "California",
    "county": "Kern"
  },
  {
    "zip_code": 93381,
    "latitude": 35.294405,
    "longitude": -118.905173,
    "city": "Bakersfield",
    "state": "CA",
    "full_state": "California",
    "county": "Kern"
  },
  {
    "zip_code": 93382,
    "latitude": 35.294405,
    "longitude": -118.905173,
    "city": "Bakersfield",
    "state": "CA",
    "full_state": "California",
    "county": "Kern"
  },
  {
    "zip_code": 93383,
    "latitude": 35.294405,
    "longitude": -118.905173,
    "city": "Bakersfield",
    "state": "CA",
    "full_state": "California",
    "county": "Kern"
  },
  {
    "zip_code": 93384,
    "latitude": 35.294405,
    "longitude": -118.905173,
    "city": "Bakersfield",
    "state": "CA",
    "full_state": "California",
    "county": "Kern"
  },
  {
    "zip_code": 93385,
    "latitude": 35.294405,
    "longitude": -118.905173,
    "city": "Bakersfield",
    "state": "CA",
    "full_state": "California",
    "county": "Kern"
  },
  {
    "zip_code": 93386,
    "latitude": 35.294405,
    "longitude": -118.905173,
    "city": "Bakersfield",
    "state": "CA",
    "full_state": "California",
    "county": "Kern"
  },
  {
    "zip_code": 93387,
    "latitude": 35.294405,
    "longitude": -118.905173,
    "city": "Bakersfield",
    "state": "CA",
    "full_state": "California",
    "county": "Kern"
  },
  {
    "zip_code": 93388,
    "latitude": 35.294405,
    "longitude": -118.905173,
    "city": "Bakersfield",
    "state": "CA",
    "full_state": "California",
    "county": "Kern"
  },
  {
    "zip_code": 93389,
    "latitude": 35.294405,
    "longitude": -118.905173,
    "city": "Bakersfield",
    "state": "CA",
    "full_state": "California",
    "county": "Kern"
  },
  {
    "zip_code": 93390,
    "latitude": 35.294405,
    "longitude": -118.905173,
    "city": "Bakersfield",
    "state": "CA",
    "full_state": "California",
    "county": "Kern"
  },
  {
    "zip_code": 93401,
    "latitude": 35.265573,
    "longitude": -120.62122,
    "city": "San Luis Obispo",
    "state": "CA",
    "full_state": "California",
    "county": "San Luis Obispo"
  },
  {
    "zip_code": 93402,
    "latitude": 35.301041,
    "longitude": -120.794897,
    "city": "Los Osos",
    "state": "CA",
    "full_state": "California",
    "county": "San Luis Obispo"
  },
  {
    "zip_code": 93403,
    "latitude": 35.347065,
    "longitude": -120.455345,
    "city": "San Luis Obispo",
    "state": "CA",
    "full_state": "California",
    "county": "San Luis Obispo"
  },
  {
    "zip_code": 93405,
    "latitude": 35.363067,
    "longitude": -120.703455,
    "city": "San Luis Obispo",
    "state": "CA",
    "full_state": "California",
    "county": "San Luis Obispo"
  },
  {
    "zip_code": 93406,
    "latitude": 35.347065,
    "longitude": -120.455345,
    "city": "San Luis Obispo",
    "state": "CA",
    "full_state": "California",
    "county": "San Luis Obispo"
  },
  {
    "zip_code": 93407,
    "latitude": 35.347065,
    "longitude": -120.455345,
    "city": "San Luis Obispo",
    "state": "CA",
    "full_state": "California",
    "county": "San Luis Obispo"
  },
  {
    "zip_code": 93408,
    "latitude": 35.347065,
    "longitude": -120.455345,
    "city": "San Luis Obispo",
    "state": "CA",
    "full_state": "California",
    "county": "San Luis Obispo"
  },
  {
    "zip_code": 93409,
    "latitude": 35.221085,
    "longitude": -120.636399,
    "city": "San Luis Obispo",
    "state": "CA",
    "full_state": "California",
    "county": "San Luis Obispo"
  },
  {
    "zip_code": 93410,
    "latitude": 35.347065,
    "longitude": -120.455345,
    "city": "San Luis Obispo",
    "state": "CA",
    "full_state": "California",
    "county": "San Luis Obispo"
  },
  {
    "zip_code": 93412,
    "latitude": 35.347065,
    "longitude": -120.455345,
    "city": "Los Osos",
    "state": "CA",
    "full_state": "California",
    "county": "San Luis Obispo"
  },
  {
    "zip_code": 93420,
    "latitude": 35.292432,
    "longitude": -120.655743,
    "city": "Arroyo Grande",
    "state": "CA",
    "full_state": "California",
    "county": "San Luis Obispo"
  },
  {
    "zip_code": 93421,
    "latitude": 35.347065,
    "longitude": -120.455345,
    "city": "Arroyo Grande",
    "state": "CA",
    "full_state": "California",
    "county": "San Luis Obispo"
  },
  {
    "zip_code": 93422,
    "latitude": 35.464793,
    "longitude": -120.712459,
    "city": "Atascadero",
    "state": "CA",
    "full_state": "California",
    "county": "San Luis Obispo"
  },
  {
    "zip_code": 93423,
    "latitude": 35.428241,
    "longitude": -120.769493,
    "city": "Atascadero",
    "state": "CA",
    "full_state": "California",
    "county": "San Luis Obispo"
  },
  {
    "zip_code": 93424,
    "latitude": 35.190349,
    "longitude": -120.717769,
    "city": "Avila Beach",
    "state": "CA",
    "full_state": "California",
    "county": "San Luis Obispo"
  },
  {
    "zip_code": 93426,
    "latitude": 35.907585,
    "longitude": -120.937371,
    "city": "Bradley",
    "state": "CA",
    "full_state": "California",
    "county": "Monterey"
  },
  {
    "zip_code": 93427,
    "latitude": 34.635927,
    "longitude": -120.201469,
    "city": "Buellton",
    "state": "CA",
    "full_state": "California",
    "county": "Santa Barbara"
  },
  {
    "zip_code": 93428,
    "latitude": 35.587748,
    "longitude": -120.954454,
    "city": "Cambria",
    "state": "CA",
    "full_state": "California",
    "county": "San Luis Obispo"
  },
  {
    "zip_code": 93429,
    "latitude": 34.845765,
    "longitude": -120.534979,
    "city": "Casmalia",
    "state": "CA",
    "full_state": "California",
    "county": "Santa Barbara"
  },
  {
    "zip_code": 93430,
    "latitude": 35.473343,
    "longitude": -120.908608,
    "city": "Cayucos",
    "state": "CA",
    "full_state": "California",
    "county": "San Luis Obispo"
  },
  {
    "zip_code": 93432,
    "latitude": 35.477945,
    "longitude": -120.436119,
    "city": "Creston",
    "state": "CA",
    "full_state": "California",
    "county": "San Luis Obispo"
  },
  {
    "zip_code": 93433,
    "latitude": 35.38173,
    "longitude": -120.50264,
    "city": "Grover Beach",
    "state": "CA",
    "full_state": "California",
    "county": "San Luis Obispo"
  },
  {
    "zip_code": 93434,
    "latitude": 34.938796,
    "longitude": -120.57318,
    "city": "Guadalupe",
    "state": "CA",
    "full_state": "California",
    "county": "Santa Barbara"
  },
  {
    "zip_code": 93435,
    "latitude": 35.491888,
    "longitude": -120.976259,
    "city": "Harmony",
    "state": "CA",
    "full_state": "California",
    "county": "San Luis Obispo"
  },
  {
    "zip_code": 93436,
    "latitude": 34.629464,
    "longitude": -120.336594,
    "city": "Lompoc",
    "state": "CA",
    "full_state": "California",
    "county": "Santa Barbara"
  },
  {
    "zip_code": 93437,
    "latitude": 34.737289,
    "longitude": -120.525706,
    "city": "Lompoc",
    "state": "CA",
    "full_state": "California",
    "county": "Santa Barbara"
  },
  {
    "zip_code": 93438,
    "latitude": 34.262834,
    "longitude": -119.848555,
    "city": "Lompoc",
    "state": "CA",
    "full_state": "California",
    "county": "Santa Barbara"
  },
  {
    "zip_code": 93440,
    "latitude": 34.745715,
    "longitude": -120.204944,
    "city": "Los Alamos",
    "state": "CA",
    "full_state": "California",
    "county": "Santa Barbara"
  },
  {
    "zip_code": 93441,
    "latitude": 34.693012,
    "longitude": -120.068487,
    "city": "Los Olivos",
    "state": "CA",
    "full_state": "California",
    "county": "Santa Barbara"
  },
  {
    "zip_code": 93442,
    "latitude": 35.402295,
    "longitude": -120.793742,
    "city": "Morro Bay",
    "state": "CA",
    "full_state": "California",
    "county": "San Luis Obispo"
  },
  {
    "zip_code": 93443,
    "latitude": 35.347065,
    "longitude": -120.455345,
    "city": "Morro Bay",
    "state": "CA",
    "full_state": "California",
    "county": "San Luis Obispo"
  },
  {
    "zip_code": 93444,
    "latitude": 35.048397,
    "longitude": -120.494812,
    "city": "Nipomo",
    "state": "CA",
    "full_state": "California",
    "county": "San Luis Obispo"
  },
  {
    "zip_code": 93445,
    "latitude": 35.106168,
    "longitude": -120.611142,
    "city": "Oceano",
    "state": "CA",
    "full_state": "California",
    "county": "San Luis Obispo"
  },
  {
    "zip_code": 93446,
    "latitude": 35.640598,
    "longitude": -120.700313,
    "city": "Paso Robles",
    "state": "CA",
    "full_state": "California",
    "county": "San Luis Obispo"
  },
  {
    "zip_code": 93447,
    "latitude": 35.75624,
    "longitude": -120.693505,
    "city": "Paso Robles",
    "state": "CA",
    "full_state": "California",
    "county": "San Luis Obispo"
  },
  {
    "zip_code": 93448,
    "latitude": 35.347065,
    "longitude": -120.455345,
    "city": "Pismo Beach",
    "state": "CA",
    "full_state": "California",
    "county": "San Luis Obispo"
  },
  {
    "zip_code": 93449,
    "latitude": 35.391719,
    "longitude": -120.549178,
    "city": "Pismo Beach",
    "state": "CA",
    "full_state": "California",
    "county": "San Luis Obispo"
  },
  {
    "zip_code": 93450,
    "latitude": 35.982551,
    "longitude": -120.828342,
    "city": "San Ardo",
    "state": "CA",
    "full_state": "California",
    "county": "Monterey"
  },